counter, roll, pitch, yaw, pan, tilt, lati, longi, timestp, heading, rateofturn, cog, sog2, sow, sog, temp, humidity, pressure, wind_speed, wind_angle, bb_roll, bb_pitch, bb_yaw, proc_ptu_mode, proc_colav_limit, proc_colav_speed, proc_surveil_speed
224102, -1.5578745603561401, -0.08729787915945053, -164.25054931640625, 10.430000305175781, -0.029999999329447746, 0.0, 0.0, 0.0, 0.0, 0.0, 0.0, 0.0, 0.0, 0.0, 0.0, 0.0, 0.0, 0.0, 0.0, 0.0, 0.0, 0.0, 3, 35.0, 0.015, 0.015 
224107, -0.2884172797203064, -0.052757445722818375, -164.1072540283203, 10.029999732971191, -0.029999999329447746, 0.0, 0.0, 0.0, 0.0, 0.0, 0.0, 0.0, 0.0, 0.0, 0.0, 0.0, 0.0, 0.0, 0.0, 0.0, 0.0, 0.0, 3, 35.0, 0.015, 0.015 
224108, 0.04387389495968819, -0.020653845742344856, -164.10671997070312, 9.949999809265137, -0.029999999329447746, 0.0, 0.0, 0.0, 0.0, 0.0, 0.0, 0.0, 0.0, 0.0, 0.0, 0.0, 0.0, 0.0, 0.0, 0.0, 0.0, 0.0, 3, 35.0, 0.015, 0.015 
224108, 0.04387389495968819, -0.020653845742344856, -164.10671997070312, 9.949999809265137, -0.029999999329447746, 0.0, 0.0, 0.0, 0.0, 0.0, 0.0, 0.0, 0.0, 0.0, 0.0, 0.0, 0.0, 0.0, 0.0, 0.0, 0.0, 0.0, 3, 35.0, 0.015, 0.015 
224109, 0.2170976996421814, -0.017093036323785782, -164.08096313476562, 9.949999809265137, -0.029999999329447746, 0.0, 0.0, 0.0, 0.0, 0.0, 0.0, 0.0, 0.0, 0.0, 0.0, 0.0, 0.0, 0.0, 0.0, 0.0, 0.0, 0.0, 3, 35.0, 0.015, 0.015 
224109, 0.2170976996421814, -0.017093036323785782, -164.08096313476562, 9.859999656677246, -0.029999999329447746, 0.0, 0.0, 0.0, 0.0, 0.0, 0.0, 0.0, 0.0, 0.0, 0.0, 0.0, 0.0, 0.0, 0.0, 0.0, 0.0, 0.0, 3, 35.0, 0.015, 0.015 
224112, 1.0112667083740234, 0.021814199164509773, -163.97312927246094, 9.619999885559082, -0.029999999329447746, 0.0, 0.0, 0.0, 0.0, 0.0, 0.0, 0.0, 0.0, 0.0, 0.0, 0.0, 0.0, 0.0, 0.0, 0.0, 0.0, 0.0, 3, 35.0, 0.015, 0.015 
224115, 1.6992651224136353, 0.11176948994398117, -163.9160614013672, 9.460000038146973, -0.029999999329447746, 0.0, 0.0, 0.0, 0.0, 0.0, 0.0, 0.0, 0.0, 0.0, 0.0, 0.0, 0.0, 0.0, 0.0, 0.0, 0.0, 0.0, 3, 35.0, 0.015, 0.015 
224116, 2.0277130603790283, 0.10221343487501144, -163.8955535888672, 9.300000190734863, -0.03999999910593033, 0.0, 0.0, 0.0, 0.0, 0.0, 0.0, 0.0, 0.0, 0.0, 0.0, 0.0, 0.0, 0.0, 0.0, 0.0, 0.0, 0.0, 3, 35.0, 0.015, 0.015 
224120, 2.8653404712677, 0.2507871389389038, -163.7875518798828, 9.0600004196167, -0.09000000357627869, 0.0, 0.0, 0.0, 0.0, 0.0, 0.0, 0.0, 0.0, 0.0, 0.0, 0.0, 0.0, 0.0, 0.0, 0.0, 0.0, 0.0, 3, 35.0, 0.015, 0.015 
224122, 3.1688332557678223, 0.2786363661289215, -163.69931030273438, 8.8100004196167, -0.20999999344348907, 0.0, 0.0, 0.0, 0.0, 0.0, 0.0, 0.0, 0.0, 0.0, 0.0, 0.0, 0.0, 0.0, 0.0, 0.0, 0.0, 0.0, 3, 35.0, 0.015, 0.015 
224124, 3.4760046005249023, 0.41427990794181824, -163.5899658203125, 8.729999542236328, -0.25, 0.0, 0.0, 0.0, 0.0, 0.0, 0.0, 0.0, 0.0, 0.0, 0.0, 0.0, 0.0, 0.0, 0.0, 0.0, 0.0, 0.0, 3, 35.0, 0.015, 0.015 
224125, 3.5929529666900635, 0.46525806188583374, -163.5470428466797, 8.649999618530273, -0.28999999165534973, 0.0, 0.0, 0.0, 0.0, 0.0, 0.0, 0.0, 0.0, 0.0, 0.0, 0.0, 0.0, 0.0, 0.0, 0.0, 0.0, 0.0, 3, 35.0, 0.015, 0.015 
224127, 4.000992298126221, 0.4158231019973755, -163.42996215820312, 8.40999984741211, -0.47999998927116394, 0.0, 0.0, 0.0, 0.0, 0.0, 0.0, 0.0, 0.0, 0.0, 0.0, 0.0, 0.0, 0.0, 0.0, 0.0, 0.0, 0.0, 3, 35.0, 0.015, 0.015 
224130, 4.835110664367676, 0.4945897161960602, -163.38243103027344, 8.25, -0.6000000238418579, 0.0, 0.0, 0.0, 0.0, 0.0, 0.0, 0.0, 0.0, 0.0, 0.0, 0.0, 0.0, 0.0, 0.0, 0.0, 0.0, 0.0, 3, 35.0, 0.015, 0.015 
224132, 5.318443298339844, 0.5066989660263062, -163.51641845703125, 8.079999923706055, -0.7300000190734863, 0.0, 0.0, 0.0, 0.0, 0.0, 0.0, 0.0, 0.0, 0.0, 0.0, 0.0, 0.0, 0.0, 0.0, 0.0, 0.0, 0.0, 3, 35.0, 0.015, 0.015 
224134, 5.70782470703125, 0.4563988447189331, -163.33834838867188, 7.920000076293945, -0.8899999856948853, 0.0, 0.0, 0.0, 0.0, 0.0, 0.0, 0.0, 0.0, 0.0, 0.0, 0.0, 0.0, 0.0, 0.0, 0.0, 0.0, 0.0, 3, 35.0, 0.015, 0.015 
224136, 5.917327404022217, 0.4666600823402405, -163.20321655273438, 7.679999828338623, -1.100000023841858, 0.0, 0.0, 0.0, 0.0, 0.0, 0.0, 0.0, 0.0, 0.0, 0.0, 0.0, 0.0, 0.0, 0.0, 0.0, 0.0, 0.0, 3, 35.0, 0.015, 0.015 
224138, 5.967752456665039, 0.6172210574150085, -163.0918731689453, 7.519999980926514, -1.2400000095367432, 0.0, 0.0, 0.0, 0.0, 0.0, 0.0, 0.0, 0.0, 0.0, 0.0, 0.0, 0.0, 0.0, 0.0, 0.0, 0.0, 0.0, 3, 35.0, 0.015, 0.015 
224141, 5.959500312805176, 0.580294668674469, -162.8151092529297, 7.349999904632568, -1.4299999475479126, 0.0, 0.0, 0.0, 0.0, 0.0, 0.0, 0.0, 0.0, 0.0, 0.0, 0.0, 0.0, 0.0, 0.0, 0.0, 0.0, 0.0, 3, 35.0, 0.015, 0.015 
224143, 6.132812976837158, 0.6249915957450867, -162.54713439941406, 7.110000133514404, -1.690000057220459, 0.0, 0.0, 0.0, 0.0, 0.0, 0.0, 0.0, 0.0, 0.0, 0.0, 0.0, 0.0, 0.0, 0.0, 0.0, 0.0, 0.0, 3, 35.0, 0.015, 0.015 
224145, 6.522000789642334, 0.6687098145484924, -162.34730529785156, 6.949999809265137, -1.8799999952316284, 0.0, 0.0, 0.0, 0.0, 0.0, 0.0, 0.0, 0.0, 0.0, 0.0, 0.0, 0.0, 0.0, 0.0, 0.0, 0.0, 0.0, 3, 35.0, 0.015, 0.015 
224147, 6.915608882904053, 0.48433688282966614, -162.5899200439453, 6.789999961853027, -2.069999933242798, 0.0, 0.0, 0.0, 0.0, 0.0, 0.0, 0.0, 0.0, 0.0, 0.0, 0.0, 0.0, 0.0, 0.0, 0.0, 0.0, 0.0, 3, 35.0, 0.015, 0.015 
224150, 7.0473785400390625, 0.20677845180034637, -162.41448974609375, 6.619999885559082, -2.2200000286102295, 0.0, 0.0, 0.0, 0.0, 0.0, 0.0, 0.0, 0.0, 0.0, 0.0, 0.0, 0.0, 0.0, 0.0, 0.0, 0.0, 0.0, 3, 35.0, 0.015, 0.015 
224152, 6.763214111328125, 0.060642167925834656, -162.19915771484375, 6.460000038146973, -2.309999942779541, 0.0, 0.0, 0.0, 0.0, 0.0, 0.0, 0.0, 0.0, 0.0, 0.0, 0.0, 0.0, 0.0, 0.0, 0.0, 0.0, 0.0, 3, 35.0, 0.015, 0.015 
224155, 6.36630392074585, 0.2654630243778229, -161.90811157226562, 6.139999866485596, -2.390000104904175, 0.0, 0.0, 0.0, 0.0, 0.0, 0.0, 0.0, 0.0, 0.0, 0.0, 0.0, 0.0, 0.0, 0.0, 0.0, 0.0, 0.0, 3, 35.0, 0.015, 0.015 
224158, 6.275909900665283, -0.06837230920791626, -161.4237518310547, 5.980000019073486, -2.4600000381469727, 0.0, 0.0, 0.0, 0.0, 0.0, 0.0, 0.0, 0.0, 0.0, 0.0, 0.0, 0.0, 0.0, 0.0, 0.0, 0.0, 0.0, 3, 35.0, 0.015, 0.015 
224159, 6.298893451690674, -0.16290436685085297, -161.46163940429688, 5.900000095367432, -2.490000009536743, 0.0, 0.0, 0.0, 0.0, 0.0, 0.0, 0.0, 0.0, 0.0, 0.0, 0.0, 0.0, 0.0, 0.0, 0.0, 0.0, 0.0, 3, 35.0, 0.015, 0.015 
224161, 6.315327167510986, -0.18876823782920837, -161.6420440673828, 5.650000095367432, -2.4600000381469727, 0.0, 0.0, 0.0, 0.0, 0.0, 0.0, 0.0, 0.0, 0.0, 0.0, 0.0, 0.0, 0.0, 0.0, 0.0, 0.0, 0.0, 3, 35.0, 0.015, 0.015 
224163, 6.1153388023376465, -0.2792302370071411, -161.37777709960938, 5.570000171661377, -2.430000066757202, 0.0, 0.0, 0.0, 0.0, 0.0, 0.0, 0.0, 0.0, 0.0, 0.0, 0.0, 0.0, 0.0, 0.0, 0.0, 0.0, 0.0, 3, 35.0, 0.015, 0.015 
224165, 5.73793363571167, -0.3705468475818634, -161.08120727539062, 5.409999847412109, -2.359999895095825, 0.0, 0.0, 0.0, 0.0, 0.0, 0.0, 0.0, 0.0, 0.0, 0.0, 0.0, 0.0, 0.0, 0.0, 0.0, 0.0, 0.0, 3, 35.0, 0.015, 0.015 
224167, 5.353474140167236, -0.39777010679244995, -160.96046447753906, 5.170000076293945, -2.200000047683716, 0.0, 0.0, 0.0, 0.0, 0.0, 0.0, 0.0, 0.0, 0.0, 0.0, 0.0, 0.0, 0.0, 0.0, 0.0, 0.0, 0.0, 3, 35.0, 0.015, 0.015 
224169, 5.046472072601318, -0.3449874222278595, -160.69325256347656, 5.0, -2.0799999237060547, 0.0, 0.0, 0.0, 0.0, 0.0, 0.0, 0.0, 0.0, 0.0, 0.0, 0.0, 0.0, 0.0, 0.0, 0.0, 0.0, 0.0, 3, 35.0, 0.015, 0.015 
224172, 4.470462322235107, -0.613974928855896, -160.46726989746094, 4.840000152587891, -1.9700000286102295, 0.0, 0.0, 0.0, 0.0, 0.0, 0.0, 0.0, 0.0, 0.0, 0.0, 0.0, 0.0, 0.0, 0.0, 0.0, 0.0, 0.0, 3, 35.0, 0.015, 0.015 
224174, 3.9491422176361084, -0.5689811110496521, -160.14088439941406, 4.679999828338623, -1.7999999523162842, 0.0, 0.0, 0.0, 0.0, 0.0, 0.0, 0.0, 0.0, 0.0, 0.0, 0.0, 0.0, 0.0, 0.0, 0.0, 0.0, 0.0, 3, 35.0, 0.015, 0.015 
224176, 3.347011089324951, -0.587742269039154, -159.84689331054688, 4.440000057220459, -1.5399999618530273, 0.0, 0.0, 0.0, 0.0, 0.0, 0.0, 0.0, 0.0, 0.0, 0.0, 0.0, 0.0, 0.0, 0.0, 0.0, 0.0, 0.0, 3, 35.0, 0.015, 0.015 
224179, 2.563032865524292, -0.6453134417533875, -159.5717010498047, 4.28000020980835, -1.3700000047683716, 0.0, 0.0, 0.0, 0.0, 0.0, 0.0, 0.0, 0.0, 0.0, 0.0, 0.0, 0.0, 0.0, 0.0, 0.0, 0.0, 0.0, 3, 35.0, 0.015, 0.015 
224181, 2.037290573120117, -0.6980642080307007, -159.20021057128906, 4.110000133514404, -1.1799999475479126, 0.0, 0.0, 0.0, 0.0, 0.0, 0.0, 0.0, 0.0, 0.0, 0.0, 0.0, 0.0, 0.0, 0.0, 0.0, 0.0, 0.0, 3, 35.0, 0.015, 0.015 
224183, 1.4984952211380005, -0.7499740719795227, -159.0424346923828, 3.950000047683716, -0.9700000286102295, 0.0, 0.0, 0.0, 0.0, 0.0, 0.0, 0.0, 0.0, 0.0, 0.0, 0.0, 0.0, 0.0, 0.0, 0.0, 0.0, 0.0, 3, 35.0, 0.015, 0.015 
224185, 0.8495240211486816, -0.728405773639679, -158.7832489013672, 3.7899999618530273, -0.75, 0.0, 0.0, 0.0, 0.0, 0.0, 0.0, 0.0, 0.0, 0.0, 0.0, 0.0, 0.0, 0.0, 0.0, 0.0, 0.0, 0.0, 3, 35.0, 0.015, 0.015 
224187, 0.08174744248390198, -0.7388275861740112, -158.36953735351562, 3.549999952316284, -0.41999998688697815, 0.0, 0.0, 0.0, 0.0, 0.0, 0.0, 0.0, 0.0, 0.0, 0.0, 0.0, 0.0, 0.0, 0.0, 0.0, 0.0, 0.0, 3, 35.0, 0.015, 0.015 
224189, -0.7140210866928101, -0.7725880146026611, -158.07791137695312, 3.380000114440918, -0.1899999976158142, 0.0, 0.0, 0.0, 0.0, 0.0, 0.0, 0.0, 0.0, 0.0, 0.0, 0.0, 0.0, 0.0, 0.0, 0.0, 0.0, 0.0, 3, 35.0, 0.015, 0.015 
224192, -2.0123450756073, -0.7720387578010559, -157.4741973876953, 3.2200000286102295, 0.029999999329447746, 0.0, 0.0, 0.0, 0.0, 0.0, 0.0, 0.0, 0.0, 0.0, 0.0, 0.0, 0.0, 0.0, 0.0, 0.0, 0.0, 0.0, 3, 35.0, 0.015, 0.015 
224194, -2.794496536254883, -0.7877553701400757, -157.13291931152344, 3.059999942779541, 0.25999999046325684, 0.0, 0.0, 0.0, 0.0, 0.0, 0.0, 0.0, 0.0, 0.0, 0.0, 0.0, 0.0, 0.0, 0.0, 0.0, 0.0, 0.0, 3, 35.0, 0.015, 0.015 
224196, -3.584444046020508, -0.7518709301948547, -156.7923583984375, 2.819999933242798, 0.6000000238418579, 0.0, 0.0, 0.0, 0.0, 0.0, 0.0, 0.0, 0.0, 0.0, 0.0, 0.0, 0.0, 0.0, 0.0, 0.0, 0.0, 0.0, 3, 35.0, 0.015, 0.015 
224198, -4.375596523284912, -0.7630844712257385, -156.40806579589844, 2.6600000858306885, 0.8299999833106995, 0.0, 0.0, 0.0, 0.0, 0.0, 0.0, 0.0, 0.0, 0.0, 0.0, 0.0, 0.0, 0.0, 0.0, 0.0, 0.0, 0.0, 3, 35.0, 0.015, 0.015 
224200, -5.142144680023193, -0.6423541307449341, -156.0535430908203, 2.490000009536743, 1.059999942779541, 0.0, 0.0, 0.0, 0.0, 0.0, 0.0, 0.0, 0.0, 0.0, 0.0, 0.0, 0.0, 0.0, 0.0, 0.0, 0.0, 0.0, 3, 35.0, 0.015, 0.015 
224203, -6.147900581359863, -0.5610570311546326, -155.5220947265625, 2.3299999237060547, 1.2599999904632568, 0.0, 0.0, 0.0, 0.0, 0.0, 0.0, 0.0, 0.0, 0.0, 0.0, 0.0, 0.0, 0.0, 0.0, 0.0, 0.0, 0.0, 3, 35.0, 0.015, 0.015 
224205, -6.7888078689575195, -0.34299585223197937, -155.0043487548828, 2.1700000762939453, 1.440000057220459, 0.0, 0.0, 0.0, 0.0, 0.0, 0.0, 0.0, 0.0, 0.0, 0.0, 0.0, 0.0, 0.0, 0.0, 0.0, 0.0, 0.0, 3, 35.0, 0.015, 0.015 
224207, -7.420804500579834, 0.06554984301328659, -154.6521759033203, 1.9299999475479126, 1.600000023841858, 0.0, 0.0, 0.0, 0.0, 0.0, 0.0, 0.0, 0.0, 0.0, 0.0, 0.0, 0.0, 0.0, 0.0, 0.0, 0.0, 0.0, 3, 35.0, 0.015, 0.015 
224209, -7.616942405700684, 0.04805615171790123, -154.49855041503906, 1.7599999904632568, 1.600000023841858, 0.0, 0.0, 0.0, 0.0, 0.0, 0.0, 0.0, 0.0, 0.0, 0.0, 0.0, 0.0, 0.0, 0.0, 0.0, 0.0, 0.0, 3, 35.0, 0.015, 0.015 
224212, -7.996706008911133, 0.39772045612335205, -154.1273193359375, 1.600000023841858, 1.590000033378601, 0.0, 0.0, 0.0, 0.0, 0.0, 0.0, 0.0, 0.0, 0.0, 0.0, 0.0, 0.0, 0.0, 0.0, 0.0, 0.0, 0.0, 3, 35.0, 0.015, 0.015 
224214, -8.346688270568848, 0.5155928730964661, -154.01734924316406, 1.440000057220459, 1.5099999904632568, 0.0, 0.0, 0.0, 0.0, 0.0, 0.0, 0.0, 0.0, 0.0, 0.0, 0.0, 0.0, 0.0, 0.0, 0.0, 0.0, 0.0, 3, 35.0, 0.015, 0.015 
224216, -8.759664535522461, 0.3686544895172119, -153.69068908691406, 1.2000000476837158, 1.2899999618530273, 0.0, 0.0, 0.0, 0.0, 0.0, 0.0, 0.0, 0.0, 0.0, 0.0, 0.0, 0.0, 0.0, 0.0, 0.0, 0.0, 0.0, 3, 35.0, 0.015, 0.015 
224218, -9.101853370666504, 0.6334596872329712, -153.21121215820312, 1.0399999618530273, 1.1699999570846558, 0.0, 0.0, 0.0, 0.0, 0.0, 0.0, 0.0, 0.0, 0.0, 0.0, 0.0, 0.0, 0.0, 0.0, 0.0, 0.0, 0.0, 3, 35.0, 0.015, 0.015 
224221, -9.425318717956543, 0.7604787945747375, -152.865478515625, 0.8700000047683716, 0.9700000286102295, 0.0, 0.0, 0.0, 0.0, 0.0, 0.0, 0.0, 0.0, 0.0, 0.0, 0.0, 0.0, 0.0, 0.0, 0.0, 0.0, 0.0, 3, 35.0, 0.015, 0.015 
224223, -9.410844802856445, 0.700281023979187, -152.5749053955078, 0.7099999785423279, 0.7699999809265137, 0.0, 0.0, 0.0, 0.0, 0.0, 0.0, 0.0, 0.0, 0.0, 0.0, 0.0, 0.0, 0.0, 0.0, 0.0, 0.0, 0.0, 3, 35.0, 0.015, 0.015 
224225, -9.264741897583008, 0.7359480261802673, -152.34024047851562, 0.550000011920929, 0.550000011920929, 0.0, 0.0, 0.0, 0.0, 0.0, 0.0, 0.0, 0.0, 0.0, 0.0, 0.0, 0.0, 0.0, 0.0, 0.0, 0.0, 0.0, 3, 35.0, 0.015, 0.015 
224228, -8.464141845703125, 0.9434221982955933, -152.19395446777344, 0.3100000023841858, 0.23999999463558197, 0.0, 0.0, 0.0, 0.0, 0.0, 0.0, 0.0, 0.0, 0.0, 0.0, 0.0, 0.0, 0.0, 0.0, 0.0, 0.0, 0.0, 3, 35.0, 0.015, 0.015 
224229, -8.030176162719727, 1.1520349979400635, -152.0231170654297, 0.14000000059604645, -0.0, 0.0, 0.0, 0.0, 0.0, 0.0, 0.0, 0.0, 0.0, 0.0, 0.0, 0.0, 0.0, 0.0, 0.0, 0.0, 0.0, 0.0, 3, 35.0, 0.015, 0.015 
224232, -7.136669635772705, 1.1487823724746704, -151.87637329101562, -0.009999999776482582, -0.33000001311302185, 0.0, 0.0, 0.0, 0.0, 0.0, 0.0, 0.0, 0.0, 0.0, 0.0, 0.0, 0.0, 0.0, 0.0, 0.0, 0.0, 0.0, 3, 35.0, 0.015, 0.015 
224234, -6.583870887756348, 0.9618251919746399, -151.9093017578125, -0.25, -0.8399999737739563, 0.0, 0.0, 0.0, 0.0, 0.0, 0.0, 0.0, 0.0, 0.0, 0.0, 0.0, 0.0, 0.0, 0.0, 0.0, 0.0, 0.0, 3, 35.0, 0.015, 0.015 
224236, -6.11463737487793, 1.1068840026855469, -151.69854736328125, -0.41999998688697815, -1.1399999856948853, 0.0, 0.0, 0.0, 0.0, 0.0, 0.0, 0.0, 0.0, 0.0, 0.0, 0.0, 0.0, 0.0, 0.0, 0.0, 0.0, 0.0, 3, 35.0, 0.015, 0.015 
224238, -5.643612861633301, 0.7561652660369873, -151.3277587890625, -0.5799999833106995, -1.440000057220459, 0.0, 0.0, 0.0, 0.0, 0.0, 0.0, 0.0, 0.0, 0.0, 0.0, 0.0, 0.0, 0.0, 0.0, 0.0, 0.0, 0.0, 3, 35.0, 0.015, 0.015 
224241, -4.56608247756958, 0.7213883399963379, -150.99615478515625, -0.7400000095367432, -1.6799999475479126, 0.0, 0.0, 0.0, 0.0, 0.0, 0.0, 0.0, 0.0, 0.0, 0.0, 0.0, 0.0, 0.0, 0.0, 0.0, 0.0, 0.0, 3, 35.0, 0.015, 0.015 
224244, -3.5542516708374023, 0.49536386132240295, -150.88619995117188, -0.9800000190734863, -2.0199999809265137, 0.0, 0.0, 0.0, 0.0, 0.0, 0.0, 0.0, 0.0, 0.0, 0.0, 0.0, 0.0, 0.0, 0.0, 0.0, 0.0, 0.0, 3, 35.0, 0.015, 0.015 
224245, -3.0774407386779785, 0.3799152672290802, -150.8393096923828, -1.149999976158142, -2.200000047683716, 0.0, 0.0, 0.0, 0.0, 0.0, 0.0, 0.0, 0.0, 0.0, 0.0, 0.0, 0.0, 0.0, 0.0, 0.0, 0.0, 0.0, 3, 35.0, 0.015, 0.015 
224247, -2.4387662410736084, 0.4404129087924957, -150.80665588378906, -1.309999942779541, -2.319999933242798, 0.0, 0.0, 0.0, 0.0, 0.0, 0.0, 0.0, 0.0, 0.0, 0.0, 0.0, 0.0, 0.0, 0.0, 0.0, 0.0, 0.0, 3, 35.0, 0.015, 0.015 
224249, -1.797081708908081, 0.458499550819397, -150.51210021972656, -1.4700000286102295, -2.450000047683716, 0.0, 0.0, 0.0, 0.0, 0.0, 0.0, 0.0, 0.0, 0.0, 0.0, 0.0, 0.0, 0.0, 0.0, 0.0, 0.0, 0.0, 3, 35.0, 0.015, 0.015 
224251, -1.0620712041854858, 0.1703818291425705, -150.19151306152344, -1.6299999952316284, -2.5799999237060547, 0.0, 0.0, 0.0, 0.0, 0.0, 0.0, 0.0, 0.0, 0.0, 0.0, 0.0, 0.0, 0.0, 0.0, 0.0, 0.0, 0.0, 3, 35.0, 0.015, 0.015 
224254, 0.0515282042324543, -0.09898652881383896, -150.2332305908203, -1.7899999618530273, -2.640000104904175, 0.0, 0.0, 0.0, 0.0, 0.0, 0.0, 0.0, 0.0, 0.0, 0.0, 0.0, 0.0, 0.0, 0.0, 0.0, 0.0, 0.0, 3, 35.0, 0.015, 0.015 
224256, 0.8766626119613647, -0.031046634539961815, -150.320556640625, -2.0399999618530273, -2.640000104904175, 0.0, 0.0, 0.0, 0.0, 0.0, 0.0, 0.0, 0.0, 0.0, 0.0, 0.0, 0.0, 0.0, 0.0, 0.0, 0.0, 0.0, 3, 35.0, 0.015, 0.015 
224258, 1.5536606311798096, 0.040725551545619965, -150.12423706054688, -2.200000047683716, -2.640000104904175, 0.0, 0.0, 0.0, 0.0, 0.0, 0.0, 0.0, 0.0, 0.0, 0.0, 0.0, 0.0, 0.0, 0.0, 0.0, 0.0, 0.0, 3, 35.0, 0.015, 0.015 
224260, 2.080143451690674, -0.09575354307889938, -149.92697143554688, -2.359999895095825, -2.640000104904175, 0.0, 0.0, 0.0, 0.0, 0.0, 0.0, 0.0, 0.0, 0.0, 0.0, 0.0, 0.0, 0.0, 0.0, 0.0, 0.0, 0.0, 3, 35.0, 0.015, 0.015 
224263, 2.9898314476013184, -0.42064130306243896, -149.75498962402344, -2.5999999046325684, -2.559999942779541, 0.0, 0.0, 0.0, 0.0, 0.0, 0.0, 0.0, 0.0, 0.0, 0.0, 0.0, 0.0, 0.0, 0.0, 0.0, 0.0, 0.0, 3, 35.0, 0.015, 0.015 
224265, 3.6045775413513184, -0.35522082448005676, -149.6397705078125, -2.690000057220459, -2.490000009536743, 0.0, 0.0, 0.0, 0.0, 0.0, 0.0, 0.0, 0.0, 0.0, 0.0, 0.0, 0.0, 0.0, 0.0, 0.0, 0.0, 0.0, 3, 35.0, 0.015, 0.015 
224267, 4.189327239990234, -0.30773693323135376, -149.5499267578125, -2.930000066757202, -2.319999933242798, 0.0, 0.0, 0.0, 0.0, 0.0, 0.0, 0.0, 0.0, 0.0, 0.0, 0.0, 0.0, 0.0, 0.0, 0.0, 0.0, 0.0, 3, 35.0, 0.015, 0.015 
224269, 4.704867839813232, -0.46770885586738586, -149.43789672851562, -3.0899999141693115, -2.2300000190734863, 0.0, 0.0, 0.0, 0.0, 0.0, 0.0, 0.0, 0.0, 0.0, 0.0, 0.0, 0.0, 0.0, 0.0, 0.0, 0.0, 0.0, 3, 35.0, 0.015, 0.015 
224271, 5.189361095428467, -0.5623336434364319, -149.3500213623047, -3.25, -2.0899999141693115, 0.0, 0.0, 0.0, 0.0, 0.0, 0.0, 0.0, 0.0, 0.0, 0.0, 0.0, 0.0, 0.0, 0.0, 0.0, 0.0, 0.0, 3, 35.0, 0.015, 0.015 
224274, 5.748995780944824, -0.3074672222137451, -149.26658630371094, -3.4100000858306885, -1.9299999475479126, 0.0, 0.0, 0.0, 0.0, 0.0, 0.0, 0.0, 0.0, 0.0, 0.0, 0.0, 0.0, 0.0, 0.0, 0.0, 0.0, 0.0, 3, 35.0, 0.015, 0.015 
224276, 6.015344619750977, -0.38902342319488525, -149.11119079589844, -3.6600000858306885, -1.7699999809265137, 0.0, 0.0, 0.0, 0.0, 0.0, 0.0, 0.0, 0.0, 0.0, 0.0, 0.0, 0.0, 0.0, 0.0, 0.0, 0.0, 0.0, 3, 35.0, 0.015, 0.015 
224278, 6.1347784996032715, -0.4400808811187744, -148.96807861328125, -3.819999933242798, -1.649999976158142, 0.0, 0.0, 0.0, 0.0, 0.0, 0.0, 0.0, 0.0, 0.0, 0.0, 0.0, 0.0, 0.0, 0.0, 0.0, 0.0, 0.0, 3, 35.0, 0.015, 0.015 
224280, 6.133849143981934, -0.31797468662261963, -148.8116455078125, -3.9800000190734863, -1.5199999809265137, 0.0, 0.0, 0.0, 0.0, 0.0, 0.0, 0.0, 0.0, 0.0, 0.0, 0.0, 0.0, 0.0, 0.0, 0.0, 0.0, 0.0, 3, 35.0, 0.015, 0.015 
224283, 6.0418195724487305, -0.4175621569156647, -148.4896697998047, -4.139999866485596, -1.4199999570846558, 0.0, 0.0, 0.0, 0.0, 0.0, 0.0, 0.0, 0.0, 0.0, 0.0, 0.0, 0.0, 0.0, 0.0, 0.0, 0.0, 0.0, 3, 35.0, 0.015, 0.015 
224285, 6.0992608070373535, -0.269045352935791, -148.3140106201172, -4.389999866485596, -1.25, 0.0, 0.0, 0.0, 0.0, 0.0, 0.0, 0.0, 0.0, 0.0, 0.0, 0.0, 0.0, 0.0, 0.0, 0.0, 0.0, 0.0, 3, 35.0, 0.015, 0.015 
224287, 6.222586631774902, -0.27771252393722534, -148.23109436035156, -4.550000190734863, -1.159999966621399, 0.0, 0.0, 0.0, 0.0, 0.0, 0.0, 0.0, 0.0, 0.0, 0.0, 0.0, 0.0, 0.0, 0.0, 0.0, 0.0, 0.0, 3, 35.0, 0.015, 0.015 
224291, 6.268896579742432, -0.11688753962516785, -147.89340209960938, -4.789999961853027, -1.0499999523162842, 0.0, 0.0, 0.0, 0.0, 0.0, 0.0, 0.0, 0.0, 0.0, 0.0, 0.0, 0.0, 0.0, 0.0, 0.0, 0.0, 0.0, 3, 35.0, 0.015, 0.015 
224292, 6.233389377593994, -0.09754430502653122, -147.81874084472656, -4.869999885559082, -1.0199999809265137, 0.0, 0.0, 0.0, 0.0, 0.0, 0.0, 0.0, 0.0, 0.0, 0.0, 0.0, 0.0, 0.0, 0.0, 0.0, 0.0, 0.0, 3, 35.0, 0.015, 0.015 
224294, 6.041187763214111, -0.1532210260629654, -147.6975555419922, -5.119999885559082, -0.9700000286102295, 0.0, 0.0, 0.0, 0.0, 0.0, 0.0, 0.0, 0.0, 0.0, 0.0, 0.0, 0.0, 0.0, 0.0, 0.0, 0.0, 0.0, 3, 35.0, 0.015, 0.015 
224296, 5.754751205444336, -0.08386697620153427, -147.47486877441406, -5.28000020980835, -0.9300000071525574, 0.0, 0.0, 0.0, 0.0, 0.0, 0.0, 0.0, 0.0, 0.0, 0.0, 0.0, 0.0, 0.0, 0.0, 0.0, 0.0, 0.0, 3, 35.0, 0.015, 0.015 
224298, 5.4419331550598145, -0.03927048295736313, -147.12953186035156, -5.440000057220459, -0.9200000166893005, 0.0, 0.0, 0.0, 0.0, 0.0, 0.0, 0.0, 0.0, 0.0, 0.0, 0.0, 0.0, 0.0, 0.0, 0.0, 0.0, 0.0, 3, 35.0, 0.015, 0.015 
224301, 4.989671230316162, -0.01836053840816021, -146.87179565429688, -5.599999904632568, -0.9200000166893005, 0.0, 0.0, 0.0, 0.0, 0.0, 0.0, 0.0, 0.0, 0.0, 0.0, 0.0, 0.0, 0.0, 0.0, 0.0, 0.0, 0.0, 3, 35.0, 0.015, 0.015 
224303, 4.780874729156494, -0.012300265952944756, -146.58139038085938, -5.760000228881836, -0.9200000166893005, 0.0, 0.0, 0.0, 0.0, 0.0, 0.0, 0.0, 0.0, 0.0, 0.0, 0.0, 0.0, 0.0, 0.0, 0.0, 0.0, 0.0, 3, 35.0, 0.015, 0.015 
224305, 4.595261573791504, 0.02924884483218193, -146.4181365966797, -5.929999828338623, -0.9200000166893005, 0.0, 0.0, 0.0, 0.0, 0.0, 0.0, 0.0, 0.0, 0.0, 0.0, 0.0, 0.0, 0.0, 0.0, 0.0, 0.0, 0.0, 3, 35.0, 0.015, 0.015 
224307, 4.364415645599365, 0.09166213124990463, -146.26931762695312, -6.170000076293945, -0.9200000166893005, 0.0, 0.0, 0.0, 0.0, 0.0, 0.0, 0.0, 0.0, 0.0, 0.0, 0.0, 0.0, 0.0, 0.0, 0.0, 0.0, 0.0, 3, 35.0, 0.015, 0.015 
224309, 4.018631935119629, 0.05577785149216652, -145.99258422851562, -6.329999923706055, -0.9200000166893005, 0.0, 0.0, 0.0, 0.0, 0.0, 0.0, 0.0, 0.0, 0.0, 0.0, 0.0, 0.0, 0.0, 0.0, 0.0, 0.0, 0.0, 3, 35.0, 0.015, 0.015 
224312, 3.396183490753174, -0.032430630177259445, -145.65963745117188, -6.489999771118164, -0.9200000166893005, 0.0, 0.0, 0.0, 0.0, 0.0, 0.0, 0.0, 0.0, 0.0, 0.0, 0.0, 0.0, 0.0, 0.0, 0.0, 0.0, 0.0, 3, 35.0, 0.015, 0.015 
224314, 2.8906991481781006, -0.14029741287231445, -145.4220733642578, -6.650000095367432, -0.9200000166893005, 0.0, 0.0, 0.0, 0.0, 0.0, 0.0, 0.0, 0.0, 0.0, 0.0, 0.0, 0.0, 0.0, 0.0, 0.0, 0.0, 0.0, 3, 35.0, 0.015, 0.015 
224316, 2.439506769180298, -0.329459011554718, -145.16603088378906, -6.900000095367432, -0.8700000047683716, 0.0, 0.0, 0.0, 0.0, 0.0, 0.0, 0.0, 0.0, 0.0, 0.0, 0.0, 0.0, 0.0, 0.0, 0.0, 0.0, 0.0, 3, 35.0, 0.015, 0.015 
224318, 2.082026720046997, -0.3381541669368744, -144.80722045898438, -7.059999942779541, -0.7699999809265137, 0.0, 0.0, 0.0, 0.0, 0.0, 0.0, 0.0, 0.0, 0.0, 0.0, 0.0, 0.0, 0.0, 0.0, 0.0, 0.0, 0.0, 3, 35.0, 0.015, 0.015 
224320, 1.8569066524505615, -0.38391992449760437, -144.58230590820312, -7.21999979019165, -0.6600000262260437, 0.0, 0.0, 0.0, 0.0, 0.0, 0.0, 0.0, 0.0, 0.0, 0.0, 0.0, 0.0, 0.0, 0.0, 0.0, 0.0, 0.0, 3, 35.0, 0.015, 0.015 
224323, 1.6570390462875366, -0.20232030749320984, -144.4983367919922, -7.460000038146973, -0.5, 0.0, 0.0, 0.0, 0.0, 0.0, 0.0, 0.0, 0.0, 0.0, 0.0, 0.0, 0.0, 0.0, 0.0, 0.0, 0.0, 0.0, 3, 35.0, 0.015, 0.015 
224325, 1.5760133266448975, -0.35939881205558777, -144.30711364746094, -7.550000190734863, -0.46000000834465027, 0.0, 0.0, 0.0, 0.0, 0.0, 0.0, 0.0, 0.0, 0.0, 0.0, 0.0, 0.0, 0.0, 0.0, 0.0, 0.0, 0.0, 3, 35.0, 0.015, 0.015 
224327, 1.4895426034927368, -0.45425617694854736, -144.2986297607422, -7.789999961853027, -0.33000001311302185, 0.0, 0.0, 0.0, 0.0, 0.0, 0.0, 0.0, 0.0, 0.0, 0.0, 0.0, 0.0, 0.0, 0.0, 0.0, 0.0, 0.0, 3, 35.0, 0.015, 0.015 
224330, 1.2842272520065308, -0.24859477579593658, -144.04783630371094, -7.949999809265137, -0.20000000298023224, 0.0, 0.0, 0.0, 0.0, 0.0, 0.0, 0.0, 0.0, 0.0, 0.0, 0.0, 0.0, 0.0, 0.0, 0.0, 0.0, 0.0, 3, 35.0, 0.015, 0.015 
224332, 1.0939429998397827, -0.6041349172592163, -143.73226928710938, -8.1899995803833, -0.05999999865889549, 0.0, 0.0, 0.0, 0.0, 0.0, 0.0, 0.0, 0.0, 0.0, 0.0, 0.0, 0.0, 0.0, 0.0, 0.0, 0.0, 0.0, 3, 35.0, 0.015, 0.015 
224334, 0.9126525521278381, -0.7137896418571472, -143.7147216796875, -8.270000457763672, 0.019999999552965164, 0.0, 0.0, 0.0, 0.0, 0.0, 0.0, 0.0, 0.0, 0.0, 0.0, 0.0, 0.0, 0.0, 0.0, 0.0, 0.0, 0.0, 3, 35.0, 0.015, 0.015 
224336, 0.7644615769386292, -0.449484646320343, -143.53167724609375, -8.520000457763672, 0.3199999928474426, 0.0, 0.0, 0.0, 0.0, 0.0, 0.0, 0.0, 0.0, 0.0, 0.0, 0.0, 0.0, 0.0, 0.0, 0.0, 0.0, 0.0, 3, 35.0, 0.015, 0.015 
224338, 0.6135420203208923, -0.5956247448921204, -143.26254272460938, -8.680000305175781, 0.4699999988079071, 0.0, 0.0, 0.0, 0.0, 0.0, 0.0, 0.0, 0.0, 0.0, 0.0, 0.0, 0.0, 0.0, 0.0, 0.0, 0.0, 0.0, 3, 35.0, 0.015, 0.015 
224340, 0.45566511154174805, -0.5887027978897095, -143.1642303466797, -8.84000015258789, 0.6399999856948853, 0.0, 0.0, 0.0, 0.0, 0.0, 0.0, 0.0, 0.0, 0.0, 0.0, 0.0, 0.0, 0.0, 0.0, 0.0, 0.0, 0.0, 3, 35.0, 0.015, 0.015 
224343, 0.33310142159461975, -0.28856128454208374, -142.86175537109375, -9.010000228881836, 0.8100000023841858, 0.0, 0.0, 0.0, 0.0, 0.0, 0.0, 0.0, 0.0, 0.0, 0.0, 0.0, 0.0, 0.0, 0.0, 0.0, 0.0, 0.0, 3, 35.0, 0.015, 0.015 
224345, 0.31381431221961975, -0.3416750133037567, -142.71559143066406, -9.170000076293945, 0.9399999976158142, 0.0, 0.0, 0.0, 0.0, 0.0, 0.0, 0.0, 0.0, 0.0, 0.0, 0.0, 0.0, 0.0, 0.0, 0.0, 0.0, 0.0, 3, 35.0, 0.015, 0.015 
224347, 0.2941562235355377, -0.3151073157787323, -142.7039031982422, -9.40999984741211, 1.0700000524520874, 0.0, 0.0, 0.0, 0.0, 0.0, 0.0, 0.0, 0.0, 0.0, 0.0, 0.0, 0.0, 0.0, 0.0, 0.0, 0.0, 0.0, 3, 35.0, 0.015, 0.015 
224349, 0.24298036098480225, -0.219976544380188, -142.4962615966797, -9.569999694824219, 1.1699999570846558, 0.0, 0.0, 0.0, 0.0, 0.0, 0.0, 0.0, 0.0, 0.0, 0.0, 0.0, 0.0, 0.0, 0.0, 0.0, 0.0, 0.0, 3, 35.0, 0.015, 0.015 
224352, 0.06541778147220612, -0.22573573887348175, -142.31800842285156, -9.819999694824219, 1.2599999904632568, 0.0, 0.0, 0.0, 0.0, 0.0, 0.0, 0.0, 0.0, 0.0, 0.0, 0.0, 0.0, 0.0, 0.0, 0.0, 0.0, 0.0, 3, 35.0, 0.015, 0.015 
224354, -0.1287553459405899, -0.33127453923225403, -142.1829833984375, -9.899999618530273, 1.2999999523162842, 0.0, 0.0, 0.0, 0.0, 0.0, 0.0, 0.0, 0.0, 0.0, 0.0, 0.0, 0.0, 0.0, 0.0, 0.0, 0.0, 0.0, 3, 35.0, 0.015, 0.015 
224356, -0.3024965226650238, -0.406477153301239, -141.94383239746094, -10.140000343322754, 1.440000057220459, 0.0, 0.0, 0.0, 0.0, 0.0, 0.0, 0.0, 0.0, 0.0, 0.0, 0.0, 0.0, 0.0, 0.0, 0.0, 0.0, 0.0, 3, 35.0, 0.015, 0.015 
224358, -0.4215205907821655, -0.20772771537303925, -141.81170654296875, -10.300000190734863, 1.5499999523162842, 0.0, 0.0, 0.0, 0.0, 0.0, 0.0, 0.0, 0.0, 0.0, 0.0, 0.0, 0.0, 0.0, 0.0, 0.0, 0.0, 0.0, 3, 35.0, 0.015, 0.015 
224360, -0.48925450444221497, -0.14750342071056366, -141.6791534423828, -10.460000038146973, 1.6100000143051147, 0.0, 0.0, 0.0, 0.0, 0.0, 0.0, 0.0, 0.0, 0.0, 0.0, 0.0, 0.0, 0.0, 0.0, 0.0, 0.0, 0.0, 3, 35.0, 0.015, 0.015 
224363, -0.5250543355941772, -0.01911933533847332, -141.56744384765625, -10.630000114440918, 1.649999976158142, 0.0, 0.0, 0.0, 0.0, 0.0, 0.0, 0.0, 0.0, 0.0, 0.0, 0.0, 0.0, 0.0, 0.0, 0.0, 0.0, 0.0, 3, 35.0, 0.015, 0.015 
224365, -0.5896140336990356, 0.11431661248207092, -141.408447265625, -10.789999961853027, 1.6699999570846558, 0.0, 0.0, 0.0, 0.0, 0.0, 0.0, 0.0, 0.0, 0.0, 0.0, 0.0, 0.0, 0.0, 0.0, 0.0, 0.0, 0.0, 3, 35.0, 0.015, 0.015 
224367, -0.7456275224685669, 0.013968458399176598, -141.29129028320312, -11.029999732971191, 1.649999976158142, 0.0, 0.0, 0.0, 0.0, 0.0, 0.0, 0.0, 0.0, 0.0, 0.0, 0.0, 0.0, 0.0, 0.0, 0.0, 0.0, 0.0, 3, 35.0, 0.015, 0.015 
224369, -0.9771414995193481, -0.022389888763427734, -141.14183044433594, -11.1899995803833, 1.6299999952316284, 0.0, 0.0, 0.0, 0.0, 0.0, 0.0, 0.0, 0.0, 0.0, 0.0, 0.0, 0.0, 0.0, 0.0, 0.0, 0.0, 0.0, 3, 35.0, 0.015, 0.015 
224372, -1.2927958965301514, 0.046860188245773315, -140.90538024902344, -11.350000381469727, 1.6299999952316284, 0.0, 0.0, 0.0, 0.0, 0.0, 0.0, 0.0, 0.0, 0.0, 0.0, 0.0, 0.0, 0.0, 0.0, 0.0, 0.0, 0.0, 3, 35.0, 0.015, 0.015 
224374, -1.458596110343933, 0.051267609000205994, -140.77610778808594, -11.520000457763672, 1.6299999952316284, 0.0, 0.0, 0.0, 0.0, 0.0, 0.0, 0.0, 0.0, 0.0, 0.0, 0.0, 0.0, 0.0, 0.0, 0.0, 0.0, 0.0, 3, 35.0, 0.015, 0.015 
224376, -1.5472607612609863, 0.11496944725513458, -140.64697265625, -11.760000228881836, 1.6299999952316284, 0.0, 0.0, 0.0, 0.0, 0.0, 0.0, 0.0, 0.0, 0.0, 0.0, 0.0, 0.0, 0.0, 0.0, 0.0, 0.0, 0.0, 3, 35.0, 0.015, 0.015 
224378, -1.5989892482757568, 0.2709294259548187, -140.521484375, -11.920000076293945, 1.600000023841858, 0.0, 0.0, 0.0, 0.0, 0.0, 0.0, 0.0, 0.0, 0.0, 0.0, 0.0, 0.0, 0.0, 0.0, 0.0, 0.0, 0.0, 3, 35.0, 0.015, 0.015 
224380, -1.6776835918426514, 0.3839012086391449, -140.3964385986328, -12.079999923706055, 1.5099999904632568, 0.0, 0.0, 0.0, 0.0, 0.0, 0.0, 0.0, 0.0, 0.0, 0.0, 0.0, 0.0, 0.0, 0.0, 0.0, 0.0, 0.0, 3, 35.0, 0.015, 0.015 
224383, -1.978500247001648, 0.33716756105422974, -140.14808654785156, -12.25, 1.399999976158142, 0.0, 0.0, 0.0, 0.0, 0.0, 0.0, 0.0, 0.0, 0.0, 0.0, 0.0, 0.0, 0.0, 0.0, 0.0, 0.0, 0.0, 3, 35.0, 0.015, 0.015 
224385, -2.212170124053955, 0.3022525906562805, -139.9582061767578, -12.40999984741211, 1.2999999523162842, 0.0, 0.0, 0.0, 0.0, 0.0, 0.0, 0.0, 0.0, 0.0, 0.0, 0.0, 0.0, 0.0, 0.0, 0.0, 0.0, 0.0, 3, 35.0, 0.015, 0.015 
224387, -2.417424201965332, 0.2827266752719879, -139.77870178222656, -12.649999618530273, 1.159999966621399, 0.0, 0.0, 0.0, 0.0, 0.0, 0.0, 0.0, 0.0, 0.0, 0.0, 0.0, 0.0, 0.0, 0.0, 0.0, 0.0, 0.0, 3, 35.0, 0.015, 0.015 
224389, -2.540032148361206, 0.32910579442977905, -139.59320068359375, -12.8100004196167, 1.0700000524520874, 0.0, 0.0, 0.0, 0.0, 0.0, 0.0, 0.0, 0.0, 0.0, 0.0, 0.0, 0.0, 0.0, 0.0, 0.0, 0.0, 0.0, 3, 35.0, 0.015, 0.015 
224392, -2.5923869609832764, 0.4986327886581421, -139.3817138671875, -13.0600004196167, 0.9100000262260437, 0.0, 0.0, 0.0, 0.0, 0.0, 0.0, 0.0, 0.0, 0.0, 0.0, 0.0, 0.0, 0.0, 0.0, 0.0, 0.0, 0.0, 3, 35.0, 0.015, 0.015 
224394, -2.638777732849121, 0.5939232707023621, -139.26918029785156, -13.220000267028809, 0.7599999904632568, 0.0, 0.0, 0.0, 0.0, 0.0, 0.0, 0.0, 0.0, 0.0, 0.0, 0.0, 0.0, 0.0, 0.0, 0.0, 0.0, 0.0, 3, 35.0, 0.015, 0.015 
224396, -2.7529525756835938, 0.5566984415054321, -139.02716064453125, -13.380000114440918, 0.5799999833106995, 0.0, 0.0, 0.0, 0.0, 0.0, 0.0, 0.0, 0.0, 0.0, 0.0, 0.0, 0.0, 0.0, 0.0, 0.0, 0.0, 0.0, 3, 35.0, 0.015, 0.015 
224398, -2.942636013031006, 0.5211369395256042, -138.8346405029297, -13.539999961853027, 0.41999998688697815, 0.0, 0.0, 0.0, 0.0, 0.0, 0.0, 0.0, 0.0, 0.0, 0.0, 0.0, 0.0, 0.0, 0.0, 0.0, 0.0, 0.0, 3, 35.0, 0.015, 0.015 
224401, -3.2853240966796875, 0.4762990176677704, -138.41571044921875, -13.699999809265137, 0.25999999046325684, 0.0, 0.0, 0.0, 0.0, 0.0, 0.0, 0.0, 0.0, 0.0, 0.0, 0.0, 0.0, 0.0, 0.0, 0.0, 0.0, 0.0, 3, 35.0, 0.015, 0.015 
224402, -3.330820083618164, 0.46241334080696106, -138.32339477539062, -13.869999885559082, 0.11999999731779099, 0.0, 0.0, 0.0, 0.0, 0.0, 0.0, 0.0, 0.0, 0.0, 0.0, 0.0, 0.0, 0.0, 0.0, 0.0, 0.0, 0.0, 3, 35.0, 0.015, 0.015 
224405, -3.475515127182007, 0.41574379801750183, -137.86575317382812, -14.029999732971191, -0.019999999552965164, 0.0, 0.0, 0.0, 0.0, 0.0, 0.0, 0.0, 0.0, 0.0, 0.0, 0.0, 0.0, 0.0, 0.0, 0.0, 0.0, 0.0, 3, 35.0, 0.015, 0.015 
224407, -3.5244879722595215, 0.4713160991668701, -137.64869689941406, -14.270000457763672, -0.20999999344348907, 0.0, 0.0, 0.0, 0.0, 0.0, 0.0, 0.0, 0.0, 0.0, 0.0, 0.0, 0.0, 0.0, 0.0, 0.0, 0.0, 0.0, 3, 35.0, 0.015, 0.015 
224409, -3.5891354084014893, 0.49110525846481323, -137.4788360595703, -14.430000305175781, -0.3499999940395355, 0.0, 0.0, 0.0, 0.0, 0.0, 0.0, 0.0, 0.0, 0.0, 0.0, 0.0, 0.0, 0.0, 0.0, 0.0, 0.0, 0.0, 3, 35.0, 0.015, 0.015 
224411, -3.6489098072052, 0.2874591052532196, -137.3342742919922, -14.59000015258789, -0.49000000953674316, 0.0, 0.0, 0.0, 0.0, 0.0, 0.0, 0.0, 0.0, 0.0, 0.0, 0.0, 0.0, 0.0, 0.0, 0.0, 0.0, 0.0, 3, 35.0, 0.015, 0.015 
224414, -3.7387378215789795, 0.11396177113056183, -136.9558563232422, -14.84000015258789, -0.5899999737739563, 0.0, 0.0, 0.0, 0.0, 0.0, 0.0, 0.0, 0.0, 0.0, 0.0, 0.0, 0.0, 0.0, 0.0, 0.0, 0.0, 0.0, 3, 35.0, 0.015, 0.015 
224416, -3.827397108078003, 0.05506715551018715, -136.7316436767578, -15.0, -0.6299999952316284, 0.0, 0.0, 0.0, 0.0, 0.0, 0.0, 0.0, 0.0, 0.0, 0.0, 0.0, 0.0, 0.0, 0.0, 0.0, 0.0, 0.0, 3, 35.0, 0.015, 0.015 
224418, -3.9433095455169678, -0.18519219756126404, -136.47657775878906, -15.15999984741211, -0.6399999856948853, 0.0, 0.0, 0.0, 0.0, 0.0, 0.0, 0.0, 0.0, 0.0, 0.0, 0.0, 0.0, 0.0, 0.0, 0.0, 0.0, 0.0, 3, 35.0, 0.015, 0.015 
224421, -4.1587982177734375, -0.5095722079277039, -136.25502014160156, -15.399999618530273, -0.550000011920929, 0.0, 0.0, 0.0, 0.0, 0.0, 0.0, 0.0, 0.0, 0.0, 0.0, 0.0, 0.0, 0.0, 0.0, 0.0, 0.0, 0.0, 3, 35.0, 0.015, 0.015 
224422, -4.258240699768066, -0.5690626502037048, -136.10433959960938, -15.489999771118164, -0.49000000953674316, 0.0, 0.0, 0.0, 0.0, 0.0, 0.0, 0.0, 0.0, 0.0, 0.0, 0.0, 0.0, 0.0, 0.0, 0.0, 0.0, 0.0, 3, 35.0, 0.015, 0.015 
224425, -4.3754801750183105, -0.5892028212547302, -135.67428588867188, -15.649999618530273, -0.3199999928474426, 0.0, 0.0, 0.0, 0.0, 0.0, 0.0, 0.0, 0.0, 0.0, 0.0, 0.0, 0.0, 0.0, 0.0, 0.0, 0.0, 0.0, 3, 35.0, 0.015, 0.015 
224427, -4.3201117515563965, -0.6505516171455383, -135.36293029785156, -15.890000343322754, -0.05999999865889549, 0.0, 0.0, 0.0, 0.0, 0.0, 0.0, 0.0, 0.0, 0.0, 0.0, 0.0, 0.0, 0.0, 0.0, 0.0, 0.0, 0.0, 3, 35.0, 0.015, 0.015 
224433, -4.062284469604492, -0.5415834188461304, -135.0335693359375, -16.299999237060547, 0.3700000047683716, 0.0, 0.0, 0.0, 0.0, 0.0, 0.0, 0.0, 0.0, 0.0, 0.0, 0.0, 0.0, 0.0, 0.0, 0.0, 0.0, 0.0, 3, 35.0, 0.015, 0.015 
224434, -4.0733537673950195, -0.6295027136802673, -134.83384704589844, -16.3799991607666, 0.4399999976158142, 0.0, 0.0, 0.0, 0.0, 0.0, 0.0, 0.0, 0.0, 0.0, 0.0, 0.0, 0.0, 0.0, 0.0, 0.0, 0.0, 0.0, 3, 35.0, 0.015, 0.015 
224434, -4.0733537673950195, -0.6295027136802673, -134.83384704589844, -16.459999084472656, 0.5199999809265137, 0.0, 0.0, 0.0, 0.0, 0.0, 0.0, 0.0, 0.0, 0.0, 0.0, 0.0, 0.0, 0.0, 0.0, 0.0, 0.0, 0.0, 3, 35.0, 0.015, 0.015 
224441, -3.9098124504089355, -0.7284020185470581, -134.102783203125, -17.020000457763672, 1.2599999904632568, 0.0, 0.0, 0.0, 0.0, 0.0, 0.0, 0.0, 0.0, 0.0, 0.0, 0.0, 0.0, 0.0, 0.0, 0.0, 0.0, 0.0, 3, 35.0, 0.015, 0.015 
224443, -3.6889798641204834, -0.4915825426578522, -133.96731567382812, -17.190000534057617, 1.4800000190734863, 0.0, 0.0, 0.0, 0.0, 0.0, 0.0, 0.0, 0.0, 0.0, 0.0, 0.0, 0.0, 0.0, 0.0, 0.0, 0.0, 0.0, 3, 35.0, 0.015, 0.015 
224444, -3.5480265617370605, -0.46524643898010254, -133.99142456054688, -17.190000534057617, 1.4800000190734863, 0.0, 0.0, 0.0, 0.0, 0.0, 0.0, 0.0, 0.0, 0.0, 0.0, 0.0, 0.0, 0.0, 0.0, 0.0, 0.0, 0.0, 3, 35.0, 0.015, 0.015 
224444, -3.5480265617370605, -0.46524643898010254, -133.99142456054688, -17.270000457763672, 1.559999942779541, 0.0, 0.0, 0.0, 0.0, 0.0, 0.0, 0.0, 0.0, 0.0, 0.0, 0.0, 0.0, 0.0, 0.0, 0.0, 0.0, 0.0, 3, 35.0, 0.015, 0.015 
224445, -3.4975311756134033, -0.4652236998081207, -134.01783752441406, -17.350000381469727, 1.6299999952316284, 0.0, 0.0, 0.0, 0.0, 0.0, 0.0, 0.0, 0.0, 0.0, 0.0, 0.0, 0.0, 0.0, 0.0, 0.0, 0.0, 0.0, 3, 35.0, 0.015, 0.015 
224447, -3.3700625896453857, -0.42124298214912415, -133.92002868652344, -17.510000228881836, 1.7599999904632568, 0.0, 0.0, 0.0, 0.0, 0.0, 0.0, 0.0, 0.0, 0.0, 0.0, 0.0, 0.0, 0.0, 0.0, 0.0, 0.0, 0.0, 3, 35.0, 0.015, 0.015 
224449, -3.2934446334838867, -0.4418319761753082, -133.56861877441406, -17.670000076293945, 1.8899999856948853, 0.0, 0.0, 0.0, 0.0, 0.0, 0.0, 0.0, 0.0, 0.0, 0.0, 0.0, 0.0, 0.0, 0.0, 0.0, 0.0, 0.0, 3, 35.0, 0.015, 0.015 
224451, -3.2337875366210938, -0.5517631769180298, -133.4905242919922, -17.829999923706055, 2.0299999713897705, 0.0, 0.0, 0.0, 0.0, 0.0, 0.0, 0.0, 0.0, 0.0, 0.0, 0.0, 0.0, 0.0, 0.0, 0.0, 0.0, 0.0, 3, 35.0, 0.015, 0.015 
224454, -3.1098780632019043, -0.49496135115623474, -133.30274963378906, -18.079999923706055, 2.2699999809265137, 0.0, 0.0, 0.0, 0.0, 0.0, 0.0, 0.0, 0.0, 0.0, 0.0, 0.0, 0.0, 0.0, 0.0, 0.0, 0.0, 0.0, 3, 35.0, 0.015, 0.015 
224456, -2.928683042526245, -0.3120044767856598, -133.04449462890625, -18.239999771118164, 2.4100000858306885, 0.0, 0.0, 0.0, 0.0, 0.0, 0.0, 0.0, 0.0, 0.0, 0.0, 0.0, 0.0, 0.0, 0.0, 0.0, 0.0, 0.0, 3, 35.0, 0.015, 0.015 
224458, -2.8083384037017822, -0.2200995683670044, -132.97149658203125, -18.399999618530273, 2.509999990463257, 0.0, 0.0, 0.0, 0.0, 0.0, 0.0, 0.0, 0.0, 0.0, 0.0, 0.0, 0.0, 0.0, 0.0, 0.0, 0.0, 0.0, 3, 35.0, 0.015, 0.015 
224460, -2.748582601547241, -0.20148862898349762, -132.7797088623047, -18.559999465942383, 2.5799999237060547, 0.0, 0.0, 0.0, 0.0, 0.0, 0.0, 0.0, 0.0, 0.0, 0.0, 0.0, 0.0, 0.0, 0.0, 0.0, 0.0, 0.0, 3, 35.0, 0.015, 0.015 
224463, -2.8014650344848633, -0.20927494764328003, -132.53836059570312, -18.809999465942383, 2.680000066757202, 0.0, 0.0, 0.0, 0.0, 0.0, 0.0, 0.0, 0.0, 0.0, 0.0, 0.0, 0.0, 0.0, 0.0, 0.0, 0.0, 0.0, 3, 35.0, 0.015, 0.015 
224465, -2.869088888168335, -0.22195063531398773, -132.36256408691406, -18.969999313354492, 2.740000009536743, 0.0, 0.0, 0.0, 0.0, 0.0, 0.0, 0.0, 0.0, 0.0, 0.0, 0.0, 0.0, 0.0, 0.0, 0.0, 0.0, 0.0, 3, 35.0, 0.015, 0.015 
224467, -2.9141461849212646, -0.19072845578193665, -132.1672821044922, -19.1299991607666, 2.799999952316284, 0.0, 0.0, 0.0, 0.0, 0.0, 0.0, 0.0, 0.0, 0.0, 0.0, 0.0, 0.0, 0.0, 0.0, 0.0, 0.0, 0.0, 3, 35.0, 0.015, 0.015 
224469, -2.9202017784118652, -0.09626373648643494, -131.9986114501953, -19.290000915527344, 2.8499999046325684, 0.0, 0.0, 0.0, 0.0, 0.0, 0.0, 0.0, 0.0, 0.0, 0.0, 0.0, 0.0, 0.0, 0.0, 0.0, 0.0, 0.0, 3, 35.0, 0.015, 0.015 
224471, -2.8948912620544434, -0.0055130282416939735, -131.8582763671875, -19.450000762939453, 2.869999885559082, 0.0, 0.0, 0.0, 0.0, 0.0, 0.0, 0.0, 0.0, 0.0, 0.0, 0.0, 0.0, 0.0, 0.0, 0.0, 0.0, 0.0, 3, 35.0, 0.015, 0.015 
224473, -2.8646466732025146, 0.18337400257587433, -131.6923065185547, -19.6200008392334, 2.859999895095825, 0.0, 0.0, 0.0, 0.0, 0.0, 0.0, 0.0, 0.0, 0.0, 0.0, 0.0, 0.0, 0.0, 0.0, 0.0, 0.0, 0.0, 3, 35.0, 0.015, 0.015 
224476, -2.8308911323547363, 0.4205596148967743, -131.4359893798828, -19.860000610351562, 2.75, 0.0, 0.0, 0.0, 0.0, 0.0, 0.0, 0.0, 0.0, 0.0, 0.0, 0.0, 0.0, 0.0, 0.0, 0.0, 0.0, 0.0, 3, 35.0, 0.015, 0.015 
224478, -2.829357147216797, 0.5196800827980042, -131.24942016601562, -20.020000457763672, 2.630000114440918, 0.0, 0.0, 0.0, 0.0, 0.0, 0.0, 0.0, 0.0, 0.0, 0.0, 0.0, 0.0, 0.0, 0.0, 0.0, 0.0, 0.0, 3, 35.0, 0.015, 0.015 
224480, -2.8743698596954346, 0.5868840217590332, -131.050537109375, -20.18000030517578, 2.4700000286102295, 0.0, 0.0, 0.0, 0.0, 0.0, 0.0, 0.0, 0.0, 0.0, 0.0, 0.0, 0.0, 0.0, 0.0, 0.0, 0.0, 0.0, 3, 35.0, 0.015, 0.015 
224483, -3.010723829269409, 0.5924443006515503, -130.80540466308594, -20.43000030517578, 2.200000047683716, 0.0, 0.0, 0.0, 0.0, 0.0, 0.0, 0.0, 0.0, 0.0, 0.0, 0.0, 0.0, 0.0, 0.0, 0.0, 0.0, 0.0, 3, 35.0, 0.015, 0.015 
224485, -3.1317858695983887, 0.6187059879302979, -130.62660217285156, -20.59000015258789, 2.0299999713897705, 0.0, 0.0, 0.0, 0.0, 0.0, 0.0, 0.0, 0.0, 0.0, 0.0, 0.0, 0.0, 0.0, 0.0, 0.0, 0.0, 0.0, 3, 35.0, 0.015, 0.015 
224487, -3.1981563568115234, 0.711371898651123, -130.4023895263672, -20.75, 1.840000033378601, 0.0, 0.0, 0.0, 0.0, 0.0, 0.0, 0.0, 0.0, 0.0, 0.0, 0.0, 0.0, 0.0, 0.0, 0.0, 0.0, 0.0, 3, 35.0, 0.015, 0.015 
224489, -3.1651456356048584, 0.8232370615005493, -130.21002197265625, -20.90999984741211, 1.6200000047683716, 0.0, 0.0, 0.0, 0.0, 0.0, 0.0, 0.0, 0.0, 0.0, 0.0, 0.0, 0.0, 0.0, 0.0, 0.0, 0.0, 0.0, 3, 35.0, 0.015, 0.015 
224491, -3.087460517883301, 0.9703345894813538, -130.0970458984375, -21.079999923706055, 1.3700000047683716, 0.0, 0.0, 0.0, 0.0, 0.0, 0.0, 0.0, 0.0, 0.0, 0.0, 0.0, 0.0, 0.0, 0.0, 0.0, 0.0, 0.0, 3, 35.0, 0.015, 0.015 
224494, -3.0731568336486816, 1.0359114408493042, -129.7760009765625, -21.31999969482422, 0.9200000166893005, 0.0, 0.0, 0.0, 0.0, 0.0, 0.0, 0.0, 0.0, 0.0, 0.0, 0.0, 0.0, 0.0, 0.0, 0.0, 0.0, 0.0, 3, 35.0, 0.015, 0.015 
224496, -3.1245899200439453, 0.9628567695617676, -129.65843200683594, -21.479999542236328, 0.6200000047683716, 0.0, 0.0, 0.0, 0.0, 0.0, 0.0, 0.0, 0.0, 0.0, 0.0, 0.0, 0.0, 0.0, 0.0, 0.0, 0.0, 0.0, 3, 35.0, 0.015, 0.015 
224498, -3.2123546600341797, 0.9261458516120911, -129.43905639648438, -21.639999389648438, 0.33000001311302185, 0.0, 0.0, 0.0, 0.0, 0.0, 0.0, 0.0, 0.0, 0.0, 0.0, 0.0, 0.0, 0.0, 0.0, 0.0, 0.0, 0.0, 3, 35.0, 0.015, 0.015 
224500, -3.1899545192718506, 0.8817646503448486, -129.21661376953125, -21.799999237060547, 0.05000000074505806, 0.0, 0.0, 0.0, 0.0, 0.0, 0.0, 0.0, 0.0, 0.0, 0.0, 0.0, 0.0, 0.0, 0.0, 0.0, 0.0, 0.0, 3, 35.0, 0.015, 0.015 
224502, -3.1314406394958496, 0.9404982924461365, -129.0142059326172, -21.969999313354492, -0.2199999988079071, 0.0, 0.0, 0.0, 0.0, 0.0, 0.0, 0.0, 0.0, 0.0, 0.0, 0.0, 0.0, 0.0, 0.0, 0.0, 0.0, 0.0, 3, 35.0, 0.015, 0.015 
224505, -3.0357632637023926, 0.8962052464485168, -128.7421875, -22.1299991607666, -0.49000000953674316, 0.0, 0.0, 0.0, 0.0, 0.0, 0.0, 0.0, 0.0, 0.0, 0.0, 0.0, 0.0, 0.0, 0.0, 0.0, 0.0, 0.0, 3, 35.0, 0.015, 0.015 
224507, -2.9887328147888184, 0.8617383241653442, -128.6439208984375, -22.3700008392334, -0.8999999761581421, 0.0, 0.0, 0.0, 0.0, 0.0, 0.0, 0.0, 0.0, 0.0, 0.0, 0.0, 0.0, 0.0, 0.0, 0.0, 0.0, 0.0, 3, 35.0, 0.015, 0.015 
224510, -2.7922143936157227, 0.7504926323890686, -128.282470703125, -22.530000686645508, -1.159999966621399, 0.0, 0.0, 0.0, 0.0, 0.0, 0.0, 0.0, 0.0, 0.0, 0.0, 0.0, 0.0, 0.0, 0.0, 0.0, 0.0, 0.0, 3, 35.0, 0.015, 0.015 
224511, -2.7390003204345703, 0.7368687987327576, -128.2042236328125, -22.700000762939453, -1.399999976158142, 0.0, 0.0, 0.0, 0.0, 0.0, 0.0, 0.0, 0.0, 0.0, 0.0, 0.0, 0.0, 0.0, 0.0, 0.0, 0.0, 0.0, 3, 35.0, 0.015, 0.015 
224513, -2.5632779598236084, 0.72647625207901, -127.99967956542969, -22.860000610351562, -1.6200000047683716, 0.0, 0.0, 0.0, 0.0, 0.0, 0.0, 0.0, 0.0, 0.0, 0.0, 0.0, 0.0, 0.0, 0.0, 0.0, 0.0, 0.0, 3, 35.0, 0.015, 0.015 
224516, -2.3024020195007324, 0.6157703995704651, -127.81458282470703, -23.100000381469727, -1.9299999475479126, 0.0, 0.0, 0.0, 0.0, 0.0, 0.0, 0.0, 0.0, 0.0, 0.0, 0.0, 0.0, 0.0, 0.0, 0.0, 0.0, 0.0, 3, 35.0, 0.015, 0.015 
224518, -2.2131009101867676, 0.5159004926681519, -127.7018814086914, -23.260000228881836, -2.119999885559082, 0.0, 0.0, 0.0, 0.0, 0.0, 0.0, 0.0, 0.0, 0.0, 0.0, 0.0, 0.0, 0.0, 0.0, 0.0, 0.0, 0.0, 3, 35.0, 0.015, 0.015 
224520, -1.9856674671173096, 0.3950883150100708, -127.3294448852539, -23.420000076293945, -2.2699999809265137, 0.0, 0.0, 0.0, 0.0, 0.0, 0.0, 0.0, 0.0, 0.0, 0.0, 0.0, 0.0, 0.0, 0.0, 0.0, 0.0, 0.0, 3, 35.0, 0.015, 0.015 
224522, -1.7575737237930298, 0.4063624143600464, -127.11075592041016, -23.59000015258789, -2.390000104904175, 0.0, 0.0, 0.0, 0.0, 0.0, 0.0, 0.0, 0.0, 0.0, 0.0, 0.0, 0.0, 0.0, 0.0, 0.0, 0.0, 0.0, 3, 35.0, 0.015, 0.015 
224525, -1.427856206893921, 0.35017871856689453, -126.87735748291016, -23.829999923706055, -2.569999933242798, 0.0, 0.0, 0.0, 0.0, 0.0, 0.0, 0.0, 0.0, 0.0, 0.0, 0.0, 0.0, 0.0, 0.0, 0.0, 0.0, 0.0, 3, 35.0, 0.015, 0.015 
224527, -1.2022926807403564, 0.2950439453125, -126.79354095458984, -23.989999771118164, -2.6700000762939453, 0.0, 0.0, 0.0, 0.0, 0.0, 0.0, 0.0, 0.0, 0.0, 0.0, 0.0, 0.0, 0.0, 0.0, 0.0, 0.0, 0.0, 3, 35.0, 0.015, 0.015 
224529, -0.9730738401412964, 0.26611945033073425, -126.67970275878906, -24.149999618530273, -2.759999990463257, 0.0, 0.0, 0.0, 0.0, 0.0, 0.0, 0.0, 0.0, 0.0, 0.0, 0.0, 0.0, 0.0, 0.0, 0.0, 0.0, 0.0, 3, 35.0, 0.015, 0.015 
224531, -0.7158581614494324, 0.2184106856584549, -126.33893585205078, -24.31999969482422, -2.8399999141693115, 0.0, 0.0, 0.0, 0.0, 0.0, 0.0, 0.0, 0.0, 0.0, 0.0, 0.0, 0.0, 0.0, 0.0, 0.0, 0.0, 0.0, 3, 35.0, 0.015, 0.015 
224534, -0.2525365650653839, 0.14573238790035248, -126.12560272216797, -24.559999465942383, -2.940000057220459, 0.0, 0.0, 0.0, 0.0, 0.0, 0.0, 0.0, 0.0, 0.0, 0.0, 0.0, 0.0, 0.0, 0.0, 0.0, 0.0, 0.0, 3, 35.0, 0.015, 0.015 
224536, -0.014859979040920734, 0.1046161875128746, -126.01585388183594, -24.719999313354492, -2.990000009536743, 0.0, 0.0, 0.0, 0.0, 0.0, 0.0, 0.0, 0.0, 0.0, 0.0, 0.0, 0.0, 0.0, 0.0, 0.0, 0.0, 0.0, 3, 35.0, 0.015, 0.015 
224538, 0.19327589869499207, 0.0359274260699749, -125.68936920166016, -24.8799991607666, -3.0299999713897705, 0.0, 0.0, 0.0, 0.0, 0.0, 0.0, 0.0, 0.0, 0.0, 0.0, 0.0, 0.0, 0.0, 0.0, 0.0, 0.0, 0.0, 3, 35.0, 0.015, 0.015 
224540, 0.41787630319595337, -0.055949073284864426, -125.5680923461914, -25.040000915527344, -3.0399999618530273, 0.0, 0.0, 0.0, 0.0, 0.0, 0.0, 0.0, 0.0, 0.0, 0.0, 0.0, 0.0, 0.0, 0.0, 0.0, 0.0, 0.0, 3, 35.0, 0.015, 0.015 
224542, 0.6628934741020203, -0.06502776592969894, -125.46173095703125, -25.209999084472656, -3.0399999618530273, 0.0, 0.0, 0.0, 0.0, 0.0, 0.0, 0.0, 0.0, 0.0, 0.0, 0.0, 0.0, 0.0, 0.0, 0.0, 0.0, 0.0, 3, 35.0, 0.015, 0.015 
224544, 0.8895395994186401, -0.0860268622636795, -125.20285034179688, -25.3700008392334, -3.0399999618530273, 0.0, 0.0, 0.0, 0.0, 0.0, 0.0, 0.0, 0.0, 0.0, 0.0, 0.0, 0.0, 0.0, 0.0, 0.0, 0.0, 0.0, 3, 35.0, 0.015, 0.015 
224547, 1.1694990396499634, -0.18439678847789764, -125.04730224609375, -25.610000610351562, -3.0399999618530273, 0.0, 0.0, 0.0, 0.0, 0.0, 0.0, 0.0, 0.0, 0.0, 0.0, 0.0, 0.0, 0.0, 0.0, 0.0, 0.0, 0.0, 3, 35.0, 0.015, 0.015 
224549, 1.3309231996536255, -0.2569364309310913, -124.86846923828125, -25.770000457763672, -3.009999990463257, 0.0, 0.0, 0.0, 0.0, 0.0, 0.0, 0.0, 0.0, 0.0, 0.0, 0.0, 0.0, 0.0, 0.0, 0.0, 0.0, 0.0, 3, 35.0, 0.015, 0.015 
224552, 1.5954670906066895, -0.27451300621032715, -124.58277893066406, -26.020000457763672, -2.9000000953674316, 0.0, 0.0, 0.0, 0.0, 0.0, 0.0, 0.0, 0.0, 0.0, 0.0, 0.0, 0.0, 0.0, 0.0, 0.0, 0.0, 0.0, 3, 35.0, 0.015, 0.015 
224553, 1.6624664068222046, -0.273087739944458, -124.53787231445312, -26.100000381469727, -2.8499999046325684, 0.0, 0.0, 0.0, 0.0, 0.0, 0.0, 0.0, 0.0, 0.0, 0.0, 0.0, 0.0, 0.0, 0.0, 0.0, 0.0, 0.0, 3, 35.0, 0.015, 0.015 
224556, 1.9255324602127075, -0.19603359699249268, -124.30401611328125, -26.34000015258789, -2.7300000190734863, 0.0, 0.0, 0.0, 0.0, 0.0, 0.0, 0.0, 0.0, 0.0, 0.0, 0.0, 0.0, 0.0, 0.0, 0.0, 0.0, 0.0, 3, 35.0, 0.015, 0.015 
224558, 2.0362393856048584, -0.1784464418888092, -124.16014099121094, -26.5, -2.6700000762939453, 0.0, 0.0, 0.0, 0.0, 0.0, 0.0, 0.0, 0.0, 0.0, 0.0, 0.0, 0.0, 0.0, 0.0, 0.0, 0.0, 0.0, 3, 35.0, 0.015, 0.015 
224560, 2.077066659927368, -0.20626148581504822, -123.99834442138672, -26.65999984741211, -2.619999885559082, 0.0, 0.0, 0.0, 0.0, 0.0, 0.0, 0.0, 0.0, 0.0, 0.0, 0.0, 0.0, 0.0, 0.0, 0.0, 0.0, 0.0, 3, 35.0, 0.015, 0.015 
224562, 2.059380531311035, -0.26080870628356934, -123.84334564208984, -26.829999923706055, -2.559999942779541, 0.0, 0.0, 0.0, 0.0, 0.0, 0.0, 0.0, 0.0, 0.0, 0.0, 0.0, 0.0, 0.0, 0.0, 0.0, 0.0, 0.0, 3, 35.0, 0.015, 0.015 
224564, 1.9995696544647217, -0.2940480709075928, -123.67549133300781, -27.06999969482422, -2.450000047683716, 0.0, 0.0, 0.0, 0.0, 0.0, 0.0, 0.0, 0.0, 0.0, 0.0, 0.0, 0.0, 0.0, 0.0, 0.0, 0.0, 0.0, 3, 35.0, 0.015, 0.015 
224567, 1.9116427898406982, -0.3329346776008606, -123.47248840332031, -27.229999542236328, -2.3499999046325684, 0.0, 0.0, 0.0, 0.0, 0.0, 0.0, 0.0, 0.0, 0.0, 0.0, 0.0, 0.0, 0.0, 0.0, 0.0, 0.0, 0.0, 3, 35.0, 0.015, 0.015 
224569, 1.8721630573272705, -0.3280836045742035, -123.3676986694336, -27.389999389648438, -2.25, 0.0, 0.0, 0.0, 0.0, 0.0, 0.0, 0.0, 0.0, 0.0, 0.0, 0.0, 0.0, 0.0, 0.0, 0.0, 0.0, 0.0, 3, 35.0, 0.015, 0.015 
224572, 1.7836027145385742, -0.19417499005794525, -123.15547180175781, -27.639999389648438, -2.109999895095825, 0.0, 0.0, 0.0, 0.0, 0.0, 0.0, 0.0, 0.0, 0.0, 0.0, 0.0, 0.0, 0.0, 0.0, 0.0, 0.0, 0.0, 3, 35.0, 0.015, 0.015 
224573, 1.7570451498031616, -0.16590839624404907, -123.12395477294922, -27.719999313354492, -2.069999933242798, 0.0, 0.0, 0.0, 0.0, 0.0, 0.0, 0.0, 0.0, 0.0, 0.0, 0.0, 0.0, 0.0, 0.0, 0.0, 0.0, 0.0, 3, 35.0, 0.015, 0.015 
224576, 1.442606806755066, -0.3299005925655365, -122.93144989013672, -27.959999084472656, -1.9900000095367432, 0.0, 0.0, 0.0, 0.0, 0.0, 0.0, 0.0, 0.0, 0.0, 0.0, 0.0, 0.0, 0.0, 0.0, 0.0, 0.0, 0.0, 3, 35.0, 0.015, 0.015 
224578, 1.1770039796829224, -0.4477057456970215, -122.7887191772461, -28.1200008392334, -1.9299999475479126, 0.0, 0.0, 0.0, 0.0, 0.0, 0.0, 0.0, 0.0, 0.0, 0.0, 0.0, 0.0, 0.0, 0.0, 0.0, 0.0, 0.0, 3, 35.0, 0.015, 0.015 
224580, 0.9102362990379333, -0.5851457118988037, -122.6778335571289, -28.290000915527344, -1.8200000524520874, 0.0, 0.0, 0.0, 0.0, 0.0, 0.0, 0.0, 0.0, 0.0, 0.0, 0.0, 0.0, 0.0, 0.0, 0.0, 0.0, 0.0, 3, 35.0, 0.015, 0.015 
224582, 0.6473051905632019, -0.7416800260543823, -122.64934539794922, -28.450000762939453, -1.659999966621399, 0.0, 0.0, 0.0, 0.0, 0.0, 0.0, 0.0, 0.0, 0.0, 0.0, 0.0, 0.0, 0.0, 0.0, 0.0, 0.0, 0.0, 3, 35.0, 0.015, 0.015 
224584, 0.3627723753452301, -0.7320475578308105, -122.5216064453125, -28.610000610351562, -1.4600000381469727, 0.0, 0.0, 0.0, 0.0, 0.0, 0.0, 0.0, 0.0, 0.0, 0.0, 0.0, 0.0, 0.0, 0.0, 0.0, 0.0, 0.0, 3, 35.0, 0.015, 0.015 
224587, -0.05432193726301193, -0.6613949537277222, -122.2946548461914, -28.850000381469727, -1.1299999952316284, 0.0, 0.0, 0.0, 0.0, 0.0, 0.0, 0.0, 0.0, 0.0, 0.0, 0.0, 0.0, 0.0, 0.0, 0.0, 0.0, 0.0, 3, 35.0, 0.015, 0.015 
224589, -0.3124813437461853, -0.7404187321662903, -122.24066162109375, -29.020000457763672, -0.9200000166893005, 0.0, 0.0, 0.0, 0.0, 0.0, 0.0, 0.0, 0.0, 0.0, 0.0, 0.0, 0.0, 0.0, 0.0, 0.0, 0.0, 0.0, 3, 35.0, 0.015, 0.015 
224591, -0.542677640914917, -0.6840720772743225, -122.18049621582031, -29.18000030517578, -0.7099999785423279, 0.0, 0.0, 0.0, 0.0, 0.0, 0.0, 0.0, 0.0, 0.0, 0.0, 0.0, 0.0, 0.0, 0.0, 0.0, 0.0, 0.0, 3, 35.0, 0.015, 0.015 
224593, -0.7620023488998413, -0.5846481919288635, -122.00817108154297, -29.34000015258789, -0.5, 0.0, 0.0, 0.0, 0.0, 0.0, 0.0, 0.0, 0.0, 0.0, 0.0, 0.0, 0.0, 0.0, 0.0, 0.0, 0.0, 0.0, 3, 35.0, 0.015, 0.015 
224596, -1.1993917226791382, -0.6237766742706299, -121.88909912109375, -29.579999923706055, -0.2199999988079071, 0.0, 0.0, 0.0, 0.0, 0.0, 0.0, 0.0, 0.0, 0.0, 0.0, 0.0, 0.0, 0.0, 0.0, 0.0, 0.0, 0.0, 3, 35.0, 0.015, 0.015 
224598, -1.510765552520752, -0.7355554699897766, -121.68843841552734, -29.739999771118164, -0.03999999910593033, 0.0, 0.0, 0.0, 0.0, 0.0, 0.0, 0.0, 0.0, 0.0, 0.0, 0.0, 0.0, 0.0, 0.0, 0.0, 0.0, 0.0, 3, 35.0, 0.015, 0.015 
224600, -1.7929397821426392, -0.7503877878189087, -121.57325744628906, -29.90999984741211, 0.1599999964237213, 0.0, 0.0, 0.0, 0.0, 0.0, 0.0, 0.0, 0.0, 0.0, 0.0, 0.0, 0.0, 0.0, 0.0, 0.0, 0.0, 0.0, 3, 35.0, 0.015, 0.015 
224601, -1.8627758026123047, -0.776644229888916, -121.55390167236328, -30.06999969482422, 0.3799999952316284, 0.0, 0.0, 0.0, 0.0, 0.0, 0.0, 0.0, 0.0, 0.0, 0.0, 0.0, 0.0, 0.0, 0.0, 0.0, 0.0, 0.0, 3, 35.0, 0.015, 0.015 
224604, -2.212153911590576, -0.5411887764930725, -121.23766326904297, -30.229999542236328, 0.6200000047683716, 0.0, 0.0, 0.0, 0.0, 0.0, 0.0, 0.0, 0.0, 0.0, 0.0, 0.0, 0.0, 0.0, 0.0, 0.0, 0.0, 0.0, 3, 35.0, 0.015, 0.015 
224607, -2.300814390182495, -0.5464204549789429, -121.07154083251953, -30.469999313354492, 0.8899999856948853, 0.0, 0.0, 0.0, 0.0, 0.0, 0.0, 0.0, 0.0, 0.0, 0.0, 0.0, 0.0, 0.0, 0.0, 0.0, 0.0, 0.0, 3, 35.0, 0.015, 0.015 
224609, -2.425792932510376, -0.48629030585289, -121.06653594970703, -30.6299991607666, 1.0399999618530273, 0.0, 0.0, 0.0, 0.0, 0.0, 0.0, 0.0, 0.0, 0.0, 0.0, 0.0, 0.0, 0.0, 0.0, 0.0, 0.0, 0.0, 3, 35.0, 0.015, 0.015 
224611, -2.574190378189087, -0.41554513573646545, -121.01174926757812, -30.799999237060547, 1.2000000476837158, 0.0, 0.0, 0.0, 0.0, 0.0, 0.0, 0.0, 0.0, 0.0, 0.0, 0.0, 0.0, 0.0, 0.0, 0.0, 0.0, 0.0, 3, 35.0, 0.015, 0.015 
224613, -2.652350425720215, -0.4830187261104584, -120.701416015625, -30.959999084472656, 1.3300000429153442, 0.0, 0.0, 0.0, 0.0, 0.0, 0.0, 0.0, 0.0, 0.0, 0.0, 0.0, 0.0, 0.0, 0.0, 0.0, 0.0, 0.0, 3, 35.0, 0.015, 0.015 
224615, -2.7628519535064697, -0.4904594123363495, -120.65052795410156, -31.200000762939453, 1.5399999618530273, 0.0, 0.0, 0.0, 0.0, 0.0, 0.0, 0.0, 0.0, 0.0, 0.0, 0.0, 0.0, 0.0, 0.0, 0.0, 0.0, 0.0, 3, 35.0, 0.015, 0.015 
224618, -2.944775104522705, -0.4876056909561157, -120.4217300415039, -31.360000610351562, 1.690000057220459, 0.0, 0.0, 0.0, 0.0, 0.0, 0.0, 0.0, 0.0, 0.0, 0.0, 0.0, 0.0, 0.0, 0.0, 0.0, 0.0, 0.0, 3, 35.0, 0.015, 0.015 
224620, -3.0293807983398438, -0.5696105360984802, -120.23446655273438, -31.530000686645508, 1.8300000429153442, 0.0, 0.0, 0.0, 0.0, 0.0, 0.0, 0.0, 0.0, 0.0, 0.0, 0.0, 0.0, 0.0, 0.0, 0.0, 0.0, 0.0, 3, 35.0, 0.015, 0.015 
224622, -3.0727031230926514, -0.5602876543998718, -120.15202331542969, -31.690000534057617, 1.9900000095367432, 0.0, 0.0, 0.0, 0.0, 0.0, 0.0, 0.0, 0.0, 0.0, 0.0, 0.0, 0.0, 0.0, 0.0, 0.0, 0.0, 0.0, 3, 35.0, 0.015, 0.015 
224625, -3.0462801456451416, -0.3396841883659363, -120.1033706665039, -31.93000030517578, 2.2300000190734863, 0.0, 0.0, 0.0, 0.0, 0.0, 0.0, 0.0, 0.0, 0.0, 0.0, 0.0, 0.0, 0.0, 0.0, 0.0, 0.0, 0.0, 3, 35.0, 0.015, 0.015 
224628, -3.0102601051330566, -0.2581826448440552, -119.84395599365234, -32.16999816894531, 2.4000000953674316, 0.0, 0.0, 0.0, 0.0, 0.0, 0.0, 0.0, 0.0, 0.0, 0.0, 0.0, 0.0, 0.0, 0.0, 0.0, 0.0, 0.0, 3, 35.0, 0.015, 0.015 
224629, -3.009755849838257, -0.232138991355896, -119.794189453125, -32.25, 2.440000057220459, 0.0, 0.0, 0.0, 0.0, 0.0, 0.0, 0.0, 0.0, 0.0, 0.0, 0.0, 0.0, 0.0, 0.0, 0.0, 0.0, 0.0, 3, 35.0, 0.015, 0.015 
224631, -3.0145761966705322, -0.32069849967956543, -119.69474792480469, -32.400001525878906, 2.509999990463257, 0.0, 0.0, 0.0, 0.0, 0.0, 0.0, 0.0, 0.0, 0.0, 0.0, 0.0, 0.0, 0.0, 0.0, 0.0, 0.0, 0.0, 3, 35.0, 0.015, 0.015 
224633, -2.9918715953826904, -0.30779069662094116, -119.62621307373047, -32.54999923706055, 2.5999999046325684, 0.0, 0.0, 0.0, 0.0, 0.0, 0.0, 0.0, 0.0, 0.0, 0.0, 0.0, 0.0, 0.0, 0.0, 0.0, 0.0, 0.0, 3, 35.0, 0.015, 0.015 
224636, -2.8901188373565674, -0.24476976692676544, -119.38667297363281, -32.77000045776367, 2.740000009536743, 0.0, 0.0, 0.0, 0.0, 0.0, 0.0, 0.0, 0.0, 0.0, 0.0, 0.0, 0.0, 0.0, 0.0, 0.0, 0.0, 0.0, 3, 35.0, 0.015, 0.015 
224638, -2.7904391288757324, -0.22035907208919525, -119.34454345703125, -32.91999816894531, 2.8299999237060547, 0.0, 0.0, 0.0, 0.0, 0.0, 0.0, 0.0, 0.0, 0.0, 0.0, 0.0, 0.0, 0.0, 0.0, 0.0, 0.0, 0.0, 3, 35.0, 0.015, 0.015 
224640, -2.6952481269836426, -0.052312221378088, -119.28482055664062, -33.060001373291016, 2.9000000953674316, 0.0, 0.0, 0.0, 0.0, 0.0, 0.0, 0.0, 0.0, 0.0, 0.0, 0.0, 0.0, 0.0, 0.0, 0.0, 0.0, 0.0, 3, 35.0, 0.015, 0.015 
224642, -2.5826611518859863, -0.0029206909239292145, -119.06404876708984, -33.209999084472656, 2.950000047683716, 0.0, 0.0, 0.0, 0.0, 0.0, 0.0, 0.0, 0.0, 0.0, 0.0, 0.0, 0.0, 0.0, 0.0, 0.0, 0.0, 0.0, 3, 35.0, 0.015, 0.015 
224644, -2.451296806335449, 0.060171276330947876, -119.01705169677734, -33.34000015258789, 2.950000047683716, 0.0, 0.0, 0.0, 0.0, 0.0, 0.0, 0.0, 0.0, 0.0, 0.0, 0.0, 0.0, 0.0, 0.0, 0.0, 0.0, 0.0, 3, 35.0, 0.015, 0.015 
224647, -2.3241493701934814, 0.10554631799459457, -118.96566772460938, -33.4900016784668, 2.950000047683716, 0.0, 0.0, 0.0, 0.0, 0.0, 0.0, 0.0, 0.0, 0.0, 0.0, 0.0, 0.0, 0.0, 0.0, 0.0, 0.0, 0.0, 3, 35.0, 0.015, 0.015 
224649, -2.217595100402832, 0.09041439741849899, -118.81240844726562, -33.58000183105469, 2.940000057220459, 0.0, 0.0, 0.0, 0.0, 0.0, 0.0, 0.0, 0.0, 0.0, 0.0, 0.0, 0.0, 0.0, 0.0, 0.0, 0.0, 0.0, 3, 35.0, 0.015, 0.015 
224651, -2.123539447784424, 0.1400091052055359, -118.81718444824219, -33.68000030517578, 2.9100000858306885, 0.0, 0.0, 0.0, 0.0, 0.0, 0.0, 0.0, 0.0, 0.0, 0.0, 0.0, 0.0, 0.0, 0.0, 0.0, 0.0, 0.0, 3, 35.0, 0.015, 0.015 
224653, -2.0170023441314697, 0.17543157935142517, -118.79014587402344, -33.779998779296875, 2.880000114440918, 0.0, 0.0, 0.0, 0.0, 0.0, 0.0, 0.0, 0.0, 0.0, 0.0, 0.0, 0.0, 0.0, 0.0, 0.0, 0.0, 0.0, 3, 35.0, 0.015, 0.015 
224655, -1.874830722808838, 0.2640986144542694, -118.6304931640625, -33.91999816894531, 2.799999952316284, 0.0, 0.0, 0.0, 0.0, 0.0, 0.0, 0.0, 0.0, 0.0, 0.0, 0.0, 0.0, 0.0, 0.0, 0.0, 0.0, 0.0, 3, 35.0, 0.015, 0.015 
224658, -1.6797668933868408, 0.4075184166431427, -118.57046508789062, -34.0099983215332, 2.7200000286102295, 0.0, 0.0, 0.0, 0.0, 0.0, 0.0, 0.0, 0.0, 0.0, 0.0, 0.0, 0.0, 0.0, 0.0, 0.0, 0.0, 0.0, 3, 35.0, 0.015, 0.015 
224660, -1.5947046279907227, 0.3980279862880707, -118.39683532714844, -34.060001373291016, 2.609999895095825, 0.0, 0.0, 0.0, 0.0, 0.0, 0.0, 0.0, 0.0, 0.0, 0.0, 0.0, 0.0, 0.0, 0.0, 0.0, 0.0, 0.0, 3, 35.0, 0.015, 0.015 
224662, -1.5335688591003418, 0.3262600898742676, -118.37459564208984, -34.11000061035156, 2.490000009536743, 0.0, 0.0, 0.0, 0.0, 0.0, 0.0, 0.0, 0.0, 0.0, 0.0, 0.0, 0.0, 0.0, 0.0, 0.0, 0.0, 0.0, 3, 35.0, 0.015, 0.015 
224664, -1.4620519876480103, 0.34924179315567017, -118.41838836669922, -34.15999984741211, 2.380000114440918, 0.0, 0.0, 0.0, 0.0, 0.0, 0.0, 0.0, 0.0, 0.0, 0.0, 0.0, 0.0, 0.0, 0.0, 0.0, 0.0, 0.0, 3, 35.0, 0.015, 0.015 
224667, -1.2622326612472534, 0.552524983882904, -118.19811248779297, -34.22999954223633, 2.2200000286102295, 0.0, 0.0, 0.0, 0.0, 0.0, 0.0, 0.0, 0.0, 0.0, 0.0, 0.0, 0.0, 0.0, 0.0, 0.0, 0.0, 0.0, 3, 35.0, 0.015, 0.015 
224669, -1.053106427192688, 0.6337290406227112, -118.15824890136719, -34.279998779296875, 2.069999933242798, 0.0, 0.0, 0.0, 0.0, 0.0, 0.0, 0.0, 0.0, 0.0, 0.0, 0.0, 0.0, 0.0, 0.0, 0.0, 0.0, 0.0, 3, 35.0, 0.015, 0.015 
224671, -0.9204369783401489, 0.7918139696121216, -118.26363372802734, -34.33000183105469, 1.8899999856948853, 0.0, 0.0, 0.0, 0.0, 0.0, 0.0, 0.0, 0.0, 0.0, 0.0, 0.0, 0.0, 0.0, 0.0, 0.0, 0.0, 0.0, 3, 35.0, 0.015, 0.015 
224673, -0.8380677103996277, 0.8755800724029541, -118.04198455810547, -34.380001068115234, 1.6699999570846558, 0.0, 0.0, 0.0, 0.0, 0.0, 0.0, 0.0, 0.0, 0.0, 0.0, 0.0, 0.0, 0.0, 0.0, 0.0, 0.0, 0.0, 3, 35.0, 0.015, 0.015 
224675, -0.7593412399291992, 0.6904767751693726, -117.93262481689453, -34.45000076293945, 1.2899999618530273, 0.0, 0.0, 0.0, 0.0, 0.0, 0.0, 0.0, 0.0, 0.0, 0.0, 0.0, 0.0, 0.0, 0.0, 0.0, 0.0, 0.0, 3, 35.0, 0.015, 0.015 
224678, -0.6604936718940735, 0.6439228653907776, -117.8895492553711, -34.5, 1.100000023841858, 0.0, 0.0, 0.0, 0.0, 0.0, 0.0, 0.0, 0.0, 0.0, 0.0, 0.0, 0.0, 0.0, 0.0, 0.0, 0.0, 0.0, 3, 35.0, 0.015, 0.015 
224680, -0.5433456301689148, 0.7170436978340149, -117.69505310058594, -34.54999923706055, 0.9200000166893005, 0.0, 0.0, 0.0, 0.0, 0.0, 0.0, 0.0, 0.0, 0.0, 0.0, 0.0, 0.0, 0.0, 0.0, 0.0, 0.0, 0.0, 3, 35.0, 0.015, 0.015 
224682, -0.455453097820282, 0.7508153319358826, -117.70462036132812, -34.599998474121094, 0.7200000286102295, 0.0, 0.0, 0.0, 0.0, 0.0, 0.0, 0.0, 0.0, 0.0, 0.0, 0.0, 0.0, 0.0, 0.0, 0.0, 0.0, 0.0, 3, 35.0, 0.015, 0.015 
224684, -0.4008644223213196, 0.8194254040718079, -117.62173461914062, -34.63999938964844, 0.49000000953674316, 0.0, 0.0, 0.0, 0.0, 0.0, 0.0, 0.0, 0.0, 0.0, 0.0, 0.0, 0.0, 0.0, 0.0, 0.0, 0.0, 0.0, 3, 35.0, 0.015, 0.015 
224687, -0.3360811769962311, 0.8978990316390991, -117.43609619140625, -34.720001220703125, 0.14000000059604645, 0.0, 0.0, 0.0, 0.0, 0.0, 0.0, 0.0, 0.0, 0.0, 0.0, 0.0, 0.0, 0.0, 0.0, 0.0, 0.0, 0.0, 3, 35.0, 0.015, 0.015 
224689, -0.3003169000148773, 0.8700214624404907, -117.39413452148438, -34.77000045776367, -0.11999999731779099, 0.0, 0.0, 0.0, 0.0, 0.0, 0.0, 0.0, 0.0, 0.0, 0.0, 0.0, 0.0, 0.0, 0.0, 0.0, 0.0, 0.0, 3, 35.0, 0.015, 0.015 
224691, -0.2753939926624298, 0.8545221090316772, -117.20695495605469, -34.81999969482422, -0.38999998569488525, 0.0, 0.0, 0.0, 0.0, 0.0, 0.0, 0.0, 0.0, 0.0, 0.0, 0.0, 0.0, 0.0, 0.0, 0.0, 0.0, 0.0, 3, 35.0, 0.015, 0.015 
224693, -0.2732347548007965, 0.8471271991729736, -117.13251495361328, -34.88999938964844, -0.7599999904632568, 0.0, 0.0, 0.0, 0.0, 0.0, 0.0, 0.0, 0.0, 0.0, 0.0, 0.0, 0.0, 0.0, 0.0, 0.0, 0.0, 0.0, 3, 35.0, 0.015, 0.015 
224695, -0.28795650601387024, 0.8606685996055603, -117.03408813476562, -34.939998626708984, -1.0199999809265137, 0.0, 0.0, 0.0, 0.0, 0.0, 0.0, 0.0, 0.0, 0.0, 0.0, 0.0, 0.0, 0.0, 0.0, 0.0, 0.0, 0.0, 3, 35.0, 0.015, 0.015 
224698, -0.2973729074001312, 0.7103984355926514, -116.81391143798828, -34.97999954223633, -1.2699999809265137, 0.0, 0.0, 0.0, 0.0, 0.0, 0.0, 0.0, 0.0, 0.0, 0.0, 0.0, 0.0, 0.0, 0.0, 0.0, 0.0, 0.0, 3, 35.0, 0.015, 0.015 
224700, -0.2919361889362335, 0.786799967288971, -116.74317932128906, -35.0099983215332, -1.5, 0.0, 0.0, 0.0, 0.0, 0.0, 0.0, 0.0, 0.0, 0.0, 0.0, 0.0, 0.0, 0.0, 0.0, 0.0, 0.0, 0.0, 3, 35.0, 0.015, 0.015 
224702, -0.2723904550075531, 0.8210801482200623, -116.59786987304688, -34.869998931884766, -1.7200000286102295, 0.0, 0.0, 0.0, 0.0, 0.0, 0.0, 0.0, 0.0, 0.0, 0.0, 0.0, 0.0, 0.0, 0.0, 0.0, 0.0, 0.0, 3, 35.0, 0.015, 0.015 
224704, -0.2676893174648285, 0.7098938226699829, -116.64324951171875, -34.83000183105469, -1.9600000381469727, 0.0, 0.0, 0.0, 0.0, 0.0, 0.0, 0.0, 0.0, 0.0, 0.0, 0.0, 0.0, 0.0, 0.0, 0.0, 0.0, 0.0, 3, 35.0, 0.015, 0.015 
