counter, roll, pitch, yaw, pan, tilt, lati, longi, timestp, heading, rateofturn, cog, sog2, sow, sog, temp, humidity, pressure, wind_speed, wind_angle, bb_roll, bb_pitch, bb_yaw, proc_ptu_mode, proc_colav_limit, proc_colav_speed, proc_surveil_speed
128391, 3.955749988555908, -0.05569848045706749, 143.3485870361328, 32.790000915527344, 3.509999990463257, 0.0, 0.0, 0.0, 0.0, 0.0, 0.0, 0.0, 0.0, 0.0, 0.0, 0.0, 0.0, 0.0, 0.0, 0.0, 0.0, 0.0, 3, 35.0, 0.015, 0.015 
128395, 3.605741024017334, -0.004359004553407431, 143.53738403320312, 32.56999969482422, 3.5299999713897705, 0.0, 0.0, 0.0, 0.0, 0.0, 0.0, 0.0, 0.0, 0.0, 0.0, 0.0, 0.0, 0.0, 0.0, 0.0, 0.0, 0.0, 3, 35.0, 0.015, 0.015 
128396, 3.5491364002227783, -0.006873677484691143, 143.5804443359375, 32.43000030517578, 3.5299999713897705, 0.0, 0.0, 0.0, 0.0, 0.0, 0.0, 0.0, 0.0, 0.0, 0.0, 0.0, 0.0, 0.0, 0.0, 0.0, 0.0, 0.0, 3, 35.0, 0.015, 0.015 
128398, 3.382575511932373, 0.043778594583272934, 143.65432739257812, 32.279998779296875, 3.5299999713897705, 0.0, 0.0, 0.0, 0.0, 0.0, 0.0, 0.0, 0.0, 0.0, 0.0, 0.0, 0.0, 0.0, 0.0, 0.0, 0.0, 0.0, 3, 35.0, 0.015, 0.015 
128400, 3.194857120513916, 0.050443459302186966, 143.76072692871094, 32.13999938964844, 3.5299999713897705, 0.0, 0.0, 0.0, 0.0, 0.0, 0.0, 0.0, 0.0, 0.0, 0.0, 0.0, 0.0, 0.0, 0.0, 0.0, 0.0, 0.0, 3, 35.0, 0.015, 0.015 
128402, 3.0004539489746094, 0.11590750515460968, 143.90077209472656, 31.979999542236328, 3.5299999713897705, 0.0, 0.0, 0.0, 0.0, 0.0, 0.0, 0.0, 0.0, 0.0, 0.0, 0.0, 0.0, 0.0, 0.0, 0.0, 0.0, 0.0, 3, 35.0, 0.015, 0.015 
128405, 2.654365062713623, 0.1703869253396988, 144.12110900878906, 31.81999969482422, 3.509999990463257, 0.0, 0.0, 0.0, 0.0, 0.0, 0.0, 0.0, 0.0, 0.0, 0.0, 0.0, 0.0, 0.0, 0.0, 0.0, 0.0, 0.0, 3, 35.0, 0.015, 0.015 
128407, 2.448456287384033, 0.22224462032318115, 144.27603149414062, 31.56999969482422, 3.430000066757202, 0.0, 0.0, 0.0, 0.0, 0.0, 0.0, 0.0, 0.0, 0.0, 0.0, 0.0, 0.0, 0.0, 0.0, 0.0, 0.0, 0.0, 3, 35.0, 0.015, 0.015 
128409, 2.2239151000976562, 0.24506884813308716, 144.3778839111328, 31.40999984741211, 3.369999885559082, 0.0, 0.0, 0.0, 0.0, 0.0, 0.0, 0.0, 0.0, 0.0, 0.0, 0.0, 0.0, 0.0, 0.0, 0.0, 0.0, 0.0, 3, 35.0, 0.015, 0.015 
128411, 1.9803274869918823, 0.21778321266174316, 144.5568084716797, 31.25, 3.299999952316284, 0.0, 0.0, 0.0, 0.0, 0.0, 0.0, 0.0, 0.0, 0.0, 0.0, 0.0, 0.0, 0.0, 0.0, 0.0, 0.0, 0.0, 3, 35.0, 0.015, 0.015 
128413, 1.7402210235595703, 0.35518312454223633, 144.72181701660156, 31.09000015258789, 3.2200000286102295, 0.0, 0.0, 0.0, 0.0, 0.0, 0.0, 0.0, 0.0, 0.0, 0.0, 0.0, 0.0, 0.0, 0.0, 0.0, 0.0, 0.0, 3, 35.0, 0.015, 0.015 
128420, 1.0204275846481323, 0.44590941071510315, 145.25286865234375, 30.520000457763672, 2.8299999237060547, 0.0, 0.0, 0.0, 0.0, 0.0, 0.0, 0.0, 0.0, 0.0, 0.0, 0.0, 0.0, 0.0, 0.0, 0.0, 0.0, 0.0, 3, 35.0, 0.015, 0.015 
128422, 0.8265136480331421, 0.47206762433052063, 145.4336395263672, 30.360000610351562, 2.700000047683716, 0.0, 0.0, 0.0, 0.0, 0.0, 0.0, 0.0, 0.0, 0.0, 0.0, 0.0, 0.0, 0.0, 0.0, 0.0, 0.0, 0.0, 3, 35.0, 0.015, 0.015 
128422, 0.8265136480331421, 0.47206762433052063, 145.4336395263672, 30.360000610351562, 2.700000047683716, 0.0, 0.0, 0.0, 0.0, 0.0, 0.0, 0.0, 0.0, 0.0, 0.0, 0.0, 0.0, 0.0, 0.0, 0.0, 0.0, 0.0, 3, 35.0, 0.015, 0.015 
128422, 0.8265136480331421, 0.47206762433052063, 145.4336395263672, 30.360000610351562, 2.700000047683716, 0.0, 0.0, 0.0, 0.0, 0.0, 0.0, 0.0, 0.0, 0.0, 0.0, 0.0, 0.0, 0.0, 0.0, 0.0, 0.0, 0.0, 3, 35.0, 0.015, 0.015 
128425, 0.5044856071472168, 0.5625578761100769, 145.72454833984375, 30.200000762939453, 2.549999952316284, 0.0, 0.0, 0.0, 0.0, 0.0, 0.0, 0.0, 0.0, 0.0, 0.0, 0.0, 0.0, 0.0, 0.0, 0.0, 0.0, 0.0, 3, 35.0, 0.015, 0.015 
128427, 0.3401399552822113, 0.5970804691314697, 145.9209747314453, 29.950000762939453, 2.309999942779541, 0.0, 0.0, 0.0, 0.0, 0.0, 0.0, 0.0, 0.0, 0.0, 0.0, 0.0, 0.0, 0.0, 0.0, 0.0, 0.0, 0.0, 3, 35.0, 0.015, 0.015 
128434, -0.03192049264907837, 0.7149854898452759, 146.50775146484375, 29.389999389648438, 1.649999976158142, 0.0, 0.0, 0.0, 0.0, 0.0, 0.0, 0.0, 0.0, 0.0, 0.0, 0.0, 0.0, 0.0, 0.0, 0.0, 0.0, 0.0, 3, 35.0, 0.015, 0.015 
128436, -0.12519274652004242, 0.7155725955963135, 146.67958068847656, 29.229999542236328, 1.440000057220459, 0.0, 0.0, 0.0, 0.0, 0.0, 0.0, 0.0, 0.0, 0.0, 0.0, 0.0, 0.0, 0.0, 0.0, 0.0, 0.0, 0.0, 3, 35.0, 0.015, 0.015 
128436, -0.12519274652004242, 0.7155725955963135, 146.67958068847656, 29.229999542236328, 1.440000057220459, 0.0, 0.0, 0.0, 0.0, 0.0, 0.0, 0.0, 0.0, 0.0, 0.0, 0.0, 0.0, 0.0, 0.0, 0.0, 0.0, 0.0, 3, 35.0, 0.015, 0.015 
128438, -0.19417281448841095, 0.6998899579048157, 146.8634796142578, 29.059999465942383, 1.2200000286102295, 0.0, 0.0, 0.0, 0.0, 0.0, 0.0, 0.0, 0.0, 0.0, 0.0, 0.0, 0.0, 0.0, 0.0, 0.0, 0.0, 0.0, 3, 35.0, 0.015, 0.015 
128439, -0.20746293663978577, 0.6863508224487305, 146.99380493164062, 28.979999542236328, 1.1200000047683716, 0.0, 0.0, 0.0, 0.0, 0.0, 0.0, 0.0, 0.0, 0.0, 0.0, 0.0, 0.0, 0.0, 0.0, 0.0, 0.0, 0.0, 3, 35.0, 0.015, 0.015 
128440, -0.21188989281654358, 0.7179568409919739, 147.05865478515625, 28.899999618530273, 1.0099999904632568, 0.0, 0.0, 0.0, 0.0, 0.0, 0.0, 0.0, 0.0, 0.0, 0.0, 0.0, 0.0, 0.0, 0.0, 0.0, 0.0, 0.0, 3, 35.0, 0.015, 0.015 
128442, -0.21727152168750763, 0.7166662812232971, 147.2464599609375, 28.739999771118164, 0.800000011920929, 0.0, 0.0, 0.0, 0.0, 0.0, 0.0, 0.0, 0.0, 0.0, 0.0, 0.0, 0.0, 0.0, 0.0, 0.0, 0.0, 0.0, 3, 35.0, 0.015, 0.015 
128444, -0.22073733806610107, 0.6906689405441284, 147.414794921875, 28.579999923706055, 0.5799999833106995, 0.0, 0.0, 0.0, 0.0, 0.0, 0.0, 0.0, 0.0, 0.0, 0.0, 0.0, 0.0, 0.0, 0.0, 0.0, 0.0, 0.0, 3, 35.0, 0.015, 0.015 
128447, -0.18784406781196594, 0.669046938419342, 147.6854248046875, 28.329999923706055, 0.27000001072883606, 0.0, 0.0, 0.0, 0.0, 0.0, 0.0, 0.0, 0.0, 0.0, 0.0, 0.0, 0.0, 0.0, 0.0, 0.0, 0.0, 0.0, 3, 35.0, 0.015, 0.015 
128449, -0.15034399926662445, 0.5890347361564636, 147.88246154785156, 28.170000076293945, 0.07999999821186066, 0.0, 0.0, 0.0, 0.0, 0.0, 0.0, 0.0, 0.0, 0.0, 0.0, 0.0, 0.0, 0.0, 0.0, 0.0, 0.0, 0.0, 3, 35.0, 0.015, 0.015 
128451, -0.07961660623550415, 0.5904010534286499, 148.03746032714844, 28.010000228881836, -0.10000000149011612, 0.0, 0.0, 0.0, 0.0, 0.0, 0.0, 0.0, 0.0, 0.0, 0.0, 0.0, 0.0, 0.0, 0.0, 0.0, 0.0, 0.0, 3, 35.0, 0.015, 0.015 
128453, -0.02382172830402851, 0.555626392364502, 148.19166564941406, 27.850000381469727, -0.2800000011920929, 0.0, 0.0, 0.0, 0.0, 0.0, 0.0, 0.0, 0.0, 0.0, 0.0, 0.0, 0.0, 0.0, 0.0, 0.0, 0.0, 0.0, 3, 35.0, 0.015, 0.015 
128456, 0.04725933447480202, 0.4095551669597626, 148.4521942138672, 27.610000610351562, -0.5099999904632568, 0.0, 0.0, 0.0, 0.0, 0.0, 0.0, 0.0, 0.0, 0.0, 0.0, 0.0, 0.0, 0.0, 0.0, 0.0, 0.0, 0.0, 3, 35.0, 0.015, 0.015 
128457, 0.10500897467136383, 0.38471731543540955, 148.54879760742188, 27.440000534057617, -0.6399999856948853, 0.0, 0.0, 0.0, 0.0, 0.0, 0.0, 0.0, 0.0, 0.0, 0.0, 0.0, 0.0, 0.0, 0.0, 0.0, 0.0, 0.0, 3, 35.0, 0.015, 0.015 
128460, 0.24685315787792206, 0.27805933356285095, 148.79782104492188, 27.280000686645508, -0.7400000095367432, 0.0, 0.0, 0.0, 0.0, 0.0, 0.0, 0.0, 0.0, 0.0, 0.0, 0.0, 0.0, 0.0, 0.0, 0.0, 0.0, 0.0, 3, 35.0, 0.015, 0.015 
128462, 0.31289607286453247, 0.18157556653022766, 148.9009246826172, 27.1200008392334, -0.8199999928474426, 0.0, 0.0, 0.0, 0.0, 0.0, 0.0, 0.0, 0.0, 0.0, 0.0, 0.0, 0.0, 0.0, 0.0, 0.0, 0.0, 0.0, 3, 35.0, 0.015, 0.015 
128464, 0.3630951941013336, 0.08711452782154083, 149.06219482421875, 26.959999084472656, -0.8700000047683716, 0.0, 0.0, 0.0, 0.0, 0.0, 0.0, 0.0, 0.0, 0.0, 0.0, 0.0, 0.0, 0.0, 0.0, 0.0, 0.0, 0.0, 3, 35.0, 0.015, 0.015 
128467, 0.41518649458885193, 0.0327700637280941, 149.3173370361328, 26.709999084472656, -0.8899999856948853, 0.0, 0.0, 0.0, 0.0, 0.0, 0.0, 0.0, 0.0, 0.0, 0.0, 0.0, 0.0, 0.0, 0.0, 0.0, 0.0, 0.0, 3, 35.0, 0.015, 0.015 
128470, 0.5197761058807373, -0.12839332222938538, 149.52999877929688, 26.469999313354492, -0.8899999856948853, 0.0, 0.0, 0.0, 0.0, 0.0, 0.0, 0.0, 0.0, 0.0, 0.0, 0.0, 0.0, 0.0, 0.0, 0.0, 0.0, 0.0, 3, 35.0, 0.015, 0.015 
128471, 0.5705883502960205, -0.1887822449207306, 149.6070556640625, 26.389999389648438, -0.8799999952316284, 0.0, 0.0, 0.0, 0.0, 0.0, 0.0, 0.0, 0.0, 0.0, 0.0, 0.0, 0.0, 0.0, 0.0, 0.0, 0.0, 0.0, 3, 35.0, 0.015, 0.015 
128473, 0.6532750129699707, -0.3059416711330414, 149.7060089111328, 26.229999542236328, -0.8199999928474426, 0.0, 0.0, 0.0, 0.0, 0.0, 0.0, 0.0, 0.0, 0.0, 0.0, 0.0, 0.0, 0.0, 0.0, 0.0, 0.0, 0.0, 3, 35.0, 0.015, 0.015 
128476, 0.6976433992385864, -0.4296207129955292, 149.8936004638672, 25.979999542236328, -0.6700000166893005, 0.0, 0.0, 0.0, 0.0, 0.0, 0.0, 0.0, 0.0, 0.0, 0.0, 0.0, 0.0, 0.0, 0.0, 0.0, 0.0, 0.0, 3, 35.0, 0.015, 0.015 
128478, 0.6991506814956665, -0.46116772294044495, 150.0241241455078, 25.81999969482422, -0.550000011920929, 0.0, 0.0, 0.0, 0.0, 0.0, 0.0, 0.0, 0.0, 0.0, 0.0, 0.0, 0.0, 0.0, 0.0, 0.0, 0.0, 0.0, 3, 35.0, 0.015, 0.015 
128480, 0.7106128931045532, -0.4863791763782501, 150.1566925048828, 25.65999984741211, -0.4099999964237213, 0.0, 0.0, 0.0, 0.0, 0.0, 0.0, 0.0, 0.0, 0.0, 0.0, 0.0, 0.0, 0.0, 0.0, 0.0, 0.0, 0.0, 3, 35.0, 0.015, 0.015 
128482, 0.7330023050308228, -0.5322487354278564, 150.291748046875, 25.5, -0.27000001072883606, 0.0, 0.0, 0.0, 0.0, 0.0, 0.0, 0.0, 0.0, 0.0, 0.0, 0.0, 0.0, 0.0, 0.0, 0.0, 0.0, 0.0, 3, 35.0, 0.015, 0.015 
128484, 0.7693889141082764, -0.6144172549247742, 150.40655517578125, 25.34000015258789, -0.11999999731779099, 0.0, 0.0, 0.0, 0.0, 0.0, 0.0, 0.0, 0.0, 0.0, 0.0, 0.0, 0.0, 0.0, 0.0, 0.0, 0.0, 0.0, 3, 35.0, 0.015, 0.015 
128487, 0.8302323818206787, -0.6653692722320557, 150.56695556640625, 25.09000015258789, 0.15000000596046448, 0.0, 0.0, 0.0, 0.0, 0.0, 0.0, 0.0, 0.0, 0.0, 0.0, 0.0, 0.0, 0.0, 0.0, 0.0, 0.0, 0.0, 3, 35.0, 0.015, 0.015 
128489, 0.8604999780654907, -0.6731439828872681, 150.6873321533203, 24.93000030517578, 0.3400000035762787, 0.0, 0.0, 0.0, 0.0, 0.0, 0.0, 0.0, 0.0, 0.0, 0.0, 0.0, 0.0, 0.0, 0.0, 0.0, 0.0, 0.0, 3, 35.0, 0.015, 0.015 
128491, 0.8828974962234497, -0.6642007827758789, 150.787841796875, 24.770000457763672, 0.550000011920929, 0.0, 0.0, 0.0, 0.0, 0.0, 0.0, 0.0, 0.0, 0.0, 0.0, 0.0, 0.0, 0.0, 0.0, 0.0, 0.0, 0.0, 3, 35.0, 0.015, 0.015 
128493, 0.8927648663520813, -0.6614975929260254, 150.86309814453125, 24.610000610351562, 0.75, 0.0, 0.0, 0.0, 0.0, 0.0, 0.0, 0.0, 0.0, 0.0, 0.0, 0.0, 0.0, 0.0, 0.0, 0.0, 0.0, 0.0, 3, 35.0, 0.015, 0.015 
128495, 0.8847988843917847, -0.6326599717140198, 150.9785614013672, 24.440000534057617, 0.9599999785423279, 0.0, 0.0, 0.0, 0.0, 0.0, 0.0, 0.0, 0.0, 0.0, 0.0, 0.0, 0.0, 0.0, 0.0, 0.0, 0.0, 0.0, 3, 35.0, 0.015, 0.015 
128498, 0.8742738962173462, -0.6215806603431702, 151.09539794921875, 24.200000762939453, 1.2400000095367432, 0.0, 0.0, 0.0, 0.0, 0.0, 0.0, 0.0, 0.0, 0.0, 0.0, 0.0, 0.0, 0.0, 0.0, 0.0, 0.0, 0.0, 3, 35.0, 0.015, 0.015 
128500, 0.8857142329216003, -0.5731426477432251, 151.17417907714844, 24.040000915527344, 1.4199999570846558, 0.0, 0.0, 0.0, 0.0, 0.0, 0.0, 0.0, 0.0, 0.0, 0.0, 0.0, 0.0, 0.0, 0.0, 0.0, 0.0, 0.0, 3, 35.0, 0.015, 0.015 
128502, 0.8984252214431763, -0.5586991906166077, 151.2562255859375, 23.8799991607666, 1.590000033378601, 0.0, 0.0, 0.0, 0.0, 0.0, 0.0, 0.0, 0.0, 0.0, 0.0, 0.0, 0.0, 0.0, 0.0, 0.0, 0.0, 0.0, 3, 35.0, 0.015, 0.015 
128504, 0.8965005874633789, -0.5174664855003357, 151.3338165283203, 23.719999313354492, 1.7599999904632568, 0.0, 0.0, 0.0, 0.0, 0.0, 0.0, 0.0, 0.0, 0.0, 0.0, 0.0, 0.0, 0.0, 0.0, 0.0, 0.0, 0.0, 3, 35.0, 0.015, 0.015 
128507, 0.8669746518135071, -0.4069906771183014, 151.46832275390625, 23.469999313354492, 1.9900000095367432, 0.0, 0.0, 0.0, 0.0, 0.0, 0.0, 0.0, 0.0, 0.0, 0.0, 0.0, 0.0, 0.0, 0.0, 0.0, 0.0, 0.0, 3, 35.0, 0.015, 0.015 
128509, 0.848972499370575, -0.2904600203037262, 151.54412841796875, 23.309999465942383, 2.130000114440918, 0.0, 0.0, 0.0, 0.0, 0.0, 0.0, 0.0, 0.0, 0.0, 0.0, 0.0, 0.0, 0.0, 0.0, 0.0, 0.0, 0.0, 3, 35.0, 0.015, 0.015 
128511, 0.8536492586135864, -0.22930240631103516, 151.63388061523438, 23.149999618530273, 2.2200000286102295, 0.0, 0.0, 0.0, 0.0, 0.0, 0.0, 0.0, 0.0, 0.0, 0.0, 0.0, 0.0, 0.0, 0.0, 0.0, 0.0, 0.0, 3, 35.0, 0.015, 0.015 
128513, 0.8824495077133179, -0.21401363611221313, 151.6802215576172, 22.989999771118164, 2.299999952316284, 0.0, 0.0, 0.0, 0.0, 0.0, 0.0, 0.0, 0.0, 0.0, 0.0, 0.0, 0.0, 0.0, 0.0, 0.0, 0.0, 0.0, 3, 35.0, 0.015, 0.015 
128515, 0.9163002371788025, -0.11110866814851761, 151.74278259277344, 22.81999969482422, 2.359999895095825, 0.0, 0.0, 0.0, 0.0, 0.0, 0.0, 0.0, 0.0, 0.0, 0.0, 0.0, 0.0, 0.0, 0.0, 0.0, 0.0, 0.0, 3, 35.0, 0.015, 0.015 
128518, 0.9269823431968689, 0.005616250913590193, 151.8374481201172, 22.579999923706055, 2.4200000762939453, 0.0, 0.0, 0.0, 0.0, 0.0, 0.0, 0.0, 0.0, 0.0, 0.0, 0.0, 0.0, 0.0, 0.0, 0.0, 0.0, 0.0, 3, 35.0, 0.015, 0.015 
128520, 0.9203763604164124, 0.13252516090869904, 151.9127655029297, 22.420000076293945, 2.4200000762939453, 0.0, 0.0, 0.0, 0.0, 0.0, 0.0, 0.0, 0.0, 0.0, 0.0, 0.0, 0.0, 0.0, 0.0, 0.0, 0.0, 0.0, 3, 35.0, 0.015, 0.015 
128522, 0.9368192553520203, 0.22823640704154968, 151.99630737304688, 22.260000228881836, 2.4000000953674316, 0.0, 0.0, 0.0, 0.0, 0.0, 0.0, 0.0, 0.0, 0.0, 0.0, 0.0, 0.0, 0.0, 0.0, 0.0, 0.0, 0.0, 3, 35.0, 0.015, 0.015 
128524, 0.9874988198280334, 0.3448331356048584, 152.04605102539062, 22.010000228881836, 2.299999952316284, 0.0, 0.0, 0.0, 0.0, 0.0, 0.0, 0.0, 0.0, 0.0, 0.0, 0.0, 0.0, 0.0, 0.0, 0.0, 0.0, 0.0, 3, 35.0, 0.015, 0.015 
128527, 1.0956826210021973, 0.4726671874523163, 152.1552276611328, 21.850000381469727, 2.180000066757202, 0.0, 0.0, 0.0, 0.0, 0.0, 0.0, 0.0, 0.0, 0.0, 0.0, 0.0, 0.0, 0.0, 0.0, 0.0, 0.0, 0.0, 3, 35.0, 0.015, 0.015 
128529, 1.1620229482650757, 0.5928539633750916, 152.2145538330078, 21.690000534057617, 2.0399999618530273, 0.0, 0.0, 0.0, 0.0, 0.0, 0.0, 0.0, 0.0, 0.0, 0.0, 0.0, 0.0, 0.0, 0.0, 0.0, 0.0, 0.0, 3, 35.0, 0.015, 0.015 
128531, 1.2314420938491821, 0.7036641836166382, 152.2755584716797, 21.530000686645508, 1.8700000047683716, 0.0, 0.0, 0.0, 0.0, 0.0, 0.0, 0.0, 0.0, 0.0, 0.0, 0.0, 0.0, 0.0, 0.0, 0.0, 0.0, 0.0, 3, 35.0, 0.015, 0.015 
128533, 1.3047034740447998, 0.7669306993484497, 152.34988403320312, 21.3700008392334, 1.6799999475479126, 0.0, 0.0, 0.0, 0.0, 0.0, 0.0, 0.0, 0.0, 0.0, 0.0, 0.0, 0.0, 0.0, 0.0, 0.0, 0.0, 0.0, 3, 35.0, 0.015, 0.015 
128536, 1.423941731452942, 0.8892630338668823, 152.4272003173828, 21.1200008392334, 1.3300000429153442, 0.0, 0.0, 0.0, 0.0, 0.0, 0.0, 0.0, 0.0, 0.0, 0.0, 0.0, 0.0, 0.0, 0.0, 0.0, 0.0, 0.0, 3, 35.0, 0.015, 0.015 
128538, 1.538941502571106, 0.9756765365600586, 152.4748992919922, 20.959999084472656, 1.059999942779541, 0.0, 0.0, 0.0, 0.0, 0.0, 0.0, 0.0, 0.0, 0.0, 0.0, 0.0, 0.0, 0.0, 0.0, 0.0, 0.0, 0.0, 3, 35.0, 0.015, 0.015 
128540, 1.6494501829147339, 1.0174615383148193, 152.55117797851562, 20.799999237060547, 0.7799999713897705, 0.0, 0.0, 0.0, 0.0, 0.0, 0.0, 0.0, 0.0, 0.0, 0.0, 0.0, 0.0, 0.0, 0.0, 0.0, 0.0, 0.0, 3, 35.0, 0.015, 0.015 
128542, 1.7638591527938843, 1.1232162714004517, 152.6027374267578, 20.639999389648438, 0.47999998927116394, 0.0, 0.0, 0.0, 0.0, 0.0, 0.0, 0.0, 0.0, 0.0, 0.0, 0.0, 0.0, 0.0, 0.0, 0.0, 0.0, 0.0, 3, 35.0, 0.015, 0.015 
128545, 1.9653737545013428, 1.1071250438690186, 152.7141876220703, 20.389999389648438, -0.009999999776482582, 0.0, 0.0, 0.0, 0.0, 0.0, 0.0, 0.0, 0.0, 0.0, 0.0, 0.0, 0.0, 0.0, 0.0, 0.0, 0.0, 0.0, 3, 35.0, 0.015, 0.015 
128547, 2.085390090942383, 1.0928692817687988, 152.78884887695312, 20.229999542236328, -0.3499999940395355, 0.0, 0.0, 0.0, 0.0, 0.0, 0.0, 0.0, 0.0, 0.0, 0.0, 0.0, 0.0, 0.0, 0.0, 0.0, 0.0, 0.0, 3, 35.0, 0.015, 0.015 
128549, 2.2201201915740967, 1.1530722379684448, 152.86618041992188, 20.06999969482422, -0.6700000166893005, 0.0, 0.0, 0.0, 0.0, 0.0, 0.0, 0.0, 0.0, 0.0, 0.0, 0.0, 0.0, 0.0, 0.0, 0.0, 0.0, 0.0, 3, 35.0, 0.015, 0.015 
128551, 2.343924045562744, 1.1612690687179565, 152.92681884765625, 19.90999984741211, -1.0099999904632568, 0.0, 0.0, 0.0, 0.0, 0.0, 0.0, 0.0, 0.0, 0.0, 0.0, 0.0, 0.0, 0.0, 0.0, 0.0, 0.0, 0.0, 3, 35.0, 0.015, 0.015 
128553, 2.462827205657959, 1.0463323593139648, 153.01300048828125, 19.75, -1.3600000143051147, 0.0, 0.0, 0.0, 0.0, 0.0, 0.0, 0.0, 0.0, 0.0, 0.0, 0.0, 0.0, 0.0, 0.0, 0.0, 0.0, 0.0, 3, 35.0, 0.015, 0.015 
128556, 2.643669605255127, 0.8884919285774231, 153.11648559570312, 19.5, -1.850000023841858, 0.0, 0.0, 0.0, 0.0, 0.0, 0.0, 0.0, 0.0, 0.0, 0.0, 0.0, 0.0, 0.0, 0.0, 0.0, 0.0, 0.0, 3, 35.0, 0.015, 0.015 
128558, 2.8052406311035156, 0.7615066170692444, 153.16622924804688, 19.34000015258789, -2.130000114440918, 0.0, 0.0, 0.0, 0.0, 0.0, 0.0, 0.0, 0.0, 0.0, 0.0, 0.0, 0.0, 0.0, 0.0, 0.0, 0.0, 0.0, 3, 35.0, 0.015, 0.015 
128560, 2.9973342418670654, 0.575539231300354, 153.2827606201172, 19.18000030517578, -2.369999885559082, 0.0, 0.0, 0.0, 0.0, 0.0, 0.0, 0.0, 0.0, 0.0, 0.0, 0.0, 0.0, 0.0, 0.0, 0.0, 0.0, 0.0, 3, 35.0, 0.015, 0.015 
128563, 3.1366875171661377, 0.3350067138671875, 153.33204650878906, 18.940000534057617, -2.6500000953674316, 0.0, 0.0, 0.0, 0.0, 0.0, 0.0, 0.0, 0.0, 0.0, 0.0, 0.0, 0.0, 0.0, 0.0, 0.0, 0.0, 0.0, 3, 35.0, 0.015, 0.015 
128565, 3.2123422622680664, 0.18041831254959106, 153.39781188964844, 18.770000457763672, -2.7799999713897705, 0.0, 0.0, 0.0, 0.0, 0.0, 0.0, 0.0, 0.0, 0.0, 0.0, 0.0, 0.0, 0.0, 0.0, 0.0, 0.0, 0.0, 3, 35.0, 0.015, 0.015 
128567, 3.2734503746032715, 0.0694369450211525, 153.46743774414062, 18.610000610351562, -2.8499999046325684, 0.0, 0.0, 0.0, 0.0, 0.0, 0.0, 0.0, 0.0, 0.0, 0.0, 0.0, 0.0, 0.0, 0.0, 0.0, 0.0, 0.0, 3, 35.0, 0.015, 0.015 
128569, 3.3244118690490723, -0.10136514902114868, 153.49037170410156, 18.450000762939453, -2.890000104904175, 0.0, 0.0, 0.0, 0.0, 0.0, 0.0, 0.0, 0.0, 0.0, 0.0, 0.0, 0.0, 0.0, 0.0, 0.0, 0.0, 0.0, 3, 35.0, 0.015, 0.015 
128571, 3.3590869903564453, -0.31166166067123413, 153.53179931640625, 18.290000915527344, -2.880000114440918, 0.0, 0.0, 0.0, 0.0, 0.0, 0.0, 0.0, 0.0, 0.0, 0.0, 0.0, 0.0, 0.0, 0.0, 0.0, 0.0, 0.0, 3, 35.0, 0.015, 0.015 
128573, 3.3612220287323, -0.4916002154350281, 153.6018829345703, 18.1299991607666, -2.819999933242798, 0.0, 0.0, 0.0, 0.0, 0.0, 0.0, 0.0, 0.0, 0.0, 0.0, 0.0, 0.0, 0.0, 0.0, 0.0, 0.0, 0.0, 3, 35.0, 0.015, 0.015 
128575, 3.3344106674194336, -0.6157835125923157, 153.5913848876953, 17.959999084472656, -2.690000057220459, 0.0, 0.0, 0.0, 0.0, 0.0, 0.0, 0.0, 0.0, 0.0, 0.0, 0.0, 0.0, 0.0, 0.0, 0.0, 0.0, 0.0, 3, 35.0, 0.015, 0.015 
128578, 3.2747931480407715, -0.7234698534011841, 153.6299285888672, 17.719999313354492, -2.430000066757202, 0.0, 0.0, 0.0, 0.0, 0.0, 0.0, 0.0, 0.0, 0.0, 0.0, 0.0, 0.0, 0.0, 0.0, 0.0, 0.0, 0.0, 3, 35.0, 0.015, 0.015 
128580, 3.213735342025757, -0.7662068605422974, 153.70082092285156, 17.559999465942383, -2.2200000286102295, 0.0, 0.0, 0.0, 0.0, 0.0, 0.0, 0.0, 0.0, 0.0, 0.0, 0.0, 0.0, 0.0, 0.0, 0.0, 0.0, 0.0, 3, 35.0, 0.015, 0.015 
128582, 3.149160385131836, -0.8962449431419373, 153.666259765625, 17.399999618530273, -2.0, 0.0, 0.0, 0.0, 0.0, 0.0, 0.0, 0.0, 0.0, 0.0, 0.0, 0.0, 0.0, 0.0, 0.0, 0.0, 0.0, 0.0, 3, 35.0, 0.015, 0.015 
128584, 3.0980262756347656, -1.0585678815841675, 153.6934814453125, 17.229999542236328, -1.7400000095367432, 0.0, 0.0, 0.0, 0.0, 0.0, 0.0, 0.0, 0.0, 0.0, 0.0, 0.0, 0.0, 0.0, 0.0, 0.0, 0.0, 0.0, 3, 35.0, 0.015, 0.015 
128587, 3.0009632110595703, -1.129460334777832, 153.7060546875, 16.989999771118164, -1.2899999618530273, 0.0, 0.0, 0.0, 0.0, 0.0, 0.0, 0.0, 0.0, 0.0, 0.0, 0.0, 0.0, 0.0, 0.0, 0.0, 0.0, 0.0, 3, 35.0, 0.015, 0.015 
128589, 2.8649725914001465, -1.1817991733551025, 153.68482971191406, 16.829999923706055, -0.9599999785423279, 0.0, 0.0, 0.0, 0.0, 0.0, 0.0, 0.0, 0.0, 0.0, 0.0, 0.0, 0.0, 0.0, 0.0, 0.0, 0.0, 0.0, 3, 35.0, 0.015, 0.015 
128591, 2.6949496269226074, -1.2072269916534424, 153.7280731201172, 16.670000076293945, -0.6100000143051147, 0.0, 0.0, 0.0, 0.0, 0.0, 0.0, 0.0, 0.0, 0.0, 0.0, 0.0, 0.0, 0.0, 0.0, 0.0, 0.0, 0.0, 3, 35.0, 0.015, 0.015 
128593, 2.5169174671173096, -1.2495253086090088, 153.7507781982422, 16.5, -0.25, 0.0, 0.0, 0.0, 0.0, 0.0, 0.0, 0.0, 0.0, 0.0, 0.0, 0.0, 0.0, 0.0, 0.0, 0.0, 0.0, 0.0, 3, 35.0, 0.015, 0.015 
128595, 2.3513076305389404, -1.3246468305587769, 153.7116241455078, 16.260000228881836, 0.3100000023841858, 0.0, 0.0, 0.0, 0.0, 0.0, 0.0, 0.0, 0.0, 0.0, 0.0, 0.0, 0.0, 0.0, 0.0, 0.0, 0.0, 0.0, 3, 35.0, 0.015, 0.015 
128598, 2.0652740001678467, -1.331386685371399, 153.7861328125, 16.100000381469727, 0.699999988079071, 0.0, 0.0, 0.0, 0.0, 0.0, 0.0, 0.0, 0.0, 0.0, 0.0, 0.0, 0.0, 0.0, 0.0, 0.0, 0.0, 0.0, 3, 35.0, 0.015, 0.015 
128600, 1.8629310131072998, -1.3710646629333496, 153.77171325683594, 15.9399995803833, 1.090000033378601, 0.0, 0.0, 0.0, 0.0, 0.0, 0.0, 0.0, 0.0, 0.0, 0.0, 0.0, 0.0, 0.0, 0.0, 0.0, 0.0, 0.0, 3, 35.0, 0.015, 0.015 
128602, 1.6622394323349, -1.4156849384307861, 153.8003387451172, 15.779999732971191, 1.5, 0.0, 0.0, 0.0, 0.0, 0.0, 0.0, 0.0, 0.0, 0.0, 0.0, 0.0, 0.0, 0.0, 0.0, 0.0, 0.0, 0.0, 3, 35.0, 0.015, 0.015 
128604, 1.4749587774276733, -1.2853357791900635, 153.87120056152344, 15.609999656677246, 1.9199999570846558, 0.0, 0.0, 0.0, 0.0, 0.0, 0.0, 0.0, 0.0, 0.0, 0.0, 0.0, 0.0, 0.0, 0.0, 0.0, 0.0, 0.0, 3, 35.0, 0.015, 0.015 
128606, 1.288352370262146, -1.3108854293823242, 153.85980224609375, 15.369999885559082, 2.5199999809265137, 0.0, 0.0, 0.0, 0.0, 0.0, 0.0, 0.0, 0.0, 0.0, 0.0, 0.0, 0.0, 0.0, 0.0, 0.0, 0.0, 0.0, 3, 35.0, 0.015, 0.015 
128609, 1.061601996421814, -1.2380666732788086, 153.91371154785156, 15.210000038146973, 2.9100000858306885, 0.0, 0.0, 0.0, 0.0, 0.0, 0.0, 0.0, 0.0, 0.0, 0.0, 0.0, 0.0, 0.0, 0.0, 0.0, 0.0, 0.0, 3, 35.0, 0.015, 0.015 
128611, 0.8966866731643677, -1.1838998794555664, 153.96995544433594, 15.050000190734863, 3.2899999618530273, 0.0, 0.0, 0.0, 0.0, 0.0, 0.0, 0.0, 0.0, 0.0, 0.0, 0.0, 0.0, 0.0, 0.0, 0.0, 0.0, 0.0, 3, 35.0, 0.015, 0.015 
128613, 0.7304338216781616, -1.0604417324066162, 153.9794921875, 14.880000114440918, 3.6600000858306885, 0.0, 0.0, 0.0, 0.0, 0.0, 0.0, 0.0, 0.0, 0.0, 0.0, 0.0, 0.0, 0.0, 0.0, 0.0, 0.0, 0.0, 3, 35.0, 0.015, 0.015 
128615, 0.5719712376594543, -1.0227981805801392, 154.06060791015625, 14.640000343322754, 4.139999866485596, 0.0, 0.0, 0.0, 0.0, 0.0, 0.0, 0.0, 0.0, 0.0, 0.0, 0.0, 0.0, 0.0, 0.0, 0.0, 0.0, 0.0, 3, 35.0, 0.015, 0.015 
128618, 0.324584037065506, -0.8352447748184204, 154.12548828125, 14.479999542236328, 4.440000057220459, 0.0, 0.0, 0.0, 0.0, 0.0, 0.0, 0.0, 0.0, 0.0, 0.0, 0.0, 0.0, 0.0, 0.0, 0.0, 0.0, 0.0, 3, 35.0, 0.015, 0.015 
128620, 0.18413622677326202, -0.7586323022842407, 154.19886779785156, 14.319999694824219, 4.710000038146973, 0.0, 0.0, 0.0, 0.0, 0.0, 0.0, 0.0, 0.0, 0.0, 0.0, 0.0, 0.0, 0.0, 0.0, 0.0, 0.0, 0.0, 3, 35.0, 0.015, 0.015 
128622, 0.06534510105848312, -0.6034173965454102, 154.281005859375, 14.15999984741211, 4.940000057220459, 0.0, 0.0, 0.0, 0.0, 0.0, 0.0, 0.0, 0.0, 0.0, 0.0, 0.0, 0.0, 0.0, 0.0, 0.0, 0.0, 0.0, 3, 35.0, 0.015, 0.015 
128624, -0.027764800935983658, -0.5749351382255554, 154.3451385498047, 13.989999771118164, 5.159999847412109, 0.0, 0.0, 0.0, 0.0, 0.0, 0.0, 0.0, 0.0, 0.0, 0.0, 0.0, 0.0, 0.0, 0.0, 0.0, 0.0, 0.0, 3, 35.0, 0.015, 0.015 
128626, -0.10961802303791046, -0.363296240568161, 154.4224395751953, 13.75, 5.409999847412109, 0.0, 0.0, 0.0, 0.0, 0.0, 0.0, 0.0, 0.0, 0.0, 0.0, 0.0, 0.0, 0.0, 0.0, 0.0, 0.0, 0.0, 3, 35.0, 0.015, 0.015 
128629, -0.24426484107971191, -0.22163733839988708, 154.56431579589844, 13.59000015258789, 5.53000020980835, 0.0, 0.0, 0.0, 0.0, 0.0, 0.0, 0.0, 0.0, 0.0, 0.0, 0.0, 0.0, 0.0, 0.0, 0.0, 0.0, 0.0, 3, 35.0, 0.015, 0.015 
128631, -0.3471321761608124, -0.13005392253398895, 154.6660919189453, 13.430000305175781, 5.619999885559082, 0.0, 0.0, 0.0, 0.0, 0.0, 0.0, 0.0, 0.0, 0.0, 0.0, 0.0, 0.0, 0.0, 0.0, 0.0, 0.0, 0.0, 3, 35.0, 0.015, 0.015 
128633, -0.4224090874195099, 0.08131564408540726, 154.76455688476562, 13.270000457763672, 5.670000076293945, 0.0, 0.0, 0.0, 0.0, 0.0, 0.0, 0.0, 0.0, 0.0, 0.0, 0.0, 0.0, 0.0, 0.0, 0.0, 0.0, 0.0, 3, 35.0, 0.015, 0.015 
128635, -0.4613253176212311, 0.1305137425661087, 154.8811492919922, 13.100000381469727, 5.679999828338623, 0.0, 0.0, 0.0, 0.0, 0.0, 0.0, 0.0, 0.0, 0.0, 0.0, 0.0, 0.0, 0.0, 0.0, 0.0, 0.0, 0.0, 3, 35.0, 0.015, 0.015 
128638, -0.49379685521125793, 0.4318804442882538, 155.06715393066406, 12.859999656677246, 5.630000114440918, 0.0, 0.0, 0.0, 0.0, 0.0, 0.0, 0.0, 0.0, 0.0, 0.0, 0.0, 0.0, 0.0, 0.0, 0.0, 0.0, 0.0, 3, 35.0, 0.015, 0.015 
128640, -0.535678505897522, 0.5861660242080688, 155.1940155029297, 12.699999809265137, 5.53000020980835, 0.0, 0.0, 0.0, 0.0, 0.0, 0.0, 0.0, 0.0, 0.0, 0.0, 0.0, 0.0, 0.0, 0.0, 0.0, 0.0, 0.0, 3, 35.0, 0.015, 0.015 
128642, -0.561858594417572, 0.7461425065994263, 155.3419647216797, 12.539999961853027, 5.380000114440918, 0.0, 0.0, 0.0, 0.0, 0.0, 0.0, 0.0, 0.0, 0.0, 0.0, 0.0, 0.0, 0.0, 0.0, 0.0, 0.0, 0.0, 3, 35.0, 0.015, 0.015 
128645, -0.5498425364494324, 0.8847582340240479, 155.498046875, 12.289999961853027, 5.059999942779541, 0.0, 0.0, 0.0, 0.0, 0.0, 0.0, 0.0, 0.0, 0.0, 0.0, 0.0, 0.0, 0.0, 0.0, 0.0, 0.0, 0.0, 3, 35.0, 0.015, 0.015 
128647, -0.5134111642837524, 1.0550496578216553, 155.62644958496094, 12.130000114440918, 4.809999942779541, 0.0, 0.0, 0.0, 0.0, 0.0, 0.0, 0.0, 0.0, 0.0, 0.0, 0.0, 0.0, 0.0, 0.0, 0.0, 0.0, 0.0, 3, 35.0, 0.015, 0.015 
128649, -0.49578678607940674, 1.1364132165908813, 155.7705078125, 11.970000267028809, 4.510000228881836, 0.0, 0.0, 0.0, 0.0, 0.0, 0.0, 0.0, 0.0, 0.0, 0.0, 0.0, 0.0, 0.0, 0.0, 0.0, 0.0, 0.0, 3, 35.0, 0.015, 0.015 
128651, -0.4854283928871155, 1.229354977607727, 155.90560913085938, 11.8100004196167, 4.179999828338623, 0.0, 0.0, 0.0, 0.0, 0.0, 0.0, 0.0, 0.0, 0.0, 0.0, 0.0, 0.0, 0.0, 0.0, 0.0, 0.0, 0.0, 3, 35.0, 0.015, 0.015 
128654, -0.39985406398773193, 1.4315869808197021, 156.16334533691406, 11.5600004196167, 3.630000114440918, 0.0, 0.0, 0.0, 0.0, 0.0, 0.0, 0.0, 0.0, 0.0, 0.0, 0.0, 0.0, 0.0, 0.0, 0.0, 0.0, 0.0, 3, 35.0, 0.015, 0.015 
128655, -0.37626996636390686, 1.4726070165634155, 156.20631408691406, 11.479999542236328, 3.4200000762939453, 0.0, 0.0, 0.0, 0.0, 0.0, 0.0, 0.0, 0.0, 0.0, 0.0, 0.0, 0.0, 0.0, 0.0, 0.0, 0.0, 0.0, 3, 35.0, 0.015, 0.015 
128658, -0.18567153811454773, 1.499633550643921, 156.41165161132812, 11.239999771118164, 2.7699999809265137, 0.0, 0.0, 0.0, 0.0, 0.0, 0.0, 0.0, 0.0, 0.0, 0.0, 0.0, 0.0, 0.0, 0.0, 0.0, 0.0, 0.0, 3, 35.0, 0.015, 0.015 
128660, -0.07870806753635406, 1.6157115697860718, 156.55543518066406, 11.079999923706055, 2.309999942779541, 0.0, 0.0, 0.0, 0.0, 0.0, 0.0, 0.0, 0.0, 0.0, 0.0, 0.0, 0.0, 0.0, 0.0, 0.0, 0.0, 0.0, 3, 35.0, 0.015, 0.015 
128662, 0.01589222252368927, 1.6978181600570679, 156.71282958984375, 10.920000076293945, 1.840000033378601, 0.0, 0.0, 0.0, 0.0, 0.0, 0.0, 0.0, 0.0, 0.0, 0.0, 0.0, 0.0, 0.0, 0.0, 0.0, 0.0, 0.0, 3, 35.0, 0.015, 0.015 
128664, 0.11506127566099167, 1.8794629573822021, 156.87399291992188, 10.75, 1.340000033378601, 0.0, 0.0, 0.0, 0.0, 0.0, 0.0, 0.0, 0.0, 0.0, 0.0, 0.0, 0.0, 0.0, 0.0, 0.0, 0.0, 0.0, 3, 35.0, 0.015, 0.015 
128666, 0.22688521444797516, 1.6814736127853394, 157.0097198486328, 10.510000228881836, 0.5299999713897705, 0.0, 0.0, 0.0, 0.0, 0.0, 0.0, 0.0, 0.0, 0.0, 0.0, 0.0, 0.0, 0.0, 0.0, 0.0, 0.0, 0.0, 3, 35.0, 0.015, 0.015 
128669, 0.42745542526245117, 1.7384451627731323, 157.18482971191406, 10.350000381469727, 0.019999999552965164, 0.0, 0.0, 0.0, 0.0, 0.0, 0.0, 0.0, 0.0, 0.0, 0.0, 0.0, 0.0, 0.0, 0.0, 0.0, 0.0, 0.0, 3, 35.0, 0.015, 0.015 
128671, 0.5481773614883423, 1.6143925189971924, 157.31570434570312, 10.1899995803833, -0.5, 0.0, 0.0, 0.0, 0.0, 0.0, 0.0, 0.0, 0.0, 0.0, 0.0, 0.0, 0.0, 0.0, 0.0, 0.0, 0.0, 0.0, 3, 35.0, 0.015, 0.015 
128673, 0.6431202292442322, 1.4104145765304565, 157.40859985351562, 10.020000457763672, -1.0, 0.0, 0.0, 0.0, 0.0, 0.0, 0.0, 0.0, 0.0, 0.0, 0.0, 0.0, 0.0, 0.0, 0.0, 0.0, 0.0, 0.0, 3, 35.0, 0.015, 0.015 
128675, 0.7379268407821655, 1.3800097703933716, 157.55860900878906, 9.859999656677246, -1.440000057220459, 0.0, 0.0, 0.0, 0.0, 0.0, 0.0, 0.0, 0.0, 0.0, 0.0, 0.0, 0.0, 0.0, 0.0, 0.0, 0.0, 0.0, 3, 35.0, 0.015, 0.015 
128678, 0.805167019367218, 0.9943884015083313, 157.70257568359375, 9.619999885559082, -2.049999952316284, 0.0, 0.0, 0.0, 0.0, 0.0, 0.0, 0.0, 0.0, 0.0, 0.0, 0.0, 0.0, 0.0, 0.0, 0.0, 0.0, 0.0, 3, 35.0, 0.015, 0.015 
128680, 0.7701610922813416, 0.8643175363540649, 157.876953125, 9.460000038146973, -2.390000104904175, 0.0, 0.0, 0.0, 0.0, 0.0, 0.0, 0.0, 0.0, 0.0, 0.0, 0.0, 0.0, 0.0, 0.0, 0.0, 0.0, 0.0, 3, 35.0, 0.015, 0.015 
128682, 0.7057605385780334, 0.884759783744812, 158.10142517089844, 9.300000190734863, -2.6700000762939453, 0.0, 0.0, 0.0, 0.0, 0.0, 0.0, 0.0, 0.0, 0.0, 0.0, 0.0, 0.0, 0.0, 0.0, 0.0, 0.0, 0.0, 3, 35.0, 0.015, 0.015 
128684, 0.6818483471870422, 0.5938839316368103, 158.3369140625, 9.130000114440918, -2.930000066757202, 0.0, 0.0, 0.0, 0.0, 0.0, 0.0, 0.0, 0.0, 0.0, 0.0, 0.0, 0.0, 0.0, 0.0, 0.0, 0.0, 0.0, 3, 35.0, 0.015, 0.015 
128686, 0.799611508846283, 0.5327985882759094, 158.48312377929688, 8.890000343322754, -3.2300000190734863, 0.0, 0.0, 0.0, 0.0, 0.0, 0.0, 0.0, 0.0, 0.0, 0.0, 0.0, 0.0, 0.0, 0.0, 0.0, 0.0, 0.0, 3, 35.0, 0.015, 0.015 
128689, 1.1417691707611084, 0.3086298108100891, 158.50619506835938, 8.729999542236328, -3.390000104904175, 0.0, 0.0, 0.0, 0.0, 0.0, 0.0, 0.0, 0.0, 0.0, 0.0, 0.0, 0.0, 0.0, 0.0, 0.0, 0.0, 0.0, 3, 35.0, 0.015, 0.015 
128691, 1.3413689136505127, 0.15277089178562164, 158.41940307617188, 8.569999694824219, -3.5, 0.0, 0.0, 0.0, 0.0, 0.0, 0.0, 0.0, 0.0, 0.0, 0.0, 0.0, 0.0, 0.0, 0.0, 0.0, 0.0, 0.0, 3, 35.0, 0.015, 0.015 
128693, 1.3588390350341797, 0.03331158310174942, 158.64715576171875, 8.399999618530273, -3.569999933242798, 0.0, 0.0, 0.0, 0.0, 0.0, 0.0, 0.0, 0.0, 0.0, 0.0, 0.0, 0.0, 0.0, 0.0, 0.0, 0.0, 0.0, 3, 35.0, 0.015, 0.015 
128695, 1.2414283752441406, -0.07259167730808258, 158.86373901367188, 8.15999984741211, -3.5799999237060547, 0.0, 0.0, 0.0, 0.0, 0.0, 0.0, 0.0, 0.0, 0.0, 0.0, 0.0, 0.0, 0.0, 0.0, 0.0, 0.0, 0.0, 3, 35.0, 0.015, 0.015 
128698, 1.0596569776535034, -0.1601990908384323, 159.04405212402344, 8.0, -3.5799999237060547, 0.0, 0.0, 0.0, 0.0, 0.0, 0.0, 0.0, 0.0, 0.0, 0.0, 0.0, 0.0, 0.0, 0.0, 0.0, 0.0, 0.0, 3, 35.0, 0.015, 0.015 
128700, 1.0773158073425293, -0.33839893341064453, 159.30349731445312, 7.840000152587891, -3.549999952316284, 0.0, 0.0, 0.0, 0.0, 0.0, 0.0, 0.0, 0.0, 0.0, 0.0, 0.0, 0.0, 0.0, 0.0, 0.0, 0.0, 0.0, 3, 35.0, 0.015, 0.015 
128702, 1.170920491218567, -0.46161025762557983, 159.49644470214844, 7.670000076293945, -3.4800000190734863, 0.0, 0.0, 0.0, 0.0, 0.0, 0.0, 0.0, 0.0, 0.0, 0.0, 0.0, 0.0, 0.0, 0.0, 0.0, 0.0, 0.0, 3, 35.0, 0.015, 0.015 
128704, 1.227486491203308, -0.5266277194023132, 159.4078826904297, 7.510000228881836, -3.359999895095825, 0.0, 0.0, 0.0, 0.0, 0.0, 0.0, 0.0, 0.0, 0.0, 0.0, 0.0, 0.0, 0.0, 0.0, 0.0, 0.0, 0.0, 3, 35.0, 0.015, 0.015 
128706, 1.1873981952667236, -0.6397084593772888, 159.36801147460938, 7.269999980926514, -3.130000114440918, 0.0, 0.0, 0.0, 0.0, 0.0, 0.0, 0.0, 0.0, 0.0, 0.0, 0.0, 0.0, 0.0, 0.0, 0.0, 0.0, 0.0, 3, 35.0, 0.015, 0.015 
128709, 1.0724118947982788, -0.75064617395401, 159.77171325683594, 7.110000133514404, -2.940000057220459, 0.0, 0.0, 0.0, 0.0, 0.0, 0.0, 0.0, 0.0, 0.0, 0.0, 0.0, 0.0, 0.0, 0.0, 0.0, 0.0, 0.0, 3, 35.0, 0.015, 0.015 
128711, 1.0109498500823975, -0.7972078323364258, 159.79019165039062, 6.949999809265137, -2.7200000286102295, 0.0, 0.0, 0.0, 0.0, 0.0, 0.0, 0.0, 0.0, 0.0, 0.0, 0.0, 0.0, 0.0, 0.0, 0.0, 0.0, 0.0, 3, 35.0, 0.015, 0.015 
128713, 0.9636404514312744, -0.8225716948509216, 159.89710998535156, 6.78000020980835, -2.490000009536743, 0.0, 0.0, 0.0, 0.0, 0.0, 0.0, 0.0, 0.0, 0.0, 0.0, 0.0, 0.0, 0.0, 0.0, 0.0, 0.0, 0.0, 3, 35.0, 0.015, 0.015 
128716, 0.8490837216377258, -0.9390660524368286, 160.10385131835938, 6.539999961853027, -2.119999885559082, 0.0, 0.0, 0.0, 0.0, 0.0, 0.0, 0.0, 0.0, 0.0, 0.0, 0.0, 0.0, 0.0, 0.0, 0.0, 0.0, 0.0, 3, 35.0, 0.015, 0.015 
128718, 0.7894517183303833, -0.9302546977996826, 160.2493896484375, 6.380000114440918, -1.840000033378601, 0.0, 0.0, 0.0, 0.0, 0.0, 0.0, 0.0, 0.0, 0.0, 0.0, 0.0, 0.0, 0.0, 0.0, 0.0, 0.0, 0.0, 3, 35.0, 0.015, 0.015 
128720, 0.7573254108428955, -0.9535719752311707, 160.39971923828125, 6.21999979019165, -1.559999942779541, 0.0, 0.0, 0.0, 0.0, 0.0, 0.0, 0.0, 0.0, 0.0, 0.0, 0.0, 0.0, 0.0, 0.0, 0.0, 0.0, 0.0, 3, 35.0, 0.015, 0.015 
128722, 0.7543246150016785, -0.9993253350257874, 160.4454803466797, 6.059999942779541, -1.2799999713897705, 0.0, 0.0, 0.0, 0.0, 0.0, 0.0, 0.0, 0.0, 0.0, 0.0, 0.0, 0.0, 0.0, 0.0, 0.0, 0.0, 0.0, 3, 35.0, 0.015, 0.015 
128724, 0.7533151507377625, -0.993003249168396, 160.58738708496094, 5.809999942779541, -0.8299999833106995, 0.0, 0.0, 0.0, 0.0, 0.0, 0.0, 0.0, 0.0, 0.0, 0.0, 0.0, 0.0, 0.0, 0.0, 0.0, 0.0, 0.0, 3, 35.0, 0.015, 0.015 
128726, 0.7153457999229431, -0.9717065691947937, 160.7007598876953, 5.650000095367432, -0.5400000214576721, 0.0, 0.0, 0.0, 0.0, 0.0, 0.0, 0.0, 0.0, 0.0, 0.0, 0.0, 0.0, 0.0, 0.0, 0.0, 0.0, 0.0, 3, 35.0, 0.015, 0.015 
128729, 0.6069806814193726, -0.9730835556983948, 160.83547973632812, 5.489999771118164, -0.23999999463558197, 0.0, 0.0, 0.0, 0.0, 0.0, 0.0, 0.0, 0.0, 0.0, 0.0, 0.0, 0.0, 0.0, 0.0, 0.0, 0.0, 0.0, 3, 35.0, 0.015, 0.015 
128731, 0.5548257827758789, -0.9536412358283997, 161.0189971923828, 5.329999923706055, 0.05000000074505806, 0.0, 0.0, 0.0, 0.0, 0.0, 0.0, 0.0, 0.0, 0.0, 0.0, 0.0, 0.0, 0.0, 0.0, 0.0, 0.0, 0.0, 3, 35.0, 0.015, 0.015 
128733, 0.5633978247642517, -0.9121508002281189, 161.112548828125, 5.159999847412109, 0.3400000035762787, 0.0, 0.0, 0.0, 0.0, 0.0, 0.0, 0.0, 0.0, 0.0, 0.0, 0.0, 0.0, 0.0, 0.0, 0.0, 0.0, 0.0, 3, 35.0, 0.015, 0.015 
128735, 0.6135727167129517, -0.8499055504798889, 161.1656036376953, 4.920000076293945, 0.75, 0.0, 0.0, 0.0, 0.0, 0.0, 0.0, 0.0, 0.0, 0.0, 0.0, 0.0, 0.0, 0.0, 0.0, 0.0, 0.0, 0.0, 3, 35.0, 0.015, 0.015 
128738, 0.7220170497894287, -0.7913661599159241, 161.3037567138672, 4.760000228881836, 1.0, 0.0, 0.0, 0.0, 0.0, 0.0, 0.0, 0.0, 0.0, 0.0, 0.0, 0.0, 0.0, 0.0, 0.0, 0.0, 0.0, 0.0, 3, 35.0, 0.015, 0.015 
128740, 0.7678391933441162, -0.7424708604812622, 161.37066650390625, 4.599999904632568, 1.25, 0.0, 0.0, 0.0, 0.0, 0.0, 0.0, 0.0, 0.0, 0.0, 0.0, 0.0, 0.0, 0.0, 0.0, 0.0, 0.0, 0.0, 3, 35.0, 0.015, 0.015 
128742, 0.8136144876480103, -0.6782479286193848, 161.45594787597656, 4.440000057220459, 1.4800000190734863, 0.0, 0.0, 0.0, 0.0, 0.0, 0.0, 0.0, 0.0, 0.0, 0.0, 0.0, 0.0, 0.0, 0.0, 0.0, 0.0, 0.0, 3, 35.0, 0.015, 0.015 
128745, 0.913681149482727, -0.5927206873893738, 161.60369873046875, 4.190000057220459, 1.7999999523162842, 0.0, 0.0, 0.0, 0.0, 0.0, 0.0, 0.0, 0.0, 0.0, 0.0, 0.0, 0.0, 0.0, 0.0, 0.0, 0.0, 0.0, 3, 35.0, 0.015, 0.015 
128746, 0.9775373339653015, -0.5559431314468384, 161.6194305419922, 4.03000020980835, 1.9800000190734863, 0.0, 0.0, 0.0, 0.0, 0.0, 0.0, 0.0, 0.0, 0.0, 0.0, 0.0, 0.0, 0.0, 0.0, 0.0, 0.0, 0.0, 3, 35.0, 0.015, 0.015 
128749, 1.1277621984481812, -0.5152187943458557, 161.75363159179688, 3.869999885559082, 2.1500000953674316, 0.0, 0.0, 0.0, 0.0, 0.0, 0.0, 0.0, 0.0, 0.0, 0.0, 0.0, 0.0, 0.0, 0.0, 0.0, 0.0, 0.0, 3, 35.0, 0.015, 0.015 
128754, 1.5093915462493896, -0.31640297174453735, 161.93035888671875, 3.4600000381469727, 2.509999990463257, 0.0, 0.0, 0.0, 0.0, 0.0, 0.0, 0.0, 0.0, 0.0, 0.0, 0.0, 0.0, 0.0, 0.0, 0.0, 0.0, 0.0, 3, 35.0, 0.015, 0.015 
128755, 1.5621145963668823, -0.3131692111492157, 161.96693420410156, 3.380000114440918, 2.559999942779541, 0.0, 0.0, 0.0, 0.0, 0.0, 0.0, 0.0, 0.0, 0.0, 0.0, 0.0, 0.0, 0.0, 0.0, 0.0, 0.0, 0.0, 3, 35.0, 0.015, 0.015 
128755, 1.5621145963668823, -0.3131692111492157, 161.96693420410156, 3.299999952316284, 2.609999895095825, 0.0, 0.0, 0.0, 0.0, 0.0, 0.0, 0.0, 0.0, 0.0, 0.0, 0.0, 0.0, 0.0, 0.0, 0.0, 0.0, 0.0, 3, 35.0, 0.015, 0.015 
128758, 1.836740255355835, -0.22678379714488983, 162.05270385742188, 3.140000104904175, 2.7100000381469727, 0.0, 0.0, 0.0, 0.0, 0.0, 0.0, 0.0, 0.0, 0.0, 0.0, 0.0, 0.0, 0.0, 0.0, 0.0, 0.0, 0.0, 3, 35.0, 0.015, 0.015 
128765, 2.3462398052215576, -0.0433892086148262, 162.3125457763672, 2.569999933242798, 2.869999885559082, 0.0, 0.0, 0.0, 0.0, 0.0, 0.0, 0.0, 0.0, 0.0, 0.0, 0.0, 0.0, 0.0, 0.0, 0.0, 0.0, 0.0, 3, 35.0, 0.015, 0.015 
128765, 2.3462398052215576, -0.0433892086148262, 162.3125457763672, 2.490000009536743, 2.880000114440918, 0.0, 0.0, 0.0, 0.0, 0.0, 0.0, 0.0, 0.0, 0.0, 0.0, 0.0, 0.0, 0.0, 0.0, 0.0, 0.0, 0.0, 3, 35.0, 0.015, 0.015 
128766, 2.462437152862549, -0.01178988628089428, 162.3828887939453, 2.490000009536743, 2.880000114440918, 0.0, 0.0, 0.0, 0.0, 0.0, 0.0, 0.0, 0.0, 0.0, 0.0, 0.0, 0.0, 0.0, 0.0, 0.0, 0.0, 0.0, 3, 35.0, 0.015, 0.015 
128767, 2.5196540355682373, -0.010148127563297749, 162.41738891601562, 2.4100000858306885, 2.880000114440918, 0.0, 0.0, 0.0, 0.0, 0.0, 0.0, 0.0, 0.0, 0.0, 0.0, 0.0, 0.0, 0.0, 0.0, 0.0, 0.0, 0.0, 3, 35.0, 0.015, 0.015 
128769, 2.7082653045654297, 0.06461429595947266, 162.48292541503906, 2.25, 2.880000114440918, 0.0, 0.0, 0.0, 0.0, 0.0, 0.0, 0.0, 0.0, 0.0, 0.0, 0.0, 0.0, 0.0, 0.0, 0.0, 0.0, 0.0, 3, 35.0, 0.015, 0.015 
128771, 2.891709804534912, 0.08629264682531357, 162.5272979736328, 2.0899999141693115, 2.880000114440918, 0.0, 0.0, 0.0, 0.0, 0.0, 0.0, 0.0, 0.0, 0.0, 0.0, 0.0, 0.0, 0.0, 0.0, 0.0, 0.0, 0.0, 3, 35.0, 0.015, 0.015 
128773, 3.0563085079193115, 0.1283004730939865, 162.60902404785156, 1.9199999570846558, 2.880000114440918, 0.0, 0.0, 0.0, 0.0, 0.0, 0.0, 0.0, 0.0, 0.0, 0.0, 0.0, 0.0, 0.0, 0.0, 0.0, 0.0, 0.0, 3, 35.0, 0.015, 0.015 
128775, 3.202535629272461, 0.23012006282806396, 162.68896484375, 1.6799999475479126, 2.8299999237060547, 0.0, 0.0, 0.0, 0.0, 0.0, 0.0, 0.0, 0.0, 0.0, 0.0, 0.0, 0.0, 0.0, 0.0, 0.0, 0.0, 0.0, 3, 35.0, 0.015, 0.015 
128778, 3.417768716812134, 0.3088429570198059, 162.82244873046875, 1.5199999809265137, 2.75, 0.0, 0.0, 0.0, 0.0, 0.0, 0.0, 0.0, 0.0, 0.0, 0.0, 0.0, 0.0, 0.0, 0.0, 0.0, 0.0, 0.0, 3, 35.0, 0.015, 0.015 
128780, 3.5574495792388916, 0.34858036041259766, 162.89675903320312, 1.3600000143051147, 2.6600000858306885, 0.0, 0.0, 0.0, 0.0, 0.0, 0.0, 0.0, 0.0, 0.0, 0.0, 0.0, 0.0, 0.0, 0.0, 0.0, 0.0, 0.0, 3, 35.0, 0.015, 0.015 
128782, 3.6967434883117676, 0.3847229778766632, 162.96092224121094, 1.190000057220459, 2.559999942779541, 0.0, 0.0, 0.0, 0.0, 0.0, 0.0, 0.0, 0.0, 0.0, 0.0, 0.0, 0.0, 0.0, 0.0, 0.0, 0.0, 0.0, 3, 35.0, 0.015, 0.015 
128784, 3.8209340572357178, 0.43122923374176025, 163.04379272460938, 1.0299999713897705, 2.4600000381469727, 0.0, 0.0, 0.0, 0.0, 0.0, 0.0, 0.0, 0.0, 0.0, 0.0, 0.0, 0.0, 0.0, 0.0, 0.0, 0.0, 0.0, 3, 35.0, 0.015, 0.015 
128787, 3.9621198177337646, 0.4898325502872467, 163.14918518066406, 0.7900000214576721, 2.2699999809265137, 0.0, 0.0, 0.0, 0.0, 0.0, 0.0, 0.0, 0.0, 0.0, 0.0, 0.0, 0.0, 0.0, 0.0, 0.0, 0.0, 0.0, 3, 35.0, 0.015, 0.015 
128789, 4.053675174713135, 0.5299933552742004, 163.20948791503906, 0.6299999952316284, 2.130000114440918, 0.0, 0.0, 0.0, 0.0, 0.0, 0.0, 0.0, 0.0, 0.0, 0.0, 0.0, 0.0, 0.0, 0.0, 0.0, 0.0, 0.0, 3, 35.0, 0.015, 0.015 
128791, 4.137260437011719, 0.551731288433075, 163.2936553955078, 0.46000000834465027, 1.9700000286102295, 0.0, 0.0, 0.0, 0.0, 0.0, 0.0, 0.0, 0.0, 0.0, 0.0, 0.0, 0.0, 0.0, 0.0, 0.0, 0.0, 0.0, 3, 35.0, 0.015, 0.015 
128794, 4.2617058753967285, 0.5864918828010559, 163.3990478515625, 0.2199999988079071, 1.7200000286102295, 0.0, 0.0, 0.0, 0.0, 0.0, 0.0, 0.0, 0.0, 0.0, 0.0, 0.0, 0.0, 0.0, 0.0, 0.0, 0.0, 0.0, 3, 35.0, 0.015, 0.015 
128795, 4.2832512855529785, 0.5980988144874573, 163.42559814453125, 0.14000000059604645, 1.6399999856948853, 0.0, 0.0, 0.0, 0.0, 0.0, 0.0, 0.0, 0.0, 0.0, 0.0, 0.0, 0.0, 0.0, 0.0, 0.0, 0.0, 0.0, 3, 35.0, 0.015, 0.015 
128798, 4.338672161102295, 0.6198942065238953, 163.59957885742188, -0.18000000715255737, 1.2799999713897705, 0.0, 0.0, 0.0, 0.0, 0.0, 0.0, 0.0, 0.0, 0.0, 0.0, 0.0, 0.0, 0.0, 0.0, 0.0, 0.0, 0.0, 3, 35.0, 0.015, 0.015 
128800, 4.347390174865723, 0.6209998726844788, 163.64878845214844, -0.25999999046325684, 1.1799999475479126, 0.0, 0.0, 0.0, 0.0, 0.0, 0.0, 0.0, 0.0, 0.0, 0.0, 0.0, 0.0, 0.0, 0.0, 0.0, 0.0, 0.0, 3, 35.0, 0.015, 0.015 
128802, 4.3583197593688965, 0.6411585211753845, 163.73223876953125, -0.41999998688697815, 1.0, 0.0, 0.0, 0.0, 0.0, 0.0, 0.0, 0.0, 0.0, 0.0, 0.0, 0.0, 0.0, 0.0, 0.0, 0.0, 0.0, 0.0, 3, 35.0, 0.015, 0.015 
128804, 4.35032844543457, 0.6274985671043396, 163.81890869140625, -0.6600000262260437, 0.7200000286102295, 0.0, 0.0, 0.0, 0.0, 0.0, 0.0, 0.0, 0.0, 0.0, 0.0, 0.0, 0.0, 0.0, 0.0, 0.0, 0.0, 0.0, 3, 35.0, 0.015, 0.015 
128806, 4.311853885650635, 0.6375417709350586, 163.91513061523438, -0.8299999833106995, 0.5199999809265137, 0.0, 0.0, 0.0, 0.0, 0.0, 0.0, 0.0, 0.0, 0.0, 0.0, 0.0, 0.0, 0.0, 0.0, 0.0, 0.0, 0.0, 3, 35.0, 0.015, 0.015 
128809, 4.2410359382629395, 0.5907899737358093, 163.9961700439453, -0.9900000095367432, 0.33000001311302185, 0.0, 0.0, 0.0, 0.0, 0.0, 0.0, 0.0, 0.0, 0.0, 0.0, 0.0, 0.0, 0.0, 0.0, 0.0, 0.0, 0.0, 3, 35.0, 0.015, 0.015 
128812, 4.074638366699219, 0.5654893517494202, 164.16200256347656, -1.2300000190734863, 0.07000000029802322, 0.0, 0.0, 0.0, 0.0, 0.0, 0.0, 0.0, 0.0, 0.0, 0.0, 0.0, 0.0, 0.0, 0.0, 0.0, 0.0, 0.0, 3, 35.0, 0.015, 0.015 
128813, 4.041156768798828, 0.5336657762527466, 164.20001220703125, -1.309999942779541, -0.009999999776482582, 0.0, 0.0, 0.0, 0.0, 0.0, 0.0, 0.0, 0.0, 0.0, 0.0, 0.0, 0.0, 0.0, 0.0, 0.0, 0.0, 0.0, 3, 35.0, 0.015, 0.015 
128817, 3.7873289585113525, 0.42262357473373413, 164.34315490722656, -1.6299999952316284, -0.33000001311302185, 0.0, 0.0, 0.0, 0.0, 0.0, 0.0, 0.0, 0.0, 0.0, 0.0, 0.0, 0.0, 0.0, 0.0, 0.0, 0.0, 0.0, 3, 35.0, 0.015, 0.015 
128817, 3.7873289585113525, 0.42262357473373413, 164.34315490722656, -1.7200000286102295, -0.4000000059604645, 0.0, 0.0, 0.0, 0.0, 0.0, 0.0, 0.0, 0.0, 0.0, 0.0, 0.0, 0.0, 0.0, 0.0, 0.0, 0.0, 0.0, 3, 35.0, 0.015, 0.015 
128820, 3.532158851623535, 0.3171364665031433, 164.5286407470703, -1.8799999952316284, -0.5199999809265137, 0.0, 0.0, 0.0, 0.0, 0.0, 0.0, 0.0, 0.0, 0.0, 0.0, 0.0, 0.0, 0.0, 0.0, 0.0, 0.0, 0.0, 3, 35.0, 0.015, 0.015 
128822, 3.3709022998809814, 0.30915722250938416, 164.61392211914062, -2.119999885559082, -0.6800000071525574, 0.0, 0.0, 0.0, 0.0, 0.0, 0.0, 0.0, 0.0, 0.0, 0.0, 0.0, 0.0, 0.0, 0.0, 0.0, 0.0, 0.0, 3, 35.0, 0.015, 0.015 
128824, 3.214693307876587, 0.23524105548858643, 164.77023315429688, -2.200000047683716, -0.7300000190734863, 0.0, 0.0, 0.0, 0.0, 0.0, 0.0, 0.0, 0.0, 0.0, 0.0, 0.0, 0.0, 0.0, 0.0, 0.0, 0.0, 0.0, 3, 35.0, 0.015, 0.015 
128826, 3.05783748626709, 0.1506640464067459, 164.84669494628906, -2.440000057220459, -0.8399999737739563, 0.0, 0.0, 0.0, 0.0, 0.0, 0.0, 0.0, 0.0, 0.0, 0.0, 0.0, 0.0, 0.0, 0.0, 0.0, 0.0, 0.0, 3, 35.0, 0.015, 0.015 
128828, 2.8854916095733643, 0.05184517055749893, 164.9339141845703, -2.609999895095825, -0.8899999856948853, 0.0, 0.0, 0.0, 0.0, 0.0, 0.0, 0.0, 0.0, 0.0, 0.0, 0.0, 0.0, 0.0, 0.0, 0.0, 0.0, 0.0, 3, 35.0, 0.015, 0.015 
128831, 2.593752145767212, -0.02032303623855114, 165.15687561035156, -2.7699999809265137, -0.8899999856948853, 0.0, 0.0, 0.0, 0.0, 0.0, 0.0, 0.0, 0.0, 0.0, 0.0, 0.0, 0.0, 0.0, 0.0, 0.0, 0.0, 0.0, 3, 35.0, 0.015, 0.015 
128833, 2.4285545349121094, -0.1150926724076271, 165.25830078125, -2.930000066757202, -0.8899999856948853, 0.0, 0.0, 0.0, 0.0, 0.0, 0.0, 0.0, 0.0, 0.0, 0.0, 0.0, 0.0, 0.0, 0.0, 0.0, 0.0, 0.0, 3, 35.0, 0.015, 0.015 
128835, 2.291896104812622, -0.2370959222316742, 165.42347717285156, -3.1700000762939453, -0.8600000143051147, 0.0, 0.0, 0.0, 0.0, 0.0, 0.0, 0.0, 0.0, 0.0, 0.0, 0.0, 0.0, 0.0, 0.0, 0.0, 0.0, 0.0, 3, 35.0, 0.015, 0.015 
128838, 2.127067804336548, -0.3166888356208801, 165.57000732421875, -3.3399999141693115, -0.800000011920929, 0.0, 0.0, 0.0, 0.0, 0.0, 0.0, 0.0, 0.0, 0.0, 0.0, 0.0, 0.0, 0.0, 0.0, 0.0, 0.0, 0.0, 3, 35.0, 0.015, 0.015 
128840, 2.0148115158081055, -0.4573896527290344, 165.69468688964844, -3.5, -0.7099999785423279, 0.0, 0.0, 0.0, 0.0, 0.0, 0.0, 0.0, 0.0, 0.0, 0.0, 0.0, 0.0, 0.0, 0.0, 0.0, 0.0, 0.0, 3, 35.0, 0.015, 0.015 
128843, 1.836539626121521, -0.49932795763015747, 165.94715881347656, -3.740000009536743, -0.5199999809265137, 0.0, 0.0, 0.0, 0.0, 0.0, 0.0, 0.0, 0.0, 0.0, 0.0, 0.0, 0.0, 0.0, 0.0, 0.0, 0.0, 0.0, 3, 35.0, 0.015, 0.015 
128844, 1.8129711151123047, -0.5259648561477661, 165.99671936035156, -3.9000000953674316, -0.3700000047683716, 0.0, 0.0, 0.0, 0.0, 0.0, 0.0, 0.0, 0.0, 0.0, 0.0, 0.0, 0.0, 0.0, 0.0, 0.0, 0.0, 0.0, 3, 35.0, 0.015, 0.015 
128846, 1.7665472030639648, -0.579026997089386, 166.09783935546875, -4.059999942779541, -0.20999999344348907, 0.0, 0.0, 0.0, 0.0, 0.0, 0.0, 0.0, 0.0, 0.0, 0.0, 0.0, 0.0, 0.0, 0.0, 0.0, 0.0, 0.0, 3, 35.0, 0.015, 0.015 
128848, 1.753834843635559, -0.5537756085395813, 166.23013305664062, -4.230000019073486, -0.03999999910593033, 0.0, 0.0, 0.0, 0.0, 0.0, 0.0, 0.0, 0.0, 0.0, 0.0, 0.0, 0.0, 0.0, 0.0, 0.0, 0.0, 0.0, 3, 35.0, 0.015, 0.015 
128851, 1.7965177297592163, -0.6133734583854675, 166.42835998535156, -4.389999866485596, 0.12999999523162842, 0.0, 0.0, 0.0, 0.0, 0.0, 0.0, 0.0, 0.0, 0.0, 0.0, 0.0, 0.0, 0.0, 0.0, 0.0, 0.0, 0.0, 3, 35.0, 0.015, 0.015 
128853, 1.8211218118667603, -0.5971781015396118, 166.5609130859375, -4.550000190734863, 0.3199999928474426, 0.0, 0.0, 0.0, 0.0, 0.0, 0.0, 0.0, 0.0, 0.0, 0.0, 0.0, 0.0, 0.0, 0.0, 0.0, 0.0, 0.0, 3, 35.0, 0.015, 0.015 
128855, 1.852522611618042, -0.6622244715690613, 166.73348999023438, -4.710000038146973, 0.5, 0.0, 0.0, 0.0, 0.0, 0.0, 0.0, 0.0, 0.0, 0.0, 0.0, 0.0, 0.0, 0.0, 0.0, 0.0, 0.0, 0.0, 3, 35.0, 0.015, 0.015 
128857, 1.892625331878662, -0.6213873028755188, 166.83782958984375, -4.960000038146973, 0.7900000214576721, 0.0, 0.0, 0.0, 0.0, 0.0, 0.0, 0.0, 0.0, 0.0, 0.0, 0.0, 0.0, 0.0, 0.0, 0.0, 0.0, 0.0, 3, 35.0, 0.015, 0.015 
128860, 2.0187554359436035, -0.6239976286888123, 167.02439880371094, -5.119999885559082, 0.9800000190734863, 0.0, 0.0, 0.0, 0.0, 0.0, 0.0, 0.0, 0.0, 0.0, 0.0, 0.0, 0.0, 0.0, 0.0, 0.0, 0.0, 0.0, 3, 35.0, 0.015, 0.015 
128862, 2.152803897857666, -0.6167129278182983, 167.13351440429688, -5.28000020980835, 1.1699999570846558, 0.0, 0.0, 0.0, 0.0, 0.0, 0.0, 0.0, 0.0, 0.0, 0.0, 0.0, 0.0, 0.0, 0.0, 0.0, 0.0, 0.0, 3, 35.0, 0.015, 0.015 
128864, 2.307343006134033, -0.5805400013923645, 167.2752227783203, -5.440000057220459, 1.350000023841858, 0.0, 0.0, 0.0, 0.0, 0.0, 0.0, 0.0, 0.0, 0.0, 0.0, 0.0, 0.0, 0.0, 0.0, 0.0, 0.0, 0.0, 3, 35.0, 0.015, 0.015 
128866, 2.4599790573120117, -0.5582770109176636, 167.37832641601562, -5.690000057220459, 1.6100000143051147, 0.0, 0.0, 0.0, 0.0, 0.0, 0.0, 0.0, 0.0, 0.0, 0.0, 0.0, 0.0, 0.0, 0.0, 0.0, 0.0, 0.0, 3, 35.0, 0.015, 0.015 
128868, 2.6081202030181885, -0.5412362217903137, 167.4940185546875, -5.849999904632568, 1.7799999713897705, 0.0, 0.0, 0.0, 0.0, 0.0, 0.0, 0.0, 0.0, 0.0, 0.0, 0.0, 0.0, 0.0, 0.0, 0.0, 0.0, 0.0, 3, 35.0, 0.015, 0.015 
128871, 2.859015941619873, -0.4642859101295471, 167.70777893066406, -6.010000228881836, 1.9299999475479126, 0.0, 0.0, 0.0, 0.0, 0.0, 0.0, 0.0, 0.0, 0.0, 0.0, 0.0, 0.0, 0.0, 0.0, 0.0, 0.0, 0.0, 3, 35.0, 0.015, 0.015 
128873, 3.0317254066467285, -0.5042327046394348, 167.78536987304688, -6.170000076293945, 2.049999952316284, 0.0, 0.0, 0.0, 0.0, 0.0, 0.0, 0.0, 0.0, 0.0, 0.0, 0.0, 0.0, 0.0, 0.0, 0.0, 0.0, 0.0, 3, 35.0, 0.015, 0.015 
128875, 3.1960721015930176, -0.27794840931892395, 167.9526824951172, -6.329999923706055, 2.2100000381469727, 0.0, 0.0, 0.0, 0.0, 0.0, 0.0, 0.0, 0.0, 0.0, 0.0, 0.0, 0.0, 0.0, 0.0, 0.0, 0.0, 0.0, 3, 35.0, 0.015, 0.015 
128877, 3.354982852935791, -0.1649312824010849, 168.0696258544922, -6.579999923706055, 2.359999895095825, 0.0, 0.0, 0.0, 0.0, 0.0, 0.0, 0.0, 0.0, 0.0, 0.0, 0.0, 0.0, 0.0, 0.0, 0.0, 0.0, 0.0, 3, 35.0, 0.015, 0.015 
128879, 3.460132122039795, -0.1754171997308731, 168.1514434814453, -6.739999771118164, 2.4200000762939453, 0.0, 0.0, 0.0, 0.0, 0.0, 0.0, 0.0, 0.0, 0.0, 0.0, 0.0, 0.0, 0.0, 0.0, 0.0, 0.0, 0.0, 3, 35.0, 0.015, 0.015 
128882, 3.555302143096924, -0.07412184774875641, 168.40203857421875, -6.900000095367432, 2.4700000286102295, 0.0, 0.0, 0.0, 0.0, 0.0, 0.0, 0.0, 0.0, 0.0, 0.0, 0.0, 0.0, 0.0, 0.0, 0.0, 0.0, 0.0, 3, 35.0, 0.015, 0.015 
128884, 3.569978952407837, -0.03244461119174957, 168.5069122314453, -7.059999942779541, 2.4800000190734863, 0.0, 0.0, 0.0, 0.0, 0.0, 0.0, 0.0, 0.0, 0.0, 0.0, 0.0, 0.0, 0.0, 0.0, 0.0, 0.0, 0.0, 3, 35.0, 0.015, 0.015 
128886, 3.5854971408843994, 0.12224795669317245, 168.6953125, -7.309999942779541, 2.4700000286102295, 0.0, 0.0, 0.0, 0.0, 0.0, 0.0, 0.0, 0.0, 0.0, 0.0, 0.0, 0.0, 0.0, 0.0, 0.0, 0.0, 0.0, 3, 35.0, 0.015, 0.015 
128888, 3.6275687217712402, 0.11789047718048096, 168.86083984375, -7.46999979019165, 2.440000057220459, 0.0, 0.0, 0.0, 0.0, 0.0, 0.0, 0.0, 0.0, 0.0, 0.0, 0.0, 0.0, 0.0, 0.0, 0.0, 0.0, 0.0, 3, 35.0, 0.015, 0.015 
128891, 3.697175979614258, 0.36027225852012634, 169.04779052734375, -7.630000114440918, 2.4100000858306885, 0.0, 0.0, 0.0, 0.0, 0.0, 0.0, 0.0, 0.0, 0.0, 0.0, 0.0, 0.0, 0.0, 0.0, 0.0, 0.0, 0.0, 3, 35.0, 0.015, 0.015 
128893, 3.674072027206421, 0.4057040214538574, 169.2443389892578, -7.789999961853027, 2.319999933242798, 0.0, 0.0, 0.0, 0.0, 0.0, 0.0, 0.0, 0.0, 0.0, 0.0, 0.0, 0.0, 0.0, 0.0, 0.0, 0.0, 0.0, 3, 35.0, 0.015, 0.015 
128895, 3.6041595935821533, 0.5021045804023743, 169.36996459960938, -7.949999809265137, 2.200000047683716, 0.0, 0.0, 0.0, 0.0, 0.0, 0.0, 0.0, 0.0, 0.0, 0.0, 0.0, 0.0, 0.0, 0.0, 0.0, 0.0, 0.0, 3, 35.0, 0.015, 0.015 
128898, 3.467477560043335, 0.6764744520187378, 169.64718627929688, -8.279999732971191, 1.899999976158142, 0.0, 0.0, 0.0, 0.0, 0.0, 0.0, 0.0, 0.0, 0.0, 0.0, 0.0, 0.0, 0.0, 0.0, 0.0, 0.0, 0.0, 3, 35.0, 0.015, 0.015 
128899, 3.392697811126709, 0.6461716294288635, 169.7767791748047, -8.359999656677246, 1.7999999523162842, 0.0, 0.0, 0.0, 0.0, 0.0, 0.0, 0.0, 0.0, 0.0, 0.0, 0.0, 0.0, 0.0, 0.0, 0.0, 0.0, 0.0, 3, 35.0, 0.015, 0.015 
128902, 3.194228172302246, 0.7435950636863708, 170.0067901611328, -8.520000457763672, 1.6100000143051147, 0.0, 0.0, 0.0, 0.0, 0.0, 0.0, 0.0, 0.0, 0.0, 0.0, 0.0, 0.0, 0.0, 0.0, 0.0, 0.0, 0.0, 3, 35.0, 0.015, 0.015 
128904, 2.997166633605957, 0.8170814514160156, 170.24505615234375, -8.680000305175781, 1.399999976158142, 0.0, 0.0, 0.0, 0.0, 0.0, 0.0, 0.0, 0.0, 0.0, 0.0, 0.0, 0.0, 0.0, 0.0, 0.0, 0.0, 0.0, 3, 35.0, 0.015, 0.015 
128905, 2.85257887840271, 0.8066205978393555, 170.38265991210938, -8.930000305175781, 1.0399999618530273, 0.0, 0.0, 0.0, 0.0, 0.0, 0.0, 0.0, 0.0, 0.0, 0.0, 0.0, 0.0, 0.0, 0.0, 0.0, 0.0, 0.0, 3, 35.0, 0.015, 0.015 
128908, 2.4803338050842285, 0.8941195607185364, 170.7698974609375, -9.09000015258789, 0.7900000214576721, 0.0, 0.0, 0.0, 0.0, 0.0, 0.0, 0.0, 0.0, 0.0, 0.0, 0.0, 0.0, 0.0, 0.0, 0.0, 0.0, 0.0, 3, 35.0, 0.015, 0.015 
128910, 2.3568763732910156, 0.9041072726249695, 170.92141723632812, -9.25, 0.5299999713897705, 0.0, 0.0, 0.0, 0.0, 0.0, 0.0, 0.0, 0.0, 0.0, 0.0, 0.0, 0.0, 0.0, 0.0, 0.0, 0.0, 0.0, 3, 35.0, 0.015, 0.015 
128913, 2.008817195892334, 0.9207007884979248, 171.2488555908203, -9.40999984741211, 0.25999999046325684, 0.0, 0.0, 0.0, 0.0, 0.0, 0.0, 0.0, 0.0, 0.0, 0.0, 0.0, 0.0, 0.0, 0.0, 0.0, 0.0, 0.0, 3, 35.0, 0.015, 0.015 
128915, 1.788094401359558, 0.9135155081748962, 171.53451538085938, -9.65999984741211, -0.15000000596046448, 0.0, 0.0, 0.0, 0.0, 0.0, 0.0, 0.0, 0.0, 0.0, 0.0, 0.0, 0.0, 0.0, 0.0, 0.0, 0.0, 0.0, 3, 35.0, 0.015, 0.015 
128917, 1.5643811225891113, 0.6738325953483582, 171.67208862304688, -9.819999694824219, -0.4099999964237213, 0.0, 0.0, 0.0, 0.0, 0.0, 0.0, 0.0, 0.0, 0.0, 0.0, 0.0, 0.0, 0.0, 0.0, 0.0, 0.0, 0.0, 3, 35.0, 0.015, 0.015 
128919, 1.3468018770217896, 0.6646242141723633, 171.91810607910156, -9.979999542236328, -0.6200000047683716, 0.0, 0.0, 0.0, 0.0, 0.0, 0.0, 0.0, 0.0, 0.0, 0.0, 0.0, 0.0, 0.0, 0.0, 0.0, 0.0, 0.0, 3, 35.0, 0.015, 0.015 
128922, 1.0387505292892456, 0.45121821761131287, 172.2486572265625, -10.140000343322754, -0.8199999928474426, 0.0, 0.0, 0.0, 0.0, 0.0, 0.0, 0.0, 0.0, 0.0, 0.0, 0.0, 0.0, 0.0, 0.0, 0.0, 0.0, 0.0, 3, 35.0, 0.015, 0.015 
128924, 0.7777965664863586, 0.19964002072811127, 172.35086059570312, -10.380000114440918, -1.0299999713897705, 0.0, 0.0, 0.0, 0.0, 0.0, 0.0, 0.0, 0.0, 0.0, 0.0, 0.0, 0.0, 0.0, 0.0, 0.0, 0.0, 0.0, 3, 35.0, 0.015, 0.015 
128926, 0.4875629246234894, 0.07116544991731644, 172.66835021972656, -10.550000190734863, -1.0800000429153442, 0.0, 0.0, 0.0, 0.0, 0.0, 0.0, 0.0, 0.0, 0.0, 0.0, 0.0, 0.0, 0.0, 0.0, 0.0, 0.0, 0.0, 3, 35.0, 0.015, 0.015 
128928, 0.2579973042011261, -0.07418300956487656, 173.0397186279297, -10.710000038146973, -1.0800000429153442, 0.0, 0.0, 0.0, 0.0, 0.0, 0.0, 0.0, 0.0, 0.0, 0.0, 0.0, 0.0, 0.0, 0.0, 0.0, 0.0, 0.0, 3, 35.0, 0.015, 0.015 
128930, 0.08050555735826492, -0.20219221711158752, 173.22509765625, -10.869999885559082, -1.059999942779541, 0.0, 0.0, 0.0, 0.0, 0.0, 0.0, 0.0, 0.0, 0.0, 0.0, 0.0, 0.0, 0.0, 0.0, 0.0, 0.0, 0.0, 3, 35.0, 0.015, 0.015 
128933, -0.12460488826036453, -0.3812788128852844, 173.47061157226562, -11.029999732971191, -1.0, 0.0, 0.0, 0.0, 0.0, 0.0, 0.0, 0.0, 0.0, 0.0, 0.0, 0.0, 0.0, 0.0, 0.0, 0.0, 0.0, 0.0, 3, 35.0, 0.015, 0.015 
128935, -0.26515746116638184, -0.508732795715332, 173.7219696044922, -11.279999732971191, -0.8500000238418579, 0.0, 0.0, 0.0, 0.0, 0.0, 0.0, 0.0, 0.0, 0.0, 0.0, 0.0, 0.0, 0.0, 0.0, 0.0, 0.0, 0.0, 3, 35.0, 0.015, 0.015 
128937, -0.38552165031433105, -0.6072584390640259, 173.9940948486328, -11.4399995803833, -0.699999988079071, 0.0, 0.0, 0.0, 0.0, 0.0, 0.0, 0.0, 0.0, 0.0, 0.0, 0.0, 0.0, 0.0, 0.0, 0.0, 0.0, 0.0, 3, 35.0, 0.015, 0.015 
128939, -0.47134244441986084, -0.6424343585968018, 174.25448608398438, -11.600000381469727, -0.5199999809265137, 0.0, 0.0, 0.0, 0.0, 0.0, 0.0, 0.0, 0.0, 0.0, 0.0, 0.0, 0.0, 0.0, 0.0, 0.0, 0.0, 0.0, 3, 35.0, 0.015, 0.015 
128941, -0.48170891404151917, -0.7183571457862854, 174.54452514648438, -11.760000228881836, -0.33000001311302185, 0.0, 0.0, 0.0, 0.0, 0.0, 0.0, 0.0, 0.0, 0.0, 0.0, 0.0, 0.0, 0.0, 0.0, 0.0, 0.0, 0.0, 3, 35.0, 0.015, 0.015 
128944, -0.4697497487068176, -0.7063602805137634, 174.8934783935547, -11.920000076293945, -0.10999999940395355, 0.0, 0.0, 0.0, 0.0, 0.0, 0.0, 0.0, 0.0, 0.0, 0.0, 0.0, 0.0, 0.0, 0.0, 0.0, 0.0, 0.0, 3, 35.0, 0.015, 0.015 
128946, -0.41086626052856445, -0.7845621705055237, 175.12933349609375, -12.170000076293945, 0.2199999988079071, 0.0, 0.0, 0.0, 0.0, 0.0, 0.0, 0.0, 0.0, 0.0, 0.0, 0.0, 0.0, 0.0, 0.0, 0.0, 0.0, 0.0, 3, 35.0, 0.015, 0.015 
128948, -0.3361988067626953, -0.8125514984130859, 175.31561279296875, -12.329999923706055, 0.44999998807907104, 0.0, 0.0, 0.0, 0.0, 0.0, 0.0, 0.0, 0.0, 0.0, 0.0, 0.0, 0.0, 0.0, 0.0, 0.0, 0.0, 0.0, 3, 35.0, 0.015, 0.015 
128950, -0.2508494555950165, -0.6837053298950195, 175.6331024169922, -12.489999771118164, 0.6899999976158142, 0.0, 0.0, 0.0, 0.0, 0.0, 0.0, 0.0, 0.0, 0.0, 0.0, 0.0, 0.0, 0.0, 0.0, 0.0, 0.0, 0.0, 3, 35.0, 0.015, 0.015 
128953, -0.11804211139678955, -0.7453572750091553, 176.04689025878906, -12.649999618530273, 0.9100000262260437, 0.0, 0.0, 0.0, 0.0, 0.0, 0.0, 0.0, 0.0, 0.0, 0.0, 0.0, 0.0, 0.0, 0.0, 0.0, 0.0, 0.0, 3, 35.0, 0.015, 0.015 
128955, -0.04587230831384659, -0.8504995703697205, 176.3259735107422, -12.899999618530273, 1.2599999904632568, 0.0, 0.0, 0.0, 0.0, 0.0, 0.0, 0.0, 0.0, 0.0, 0.0, 0.0, 0.0, 0.0, 0.0, 0.0, 0.0, 0.0, 3, 35.0, 0.015, 0.015 
128957, 0.016243210062384605, -0.8567623496055603, 176.63722229003906, -13.0600004196167, 1.5099999904632568, 0.0, 0.0, 0.0, 0.0, 0.0, 0.0, 0.0, 0.0, 0.0, 0.0, 0.0, 0.0, 0.0, 0.0, 0.0, 0.0, 0.0, 3, 35.0, 0.015, 0.015 
128959, 0.13348489999771118, -0.7730909585952759, 176.88287353515625, -13.220000267028809, 1.7599999904632568, 0.0, 0.0, 0.0, 0.0, 0.0, 0.0, 0.0, 0.0, 0.0, 0.0, 0.0, 0.0, 0.0, 0.0, 0.0, 0.0, 0.0, 3, 35.0, 0.015, 0.015 
128961, 0.2753768861293793, -0.6694640517234802, 177.11407470703125, -13.380000114440918, 1.9900000095367432, 0.0, 0.0, 0.0, 0.0, 0.0, 0.0, 0.0, 0.0, 0.0, 0.0, 0.0, 0.0, 0.0, 0.0, 0.0, 0.0, 0.0, 3, 35.0, 0.015, 0.015 
128964, 0.535603404045105, -0.5502867698669434, 177.50149536132812, -13.539999961853027, 2.190000057220459, 0.0, 0.0, 0.0, 0.0, 0.0, 0.0, 0.0, 0.0, 0.0, 0.0, 0.0, 0.0, 0.0, 0.0, 0.0, 0.0, 0.0, 3, 35.0, 0.015, 0.015 
128966, 0.7040435671806335, -0.5431678295135498, 177.69943237304688, -13.789999961853027, 2.440000057220459, 0.0, 0.0, 0.0, 0.0, 0.0, 0.0, 0.0, 0.0, 0.0, 0.0, 0.0, 0.0, 0.0, 0.0, 0.0, 0.0, 0.0, 3, 35.0, 0.015, 0.015 
128968, 0.8566892147064209, -0.41523537039756775, 177.98143005371094, -13.949999809265137, 2.5899999141693115, 0.0, 0.0, 0.0, 0.0, 0.0, 0.0, 0.0, 0.0, 0.0, 0.0, 0.0, 0.0, 0.0, 0.0, 0.0, 0.0, 0.0, 3, 35.0, 0.015, 0.015 
128970, 0.9740882515907288, -0.4521012306213379, 178.28240966796875, -14.109999656677246, 2.7200000286102295, 0.0, 0.0, 0.0, 0.0, 0.0, 0.0, 0.0, 0.0, 0.0, 0.0, 0.0, 0.0, 0.0, 0.0, 0.0, 0.0, 0.0, 3, 35.0, 0.015, 0.015 
128973, 1.2255349159240723, -0.3632246255874634, 178.72042846679688, -14.270000457763672, 2.8499999046325684, 0.0, 0.0, 0.0, 0.0, 0.0, 0.0, 0.0, 0.0, 0.0, 0.0, 0.0, 0.0, 0.0, 0.0, 0.0, 0.0, 0.0, 3, 35.0, 0.015, 0.015 
128975, 1.4160882234573364, -0.18134242296218872, 178.96788024902344, -14.430000305175781, 2.950000047683716, 0.0, 0.0, 0.0, 0.0, 0.0, 0.0, 0.0, 0.0, 0.0, 0.0, 0.0, 0.0, 0.0, 0.0, 0.0, 0.0, 0.0, 3, 35.0, 0.015, 0.015 
128977, 1.641509771347046, -0.12822797894477844, 179.23670959472656, -14.680000305175781, 3.049999952316284, 0.0, 0.0, 0.0, 0.0, 0.0, 0.0, 0.0, 0.0, 0.0, 0.0, 0.0, 0.0, 0.0, 0.0, 0.0, 0.0, 0.0, 3, 35.0, 0.015, 0.015 
128979, 1.8289004564285278, -0.02226617932319641, 179.46168518066406, -14.84000015258789, 3.0899999141693115, 0.0, 0.0, 0.0, 0.0, 0.0, 0.0, 0.0, 0.0, 0.0, 0.0, 0.0, 0.0, 0.0, 0.0, 0.0, 0.0, 0.0, 3, 35.0, 0.015, 0.015 
128981, 1.9848878383636475, 0.07574152201414108, 179.72271728515625, -15.0, 3.0899999141693115, 0.0, 0.0, 0.0, 0.0, 0.0, 0.0, 0.0, 0.0, 0.0, 0.0, 0.0, 0.0, 0.0, 0.0, 0.0, 0.0, 0.0, 3, 35.0, 0.015, 0.015 
128984, 2.1836752891540527, 0.2076655775308609, -179.7950439453125, -15.25, 3.059999942779541, 0.0, 0.0, 0.0, 0.0, 0.0, 0.0, 0.0, 0.0, 0.0, 0.0, 0.0, 0.0, 0.0, 0.0, 0.0, 0.0, 0.0, 3, 35.0, 0.015, 0.015 
128986, 2.318692684173584, 0.2754492163658142, -179.56407165527344, -15.40999984741211, 3.0, 0.0, 0.0, 0.0, 0.0, 0.0, 0.0, 0.0, 0.0, 0.0, 0.0, 0.0, 0.0, 0.0, 0.0, 0.0, 0.0, 0.0, 3, 35.0, 0.015, 0.015 
128988, 2.4120287895202637, 0.36779290437698364, -179.383056640625, -15.569999694824219, 2.9200000762939453, 0.0, 0.0, 0.0, 0.0, 0.0, 0.0, 0.0, 0.0, 0.0, 0.0, 0.0, 0.0, 0.0, 0.0, 0.0, 0.0, 0.0, 3, 35.0, 0.015, 0.015 
128990, 2.6296803951263428, 0.48689746856689453, -179.0580291748047, -15.729999542236328, 2.799999952316284, 0.0, 0.0, 0.0, 0.0, 0.0, 0.0, 0.0, 0.0, 0.0, 0.0, 0.0, 0.0, 0.0, 0.0, 0.0, 0.0, 0.0, 3, 35.0, 0.015, 0.015 
128993, 2.79056453704834, 0.6447049975395203, -178.75125122070312, -15.890000343322754, 2.6600000858306885, 0.0, 0.0, 0.0, 0.0, 0.0, 0.0, 0.0, 0.0, 0.0, 0.0, 0.0, 0.0, 0.0, 0.0, 0.0, 0.0, 0.0, 3, 35.0, 0.015, 0.015 
128995, 2.8702378273010254, 0.650924801826477, -178.4688262939453, -16.139999389648438, 2.369999885559082, 0.0, 0.0, 0.0, 0.0, 0.0, 0.0, 0.0, 0.0, 0.0, 0.0, 0.0, 0.0, 0.0, 0.0, 0.0, 0.0, 0.0, 3, 35.0, 0.015, 0.015 
128997, 2.8780746459960938, 0.5837544798851013, -178.24191284179688, -16.299999237060547, 2.180000066757202, 0.0, 0.0, 0.0, 0.0, 0.0, 0.0, 0.0, 0.0, 0.0, 0.0, 0.0, 0.0, 0.0, 0.0, 0.0, 0.0, 0.0, 3, 35.0, 0.015, 0.015 
128999, 2.854994297027588, 0.5325096249580383, -177.9641571044922, -16.459999084472656, 2.009999990463257, 0.0, 0.0, 0.0, 0.0, 0.0, 0.0, 0.0, 0.0, 0.0, 0.0, 0.0, 0.0, 0.0, 0.0, 0.0, 0.0, 0.0, 3, 35.0, 0.015, 0.015 
129001, 2.816322088241577, 0.6160516142845154, -177.6857452392578, -16.6200008392334, 1.850000023841858, 0.0, 0.0, 0.0, 0.0, 0.0, 0.0, 0.0, 0.0, 0.0, 0.0, 0.0, 0.0, 0.0, 0.0, 0.0, 0.0, 0.0, 3, 35.0, 0.015, 0.015 
129004, 2.744647264480591, 0.3543662428855896, -177.33689880371094, -16.790000915527344, 1.659999966621399, 0.0, 0.0, 0.0, 0.0, 0.0, 0.0, 0.0, 0.0, 0.0, 0.0, 0.0, 0.0, 0.0, 0.0, 0.0, 0.0, 0.0, 3, 35.0, 0.015, 0.015 
129006, 2.674868106842041, 0.40572836995124817, -177.0672607421875, -17.030000686645508, 1.4500000476837158, 0.0, 0.0, 0.0, 0.0, 0.0, 0.0, 0.0, 0.0, 0.0, 0.0, 0.0, 0.0, 0.0, 0.0, 0.0, 0.0, 0.0, 3, 35.0, 0.015, 0.015 
