counter, roll, pitch, yaw, pan, tilt, lati, longi, timestp, heading, rateofturn, cog, sog2, sow, sog, temp, humidity, pressure, wind_speed, wind_angle, bb_roll, bb_pitch, bb_yaw, proc_ptu_mode, proc_colav_limit, proc_colav_speed, proc_surveil_speed
104145, -2.879408359527588, -0.4671540856361389, 153.41119384765625, 26.719999313354492, -2.5399999618530273, 0.0, 0.0, 0.0, 0.0, 0.0, 0.0, 0.0, 0.0, 0.0, 0.0, 0.0, 0.0, 0.0, 0.0, 0.0, 0.0, 0.0, 3, 35.0, 0.015, 0.015 
104148, -2.7326319217681885, -0.5520525574684143, 153.7596435546875, 26.559999465942383, -2.390000104904175, 0.0, 0.0, 0.0, 0.0, 0.0, 0.0, 0.0, 0.0, 0.0, 0.0, 0.0, 0.0, 0.0, 0.0, 0.0, 0.0, 0.0, 3, 35.0, 0.015, 0.015 
104148, -2.7326319217681885, -0.5520525574684143, 153.7596435546875, 26.559999465942383, -2.390000104904175, 0.0, 0.0, 0.0, 0.0, 0.0, 0.0, 0.0, 0.0, 0.0, 0.0, 0.0, 0.0, 0.0, 0.0, 0.0, 0.0, 0.0, 3, 35.0, 0.015, 0.015 
104150, -2.636070728302002, -0.6604908108711243, 153.90911865234375, 26.389999389648438, -2.2300000190734863, 0.0, 0.0, 0.0, 0.0, 0.0, 0.0, 0.0, 0.0, 0.0, 0.0, 0.0, 0.0, 0.0, 0.0, 0.0, 0.0, 0.0, 3, 35.0, 0.015, 0.015 
104153, -2.5101020336151123, -0.800160825252533, 153.99154663085938, 26.149999618530273, -1.9500000476837158, 0.0, 0.0, 0.0, 0.0, 0.0, 0.0, 0.0, 0.0, 0.0, 0.0, 0.0, 0.0, 0.0, 0.0, 0.0, 0.0, 0.0, 3, 35.0, 0.015, 0.015 
104154, -2.428908109664917, -0.7966039776802063, 154.08871459960938, 26.06999969482422, -1.840000033378601, 0.0, 0.0, 0.0, 0.0, 0.0, 0.0, 0.0, 0.0, 0.0, 0.0, 0.0, 0.0, 0.0, 0.0, 0.0, 0.0, 0.0, 3, 35.0, 0.015, 0.015 
104157, -2.26606822013855, -0.712990403175354, 154.33941650390625, 25.829999923706055, -1.4800000190734863, 0.0, 0.0, 0.0, 0.0, 0.0, 0.0, 0.0, 0.0, 0.0, 0.0, 0.0, 0.0, 0.0, 0.0, 0.0, 0.0, 0.0, 3, 35.0, 0.015, 0.015 
104159, -2.1366748809814453, -0.8339464664459229, 154.4936065673828, 25.670000076293945, -1.2599999904632568, 0.0, 0.0, 0.0, 0.0, 0.0, 0.0, 0.0, 0.0, 0.0, 0.0, 0.0, 0.0, 0.0, 0.0, 0.0, 0.0, 0.0, 3, 35.0, 0.015, 0.015 
104161, -2.052915334701538, -0.9039532542228699, 154.64385986328125, 25.5, -1.0099999904632568, 0.0, 0.0, 0.0, 0.0, 0.0, 0.0, 0.0, 0.0, 0.0, 0.0, 0.0, 0.0, 0.0, 0.0, 0.0, 0.0, 0.0, 3, 35.0, 0.015, 0.015 
104163, -1.8790283203125, -0.8128908276557922, 154.75265502929688, 25.34000015258789, -0.7599999904632568, 0.0, 0.0, 0.0, 0.0, 0.0, 0.0, 0.0, 0.0, 0.0, 0.0, 0.0, 0.0, 0.0, 0.0, 0.0, 0.0, 0.0, 3, 35.0, 0.015, 0.015 
104166, -1.626250982284546, -0.8658618330955505, 154.93695068359375, 25.020000457763672, -0.23000000417232513, 0.0, 0.0, 0.0, 0.0, 0.0, 0.0, 0.0, 0.0, 0.0, 0.0, 0.0, 0.0, 0.0, 0.0, 0.0, 0.0, 0.0, 3, 35.0, 0.015, 0.015 
104168, -1.4727721214294434, -0.9424825310707092, 155.09039306640625, 24.93000030517578, -0.10000000149011612, 0.0, 0.0, 0.0, 0.0, 0.0, 0.0, 0.0, 0.0, 0.0, 0.0, 0.0, 0.0, 0.0, 0.0, 0.0, 0.0, 0.0, 3, 35.0, 0.015, 0.015 
104171, -1.2473522424697876, -0.926584780216217, 155.21754455566406, 24.610000610351562, 0.4399999976158142, 0.0, 0.0, 0.0, 0.0, 0.0, 0.0, 0.0, 0.0, 0.0, 0.0, 0.0, 0.0, 0.0, 0.0, 0.0, 0.0, 0.0, 3, 35.0, 0.015, 0.015 
104174, -1.0541948080062866, -0.853834331035614, 155.39193725585938, 24.3700008392334, 0.8199999928474426, 0.0, 0.0, 0.0, 0.0, 0.0, 0.0, 0.0, 0.0, 0.0, 0.0, 0.0, 0.0, 0.0, 0.0, 0.0, 0.0, 0.0, 3, 35.0, 0.015, 0.015 
104175, -0.9619402885437012, -0.8156061768531799, 155.41928100585938, 24.3700008392334, 0.8199999928474426, 0.0, 0.0, 0.0, 0.0, 0.0, 0.0, 0.0, 0.0, 0.0, 0.0, 0.0, 0.0, 0.0, 0.0, 0.0, 0.0, 0.0, 3, 35.0, 0.015, 0.015 
104176, -0.917306125164032, -0.7851867079734802, 155.43479919433594, 24.209999084472656, 1.0700000524520874, 0.0, 0.0, 0.0, 0.0, 0.0, 0.0, 0.0, 0.0, 0.0, 0.0, 0.0, 0.0, 0.0, 0.0, 0.0, 0.0, 0.0, 3, 35.0, 0.015, 0.015 
104179, -0.7378950715065002, -0.6505086421966553, 155.632080078125, 24.040000915527344, 1.309999942779541, 0.0, 0.0, 0.0, 0.0, 0.0, 0.0, 0.0, 0.0, 0.0, 0.0, 0.0, 0.0, 0.0, 0.0, 0.0, 0.0, 0.0, 3, 35.0, 0.015, 0.015 
104181, -0.6834397912025452, -0.5468273758888245, 155.7154998779297, 23.8799991607666, 1.5199999809265137, 0.0, 0.0, 0.0, 0.0, 0.0, 0.0, 0.0, 0.0, 0.0, 0.0, 0.0, 0.0, 0.0, 0.0, 0.0, 0.0, 0.0, 3, 35.0, 0.015, 0.015 
104183, -0.6391999125480652, -0.5280855894088745, 155.81228637695312, 23.719999313354492, 1.7000000476837158, 0.0, 0.0, 0.0, 0.0, 0.0, 0.0, 0.0, 0.0, 0.0, 0.0, 0.0, 0.0, 0.0, 0.0, 0.0, 0.0, 0.0, 3, 35.0, 0.015, 0.015 
104185, -0.5854659080505371, -0.34162306785583496, 155.93441772460938, 23.559999465942383, 1.8600000143051147, 0.0, 0.0, 0.0, 0.0, 0.0, 0.0, 0.0, 0.0, 0.0, 0.0, 0.0, 0.0, 0.0, 0.0, 0.0, 0.0, 0.0, 3, 35.0, 0.015, 0.015 
104187, -0.49849966168403625, -0.3223053216934204, 155.9924774169922, 23.309999465942383, 2.049999952316284, 0.0, 0.0, 0.0, 0.0, 0.0, 0.0, 0.0, 0.0, 0.0, 0.0, 0.0, 0.0, 0.0, 0.0, 0.0, 0.0, 0.0, 3, 35.0, 0.015, 0.015 
104190, -0.3462776243686676, -0.32042282819747925, 156.06680297851562, 23.149999618530273, 2.140000104904175, 0.0, 0.0, 0.0, 0.0, 0.0, 0.0, 0.0, 0.0, 0.0, 0.0, 0.0, 0.0, 0.0, 0.0, 0.0, 0.0, 0.0, 3, 35.0, 0.015, 0.015 
104192, -0.2667480409145355, -0.15634854137897491, 156.1592254638672, 22.989999771118164, 2.240000009536743, 0.0, 0.0, 0.0, 0.0, 0.0, 0.0, 0.0, 0.0, 0.0, 0.0, 0.0, 0.0, 0.0, 0.0, 0.0, 0.0, 0.0, 3, 35.0, 0.015, 0.015 
104194, -0.2458825707435608, -0.11681797355413437, 156.23358154296875, 22.829999923706055, 2.319999933242798, 0.0, 0.0, 0.0, 0.0, 0.0, 0.0, 0.0, 0.0, 0.0, 0.0, 0.0, 0.0, 0.0, 0.0, 0.0, 0.0, 0.0, 3, 35.0, 0.015, 0.015 
104196, -0.26289767026901245, 0.01055903546512127, 156.32595825195312, 22.59000015258789, 2.369999885559082, 0.0, 0.0, 0.0, 0.0, 0.0, 0.0, 0.0, 0.0, 0.0, 0.0, 0.0, 0.0, 0.0, 0.0, 0.0, 0.0, 0.0, 3, 35.0, 0.015, 0.015 
104199, -0.33079996705055237, 0.24212735891342163, 156.53848266601562, 22.420000076293945, 2.359999895095825, 0.0, 0.0, 0.0, 0.0, 0.0, 0.0, 0.0, 0.0, 0.0, 0.0, 0.0, 0.0, 0.0, 0.0, 0.0, 0.0, 0.0, 3, 35.0, 0.015, 0.015 
104201, -0.319903165102005, 0.2630554735660553, 156.59996032714844, 22.260000228881836, 2.2899999618530273, 0.0, 0.0, 0.0, 0.0, 0.0, 0.0, 0.0, 0.0, 0.0, 0.0, 0.0, 0.0, 0.0, 0.0, 0.0, 0.0, 0.0, 3, 35.0, 0.015, 0.015 
104203, -0.24424707889556885, 0.4036400318145752, 156.6905517578125, 22.100000381469727, 2.2100000381469727, 0.0, 0.0, 0.0, 0.0, 0.0, 0.0, 0.0, 0.0, 0.0, 0.0, 0.0, 0.0, 0.0, 0.0, 0.0, 0.0, 0.0, 3, 35.0, 0.015, 0.015 
104205, -0.18327002227306366, 0.37492048740386963, 156.78314208984375, 21.940000534057617, 2.119999885559082, 0.0, 0.0, 0.0, 0.0, 0.0, 0.0, 0.0, 0.0, 0.0, 0.0, 0.0, 0.0, 0.0, 0.0, 0.0, 0.0, 0.0, 3, 35.0, 0.015, 0.015 
104207, -0.180633544921875, 0.34582602977752686, 156.8350830078125, 21.700000762939453, 1.940000057220459, 0.0, 0.0, 0.0, 0.0, 0.0, 0.0, 0.0, 0.0, 0.0, 0.0, 0.0, 0.0, 0.0, 0.0, 0.0, 0.0, 0.0, 3, 35.0, 0.015, 0.015 
104210, -0.25110381841659546, 0.5371145009994507, 157.01730346679688, 21.530000686645508, 1.8300000429153442, 0.0, 0.0, 0.0, 0.0, 0.0, 0.0, 0.0, 0.0, 0.0, 0.0, 0.0, 0.0, 0.0, 0.0, 0.0, 0.0, 0.0, 3, 35.0, 0.015, 0.015 
104212, -0.33699363470077515, 0.6711496114730835, 157.15635681152344, 21.3700008392334, 1.6799999475479126, 0.0, 0.0, 0.0, 0.0, 0.0, 0.0, 0.0, 0.0, 0.0, 0.0, 0.0, 0.0, 0.0, 0.0, 0.0, 0.0, 0.0, 3, 35.0, 0.015, 0.015 
104214, -0.40514570474624634, 0.5680082440376282, 157.23135375976562, 21.209999084472656, 1.5099999904632568, 0.0, 0.0, 0.0, 0.0, 0.0, 0.0, 0.0, 0.0, 0.0, 0.0, 0.0, 0.0, 0.0, 0.0, 0.0, 0.0, 0.0, 3, 35.0, 0.015, 0.015 
104216, -0.40525296330451965, 0.6264925599098206, 157.36517333984375, 20.969999313354492, 1.2300000190734863, 0.0, 0.0, 0.0, 0.0, 0.0, 0.0, 0.0, 0.0, 0.0, 0.0, 0.0, 0.0, 0.0, 0.0, 0.0, 0.0, 0.0, 3, 35.0, 0.015, 0.015 
104218, -0.3746165931224823, 0.5755260586738586, 157.4778289794922, 20.799999237060547, 1.0499999523162842, 0.0, 0.0, 0.0, 0.0, 0.0, 0.0, 0.0, 0.0, 0.0, 0.0, 0.0, 0.0, 0.0, 0.0, 0.0, 0.0, 0.0, 3, 35.0, 0.015, 0.015 
104221, -0.4641512632369995, 0.4275798201560974, 157.61448669433594, 20.639999389648438, 0.8799999952316284, 0.0, 0.0, 0.0, 0.0, 0.0, 0.0, 0.0, 0.0, 0.0, 0.0, 0.0, 0.0, 0.0, 0.0, 0.0, 0.0, 0.0, 3, 35.0, 0.015, 0.015 
104223, -0.5605507493019104, 0.5173029899597168, 157.84262084960938, 20.479999542236328, 0.7400000095367432, 0.0, 0.0, 0.0, 0.0, 0.0, 0.0, 0.0, 0.0, 0.0, 0.0, 0.0, 0.0, 0.0, 0.0, 0.0, 0.0, 0.0, 3, 35.0, 0.015, 0.015 
104225, -0.6484107375144958, 0.5069267749786377, 157.96595764160156, 20.31999969482422, 0.5899999737739563, 0.0, 0.0, 0.0, 0.0, 0.0, 0.0, 0.0, 0.0, 0.0, 0.0, 0.0, 0.0, 0.0, 0.0, 0.0, 0.0, 0.0, 3, 35.0, 0.015, 0.015 
104227, -0.690317690372467, 0.4436591565608978, 158.0950927734375, 20.06999969482422, 0.36000001430511475, 0.0, 0.0, 0.0, 0.0, 0.0, 0.0, 0.0, 0.0, 0.0, 0.0, 0.0, 0.0, 0.0, 0.0, 0.0, 0.0, 0.0, 3, 35.0, 0.015, 0.015 
104229, -0.680030345916748, 0.4063125550746918, 158.2510528564453, 19.90999984741211, 0.23000000417232513, 0.0, 0.0, 0.0, 0.0, 0.0, 0.0, 0.0, 0.0, 0.0, 0.0, 0.0, 0.0, 0.0, 0.0, 0.0, 0.0, 0.0, 3, 35.0, 0.015, 0.015 
104232, -0.6363016963005066, 0.27916601300239563, 158.39401245117188, 19.75, 0.10999999940395355, 0.0, 0.0, 0.0, 0.0, 0.0, 0.0, 0.0, 0.0, 0.0, 0.0, 0.0, 0.0, 0.0, 0.0, 0.0, 0.0, 0.0, 3, 35.0, 0.015, 0.015 
104234, -0.6224106550216675, 0.3537491261959076, 158.48724365234375, 19.59000015258789, 0.009999999776482582, 0.0, 0.0, 0.0, 0.0, 0.0, 0.0, 0.0, 0.0, 0.0, 0.0, 0.0, 0.0, 0.0, 0.0, 0.0, 0.0, 0.0, 3, 35.0, 0.015, 0.015 
104236, -0.6302855014801025, 0.30297303199768066, 158.73947143554688, 19.350000381469727, -0.14000000059604645, 0.0, 0.0, 0.0, 0.0, 0.0, 0.0, 0.0, 0.0, 0.0, 0.0, 0.0, 0.0, 0.0, 0.0, 0.0, 0.0, 0.0, 3, 35.0, 0.015, 0.015 
104239, -0.6260573267936707, 0.3383578956127167, 158.8863525390625, 19.18000030517578, -0.23000000417232513, 0.0, 0.0, 0.0, 0.0, 0.0, 0.0, 0.0, 0.0, 0.0, 0.0, 0.0, 0.0, 0.0, 0.0, 0.0, 0.0, 0.0, 3, 35.0, 0.015, 0.015 
104241, -0.6254555583000183, 0.30958378314971924, 159.1314697265625, 19.020000457763672, -0.3100000023841858, 0.0, 0.0, 0.0, 0.0, 0.0, 0.0, 0.0, 0.0, 0.0, 0.0, 0.0, 0.0, 0.0, 0.0, 0.0, 0.0, 0.0, 3, 35.0, 0.015, 0.015 
104243, -0.6014126539230347, 0.3452727794647217, 159.32266235351562, 18.860000610351562, -0.41999998688697815, 0.0, 0.0, 0.0, 0.0, 0.0, 0.0, 0.0, 0.0, 0.0, 0.0, 0.0, 0.0, 0.0, 0.0, 0.0, 0.0, 0.0, 3, 35.0, 0.015, 0.015 
104245, -0.5624759197235107, 0.24505071341991425, 159.4077911376953, 18.700000762939453, -0.5199999809265137, 0.0, 0.0, 0.0, 0.0, 0.0, 0.0, 0.0, 0.0, 0.0, 0.0, 0.0, 0.0, 0.0, 0.0, 0.0, 0.0, 0.0, 3, 35.0, 0.015, 0.015 
104247, -0.5250247120857239, 0.26418426632881165, 159.50540161132812, 18.450000762939453, -0.6399999856948853, 0.0, 0.0, 0.0, 0.0, 0.0, 0.0, 0.0, 0.0, 0.0, 0.0, 0.0, 0.0, 0.0, 0.0, 0.0, 0.0, 0.0, 3, 35.0, 0.015, 0.015 
104250, -0.4876217246055603, 0.2711634933948517, 159.84600830078125, 18.290000915527344, -0.7200000286102295, 0.0, 0.0, 0.0, 0.0, 0.0, 0.0, 0.0, 0.0, 0.0, 0.0, 0.0, 0.0, 0.0, 0.0, 0.0, 0.0, 0.0, 3, 35.0, 0.015, 0.015 
104254, -0.3531133234500885, 0.2562310993671417, 160.1119384765625, 17.889999389648438, -0.9300000071525574, 0.0, 0.0, 0.0, 0.0, 0.0, 0.0, 0.0, 0.0, 0.0, 0.0, 0.0, 0.0, 0.0, 0.0, 0.0, 0.0, 0.0, 3, 35.0, 0.015, 0.015 
104255, -0.2694002389907837, 0.2981604039669037, 160.26351928710938, 17.889999389648438, -0.9300000071525574, 0.0, 0.0, 0.0, 0.0, 0.0, 0.0, 0.0, 0.0, 0.0, 0.0, 0.0, 0.0, 0.0, 0.0, 0.0, 0.0, 0.0, 3, 35.0, 0.015, 0.015 
104256, -0.23629428446292877, 0.2719074487686157, 160.30921936035156, 17.729999542236328, -1.0099999904632568, 0.0, 0.0, 0.0, 0.0, 0.0, 0.0, 0.0, 0.0, 0.0, 0.0, 0.0, 0.0, 0.0, 0.0, 0.0, 0.0, 0.0, 3, 35.0, 0.015, 0.015 
104258, -0.13334988057613373, 0.17287677526474, 160.3978729248047, 17.559999465942383, -1.0800000429153442, 0.0, 0.0, 0.0, 0.0, 0.0, 0.0, 0.0, 0.0, 0.0, 0.0, 0.0, 0.0, 0.0, 0.0, 0.0, 0.0, 0.0, 3, 35.0, 0.015, 0.015 
104262, -0.020149925723671913, 0.30095407366752625, 160.83734130859375, 17.31999969482422, -1.1699999570846558, 0.0, 0.0, 0.0, 0.0, 0.0, 0.0, 0.0, 0.0, 0.0, 0.0, 0.0, 0.0, 0.0, 0.0, 0.0, 0.0, 0.0, 3, 35.0, 0.015, 0.015 
104263, 0.03068629652261734, 0.23330791294574738, 160.9070587158203, 17.239999771118164, -1.2100000381469727, 0.0, 0.0, 0.0, 0.0, 0.0, 0.0, 0.0, 0.0, 0.0, 0.0, 0.0, 0.0, 0.0, 0.0, 0.0, 0.0, 0.0, 3, 35.0, 0.015, 0.015 
104265, 0.16402271389961243, 0.30370989441871643, 161.11367797851562, 17.079999923706055, -1.2899999618530273, 0.0, 0.0, 0.0, 0.0, 0.0, 0.0, 0.0, 0.0, 0.0, 0.0, 0.0, 0.0, 0.0, 0.0, 0.0, 0.0, 0.0, 3, 35.0, 0.015, 0.015 
104267, 0.3441341519355774, 0.30598169565200806, 161.30995178222656, 16.829999923706055, -1.4199999570846558, 0.0, 0.0, 0.0, 0.0, 0.0, 0.0, 0.0, 0.0, 0.0, 0.0, 0.0, 0.0, 0.0, 0.0, 0.0, 0.0, 0.0, 3, 35.0, 0.015, 0.015 
104269, 0.49477747082710266, 0.15804855525493622, 161.3703155517578, 16.670000076293945, -1.5099999904632568, 0.0, 0.0, 0.0, 0.0, 0.0, 0.0, 0.0, 0.0, 0.0, 0.0, 0.0, 0.0, 0.0, 0.0, 0.0, 0.0, 0.0, 3, 35.0, 0.015, 0.015 
104272, 0.6256327629089355, 0.21983559429645538, 161.6777801513672, 16.510000228881836, -1.559999942779541, 0.0, 0.0, 0.0, 0.0, 0.0, 0.0, 0.0, 0.0, 0.0, 0.0, 0.0, 0.0, 0.0, 0.0, 0.0, 0.0, 0.0, 3, 35.0, 0.015, 0.015 
104274, 0.7152746319770813, 0.3408677875995636, 161.8258819580078, 16.350000381469727, -1.6299999952316284, 0.0, 0.0, 0.0, 0.0, 0.0, 0.0, 0.0, 0.0, 0.0, 0.0, 0.0, 0.0, 0.0, 0.0, 0.0, 0.0, 0.0, 3, 35.0, 0.015, 0.015 
104276, 0.8150386214256287, 0.21832774579524994, 161.9395751953125, 16.110000610351562, -1.7599999904632568, 0.0, 0.0, 0.0, 0.0, 0.0, 0.0, 0.0, 0.0, 0.0, 0.0, 0.0, 0.0, 0.0, 0.0, 0.0, 0.0, 0.0, 3, 35.0, 0.015, 0.015 
104278, 0.9288307428359985, 0.22989299893379211, 162.16656494140625, 15.9399995803833, -1.8300000429153442, 0.0, 0.0, 0.0, 0.0, 0.0, 0.0, 0.0, 0.0, 0.0, 0.0, 0.0, 0.0, 0.0, 0.0, 0.0, 0.0, 0.0, 3, 35.0, 0.015, 0.015 
104281, 1.1128208637237549, 0.1891433149576187, 162.33004760742188, 15.779999732971191, -1.899999976158142, 0.0, 0.0, 0.0, 0.0, 0.0, 0.0, 0.0, 0.0, 0.0, 0.0, 0.0, 0.0, 0.0, 0.0, 0.0, 0.0, 0.0, 3, 35.0, 0.015, 0.015 
104283, 1.178578495979309, 0.23462630808353424, 162.5264129638672, 15.619999885559082, -1.9700000286102295, 0.0, 0.0, 0.0, 0.0, 0.0, 0.0, 0.0, 0.0, 0.0, 0.0, 0.0, 0.0, 0.0, 0.0, 0.0, 0.0, 0.0, 3, 35.0, 0.015, 0.015 
104285, 1.2317384481430054, 0.1367441862821579, 162.66720581054688, 15.460000038146973, -2.0199999809265137, 0.0, 0.0, 0.0, 0.0, 0.0, 0.0, 0.0, 0.0, 0.0, 0.0, 0.0, 0.0, 0.0, 0.0, 0.0, 0.0, 0.0, 3, 35.0, 0.015, 0.015 
104287, 1.2902902364730835, 0.1618402600288391, 162.75177001953125, 15.210000038146973, -2.109999895095825, 0.0, 0.0, 0.0, 0.0, 0.0, 0.0, 0.0, 0.0, 0.0, 0.0, 0.0, 0.0, 0.0, 0.0, 0.0, 0.0, 0.0, 3, 35.0, 0.015, 0.015 
104289, 1.3234626054763794, 0.14674316346645355, 162.8975830078125, 15.050000190734863, -2.1500000953674316, 0.0, 0.0, 0.0, 0.0, 0.0, 0.0, 0.0, 0.0, 0.0, 0.0, 0.0, 0.0, 0.0, 0.0, 0.0, 0.0, 0.0, 3, 35.0, 0.015, 0.015 
104292, 1.2593656778335571, 0.13001354038715363, 163.12213134765625, 14.890000343322754, -2.190000057220459, 0.0, 0.0, 0.0, 0.0, 0.0, 0.0, 0.0, 0.0, 0.0, 0.0, 0.0, 0.0, 0.0, 0.0, 0.0, 0.0, 0.0, 3, 35.0, 0.015, 0.015 
104294, 1.213502049446106, 0.12237008661031723, 163.20289611816406, 14.729999542236328, -2.2200000286102295, 0.0, 0.0, 0.0, 0.0, 0.0, 0.0, 0.0, 0.0, 0.0, 0.0, 0.0, 0.0, 0.0, 0.0, 0.0, 0.0, 0.0, 3, 35.0, 0.015, 0.015 
104296, 1.1564075946807861, 0.14946751296520233, 163.30560302734375, 14.569999694824219, -2.259999990463257, 0.0, 0.0, 0.0, 0.0, 0.0, 0.0, 0.0, 0.0, 0.0, 0.0, 0.0, 0.0, 0.0, 0.0, 0.0, 0.0, 0.0, 3, 35.0, 0.015, 0.015 
104298, 1.0910594463348389, 0.10793233662843704, 163.47317504882812, 14.319999694824219, -2.319999933242798, 0.0, 0.0, 0.0, 0.0, 0.0, 0.0, 0.0, 0.0, 0.0, 0.0, 0.0, 0.0, 0.0, 0.0, 0.0, 0.0, 0.0, 3, 35.0, 0.015, 0.015 
104301, 0.9876930713653564, 0.004260997287929058, 163.55641174316406, 14.079999923706055, -2.3499999046325684, 0.0, 0.0, 0.0, 0.0, 0.0, 0.0, 0.0, 0.0, 0.0, 0.0, 0.0, 0.0, 0.0, 0.0, 0.0, 0.0, 0.0, 3, 35.0, 0.015, 0.015 
104303, 0.8536072969436646, -0.02528759092092514, 163.6792755126953, 13.920000076293945, -2.3499999046325684, 0.0, 0.0, 0.0, 0.0, 0.0, 0.0, 0.0, 0.0, 0.0, 0.0, 0.0, 0.0, 0.0, 0.0, 0.0, 0.0, 0.0, 3, 35.0, 0.015, 0.015 
104305, 0.705773115158081, -0.03182714432477951, 163.82310485839844, 13.84000015258789, -2.3499999046325684, 0.0, 0.0, 0.0, 0.0, 0.0, 0.0, 0.0, 0.0, 0.0, 0.0, 0.0, 0.0, 0.0, 0.0, 0.0, 0.0, 0.0, 3, 35.0, 0.015, 0.015 
104307, 0.5557861924171448, -0.09585651010274887, 163.83981323242188, 13.59000015258789, -2.3499999046325684, 0.0, 0.0, 0.0, 0.0, 0.0, 0.0, 0.0, 0.0, 0.0, 0.0, 0.0, 0.0, 0.0, 0.0, 0.0, 0.0, 0.0, 3, 35.0, 0.015, 0.015 
104309, 0.38687723875045776, -0.159760981798172, 163.94857788085938, 13.430000305175781, -2.3399999141693115, 0.0, 0.0, 0.0, 0.0, 0.0, 0.0, 0.0, 0.0, 0.0, 0.0, 0.0, 0.0, 0.0, 0.0, 0.0, 0.0, 0.0, 3, 35.0, 0.015, 0.015 
104312, 0.06852003931999207, -0.30921825766563416, 164.08718872070312, 13.270000457763672, -2.2899999618530273, 0.0, 0.0, 0.0, 0.0, 0.0, 0.0, 0.0, 0.0, 0.0, 0.0, 0.0, 0.0, 0.0, 0.0, 0.0, 0.0, 0.0, 3, 35.0, 0.015, 0.015 
104314, -0.21375204622745514, -0.2705828547477722, 164.1280517578125, 13.109999656677246, -2.2200000286102295, 0.0, 0.0, 0.0, 0.0, 0.0, 0.0, 0.0, 0.0, 0.0, 0.0, 0.0, 0.0, 0.0, 0.0, 0.0, 0.0, 0.0, 3, 35.0, 0.015, 0.015 
104316, -0.4789593517780304, -0.1973849982023239, 164.34713745117188, 12.869999885559082, -2.0999999046325684, 0.0, 0.0, 0.0, 0.0, 0.0, 0.0, 0.0, 0.0, 0.0, 0.0, 0.0, 0.0, 0.0, 0.0, 0.0, 0.0, 0.0, 3, 35.0, 0.015, 0.015 
104318, -0.6868665814399719, -0.35810261964797974, 164.56019592285156, 12.699999809265137, -2.0299999713897705, 0.0, 0.0, 0.0, 0.0, 0.0, 0.0, 0.0, 0.0, 0.0, 0.0, 0.0, 0.0, 0.0, 0.0, 0.0, 0.0, 0.0, 3, 35.0, 0.015, 0.015 
104320, -0.8731736540794373, -0.419137179851532, 164.5338134765625, 12.539999961853027, -1.9299999475479126, 0.0, 0.0, 0.0, 0.0, 0.0, 0.0, 0.0, 0.0, 0.0, 0.0, 0.0, 0.0, 0.0, 0.0, 0.0, 0.0, 0.0, 3, 35.0, 0.015, 0.015 
104323, -1.147698163986206, -0.3914853036403656, 164.57691955566406, 12.380000114440918, -1.7999999523162842, 0.0, 0.0, 0.0, 0.0, 0.0, 0.0, 0.0, 0.0, 0.0, 0.0, 0.0, 0.0, 0.0, 0.0, 0.0, 0.0, 0.0, 3, 35.0, 0.015, 0.015 
104325, -1.3995758295059204, -0.5376801490783691, 164.8722686767578, 12.220000267028809, -1.659999966621399, 0.0, 0.0, 0.0, 0.0, 0.0, 0.0, 0.0, 0.0, 0.0, 0.0, 0.0, 0.0, 0.0, 0.0, 0.0, 0.0, 0.0, 3, 35.0, 0.015, 0.015 
104327, -1.6099822521209717, -0.4679366946220398, 165.024658203125, 11.970000267028809, -1.4500000476837158, 0.0, 0.0, 0.0, 0.0, 0.0, 0.0, 0.0, 0.0, 0.0, 0.0, 0.0, 0.0, 0.0, 0.0, 0.0, 0.0, 0.0, 3, 35.0, 0.015, 0.015 
104330, -1.8294258117675781, -0.6350059509277344, 165.15650939941406, 11.729999542236328, -1.2400000095367432, 0.0, 0.0, 0.0, 0.0, 0.0, 0.0, 0.0, 0.0, 0.0, 0.0, 0.0, 0.0, 0.0, 0.0, 0.0, 0.0, 0.0, 3, 35.0, 0.015, 0.015 
104332, -1.8835862874984741, -0.5549669861793518, 165.1864471435547, 11.649999618530273, -1.149999976158142, 0.0, 0.0, 0.0, 0.0, 0.0, 0.0, 0.0, 0.0, 0.0, 0.0, 0.0, 0.0, 0.0, 0.0, 0.0, 0.0, 0.0, 3, 35.0, 0.015, 0.015 
104334, -2.0260672569274902, -0.655354917049408, 165.1375274658203, 11.489999771118164, -0.9700000286102295, 0.0, 0.0, 0.0, 0.0, 0.0, 0.0, 0.0, 0.0, 0.0, 0.0, 0.0, 0.0, 0.0, 0.0, 0.0, 0.0, 0.0, 3, 35.0, 0.015, 0.015 
104336, -2.3259401321411133, -0.6570525765419006, 165.4887237548828, 11.239999771118164, -0.6899999976158142, 0.0, 0.0, 0.0, 0.0, 0.0, 0.0, 0.0, 0.0, 0.0, 0.0, 0.0, 0.0, 0.0, 0.0, 0.0, 0.0, 0.0, 3, 35.0, 0.015, 0.015 
104338, -2.471085786819458, -0.5876081585884094, 165.6458740234375, 11.079999923706055, -0.5, 0.0, 0.0, 0.0, 0.0, 0.0, 0.0, 0.0, 0.0, 0.0, 0.0, 0.0, 0.0, 0.0, 0.0, 0.0, 0.0, 0.0, 3, 35.0, 0.015, 0.015 
104340, -2.659672737121582, -0.5131757855415344, 165.84584045410156, 10.920000076293945, -0.3400000035762787, 0.0, 0.0, 0.0, 0.0, 0.0, 0.0, 0.0, 0.0, 0.0, 0.0, 0.0, 0.0, 0.0, 0.0, 0.0, 0.0, 0.0, 3, 35.0, 0.015, 0.015 
104343, -2.7642807960510254, -0.6884775757789612, 166.04388427734375, 10.760000228881836, -0.1899999976158142, 0.0, 0.0, 0.0, 0.0, 0.0, 0.0, 0.0, 0.0, 0.0, 0.0, 0.0, 0.0, 0.0, 0.0, 0.0, 0.0, 0.0, 3, 35.0, 0.015, 0.015 
104345, -2.6958091259002686, -0.5450270771980286, 166.1840362548828, 10.600000381469727, -0.0, 0.0, 0.0, 0.0, 0.0, 0.0, 0.0, 0.0, 0.0, 0.0, 0.0, 0.0, 0.0, 0.0, 0.0, 0.0, 0.0, 0.0, 3, 35.0, 0.015, 0.015 
104347, -2.6626384258270264, -0.5353667736053467, 166.20994567871094, 10.350000381469727, 0.25999999046325684, 0.0, 0.0, 0.0, 0.0, 0.0, 0.0, 0.0, 0.0, 0.0, 0.0, 0.0, 0.0, 0.0, 0.0, 0.0, 0.0, 0.0, 3, 35.0, 0.015, 0.015 
104349, -2.7092795372009277, -0.5011498928070068, 166.25033569335938, 10.1899995803833, 0.41999998688697815, 0.0, 0.0, 0.0, 0.0, 0.0, 0.0, 0.0, 0.0, 0.0, 0.0, 0.0, 0.0, 0.0, 0.0, 0.0, 0.0, 0.0, 3, 35.0, 0.015, 0.015 
104351, -2.791870355606079, -0.49962112307548523, 166.645263671875, 10.029999732971191, 0.5699999928474426, 0.0, 0.0, 0.0, 0.0, 0.0, 0.0, 0.0, 0.0, 0.0, 0.0, 0.0, 0.0, 0.0, 0.0, 0.0, 0.0, 0.0, 3, 35.0, 0.015, 0.015 
104354, -2.848052501678467, -0.39065074920654297, 166.98870849609375, 9.869999885559082, 0.7099999785423279, 0.0, 0.0, 0.0, 0.0, 0.0, 0.0, 0.0, 0.0, 0.0, 0.0, 0.0, 0.0, 0.0, 0.0, 0.0, 0.0, 0.0, 3, 35.0, 0.015, 0.015 
104356, -2.8131330013275146, -0.32691386342048645, 167.13270568847656, 9.619999885559082, 0.8899999856948853, 0.0, 0.0, 0.0, 0.0, 0.0, 0.0, 0.0, 0.0, 0.0, 0.0, 0.0, 0.0, 0.0, 0.0, 0.0, 0.0, 0.0, 3, 35.0, 0.015, 0.015 
104358, -2.71285343170166, -0.3706762194633484, 167.315185546875, 9.460000038146973, 0.9900000095367432, 0.0, 0.0, 0.0, 0.0, 0.0, 0.0, 0.0, 0.0, 0.0, 0.0, 0.0, 0.0, 0.0, 0.0, 0.0, 0.0, 0.0, 3, 35.0, 0.015, 0.015 
104360, -2.5575411319732666, -0.2252284288406372, 167.43255615234375, 9.300000190734863, 1.100000023841858, 0.0, 0.0, 0.0, 0.0, 0.0, 0.0, 0.0, 0.0, 0.0, 0.0, 0.0, 0.0, 0.0, 0.0, 0.0, 0.0, 0.0, 3, 35.0, 0.015, 0.015 
104363, -2.3816568851470947, -0.15424609184265137, 167.46365356445312, 9.140000343322754, 1.1699999570846558, 0.0, 0.0, 0.0, 0.0, 0.0, 0.0, 0.0, 0.0, 0.0, 0.0, 0.0, 0.0, 0.0, 0.0, 0.0, 0.0, 0.0, 3, 35.0, 0.015, 0.015 
104365, -2.269528865814209, -0.1556810885667801, 167.74964904785156, 8.979999542236328, 1.2300000190734863, 0.0, 0.0, 0.0, 0.0, 0.0, 0.0, 0.0, 0.0, 0.0, 0.0, 0.0, 0.0, 0.0, 0.0, 0.0, 0.0, 0.0, 3, 35.0, 0.015, 0.015 
104367, -2.21757173538208, -0.10636160522699356, 167.9196014404297, 8.729999542236328, 1.2999999523162842, 0.0, 0.0, 0.0, 0.0, 0.0, 0.0, 0.0, 0.0, 0.0, 0.0, 0.0, 0.0, 0.0, 0.0, 0.0, 0.0, 0.0, 3, 35.0, 0.015, 0.015 
104369, -2.171412944793701, 0.015106583945453167, 168.0179901123047, 8.569999694824219, 1.3200000524520874, 0.0, 0.0, 0.0, 0.0, 0.0, 0.0, 0.0, 0.0, 0.0, 0.0, 0.0, 0.0, 0.0, 0.0, 0.0, 0.0, 0.0, 3, 35.0, 0.015, 0.015 
104371, -2.053494930267334, 0.02700028382241726, 168.29779052734375, 8.40999984741211, 1.3200000524520874, 0.0, 0.0, 0.0, 0.0, 0.0, 0.0, 0.0, 0.0, 0.0, 0.0, 0.0, 0.0, 0.0, 0.0, 0.0, 0.0, 0.0, 3, 35.0, 0.015, 0.015 
104374, -1.7084918022155762, 0.1298796534538269, 168.558349609375, 8.25, 1.3200000524520874, 0.0, 0.0, 0.0, 0.0, 0.0, 0.0, 0.0, 0.0, 0.0, 0.0, 0.0, 0.0, 0.0, 0.0, 0.0, 0.0, 0.0, 3, 35.0, 0.015, 0.015 
104376, -1.5262104272842407, 0.12287572771310806, 168.5015869140625, 8.0, 1.2699999809265137, 0.0, 0.0, 0.0, 0.0, 0.0, 0.0, 0.0, 0.0, 0.0, 0.0, 0.0, 0.0, 0.0, 0.0, 0.0, 0.0, 0.0, 3, 35.0, 0.015, 0.015 
104378, -1.3852722644805908, 0.2087225615978241, 168.62106323242188, 7.840000152587891, 1.2300000190734863, 0.0, 0.0, 0.0, 0.0, 0.0, 0.0, 0.0, 0.0, 0.0, 0.0, 0.0, 0.0, 0.0, 0.0, 0.0, 0.0, 0.0, 3, 35.0, 0.015, 0.015 
104380, -1.2814505100250244, 0.32104799151420593, 168.89410400390625, 7.679999828338623, 1.1699999570846558, 0.0, 0.0, 0.0, 0.0, 0.0, 0.0, 0.0, 0.0, 0.0, 0.0, 0.0, 0.0, 0.0, 0.0, 0.0, 0.0, 0.0, 3, 35.0, 0.015, 0.015 
104383, -1.1256022453308105, 0.40600869059562683, 168.9604034423828, 7.519999980926514, 1.0800000429153442, 0.0, 0.0, 0.0, 0.0, 0.0, 0.0, 0.0, 0.0, 0.0, 0.0, 0.0, 0.0, 0.0, 0.0, 0.0, 0.0, 0.0, 3, 35.0, 0.015, 0.015 
104385, -0.9808850884437561, 0.2793187201023102, 169.1014404296875, 7.360000133514404, 0.9800000190734863, 0.0, 0.0, 0.0, 0.0, 0.0, 0.0, 0.0, 0.0, 0.0, 0.0, 0.0, 0.0, 0.0, 0.0, 0.0, 0.0, 0.0, 3, 35.0, 0.015, 0.015 
104387, -0.8403289318084717, 0.5187785625457764, 169.21255493164062, 7.110000133514404, 0.8100000023841858, 0.0, 0.0, 0.0, 0.0, 0.0, 0.0, 0.0, 0.0, 0.0, 0.0, 0.0, 0.0, 0.0, 0.0, 0.0, 0.0, 0.0, 3, 35.0, 0.015, 0.015 
104392, -0.5660540461540222, 0.6417151689529419, 169.51426696777344, 6.789999961853027, 0.5, 0.0, 0.0, 0.0, 0.0, 0.0, 0.0, 0.0, 0.0, 0.0, 0.0, 0.0, 0.0, 0.0, 0.0, 0.0, 0.0, 0.0, 3, 35.0, 0.015, 0.015 
104393, -0.5208006501197815, 0.720479428768158, 169.5504150390625, 6.710000038146973, 0.41999998688697815, 0.0, 0.0, 0.0, 0.0, 0.0, 0.0, 0.0, 0.0, 0.0, 0.0, 0.0, 0.0, 0.0, 0.0, 0.0, 0.0, 0.0, 3, 35.0, 0.015, 0.015 
104401, -0.23162728548049927, 0.6957382559776306, 170.02651977539062, 5.980000019073486, -0.5199999809265137, 0.0, 0.0, 0.0, 0.0, 0.0, 0.0, 0.0, 0.0, 0.0, 0.0, 0.0, 0.0, 0.0, 0.0, 0.0, 0.0, 0.0, 3, 35.0, 0.015, 0.015 
104404, -0.19440364837646484, 0.8215304017066956, 170.16940307617188, 5.820000171661377, -0.75, 0.0, 0.0, 0.0, 0.0, 0.0, 0.0, 0.0, 0.0, 0.0, 0.0, 0.0, 0.0, 0.0, 0.0, 0.0, 0.0, 0.0, 3, 35.0, 0.015, 0.015 
104404, -0.19440364837646484, 0.8215304017066956, 170.16940307617188, 5.739999771118164, -0.8899999856948853, 0.0, 0.0, 0.0, 0.0, 0.0, 0.0, 0.0, 0.0, 0.0, 0.0, 0.0, 0.0, 0.0, 0.0, 0.0, 0.0, 0.0, 3, 35.0, 0.015, 0.015 
104405, -0.17812946438789368, 0.8890599012374878, 170.2106170654297, 5.739999771118164, -0.8899999856948853, 0.0, 0.0, 0.0, 0.0, 0.0, 0.0, 0.0, 0.0, 0.0, 0.0, 0.0, 0.0, 0.0, 0.0, 0.0, 0.0, 0.0, 3, 35.0, 0.015, 0.015 
104405, -0.17812946438789368, 0.8890599012374878, 170.2106170654297, 5.650000095367432, -1.0199999809265137, 0.0, 0.0, 0.0, 0.0, 0.0, 0.0, 0.0, 0.0, 0.0, 0.0, 0.0, 0.0, 0.0, 0.0, 0.0, 0.0, 0.0, 3, 35.0, 0.015, 0.015 
104406, -0.15047875046730042, 0.9475417733192444, 170.2980194091797, 5.570000171661377, -1.149999976158142, 0.0, 0.0, 0.0, 0.0, 0.0, 0.0, 0.0, 0.0, 0.0, 0.0, 0.0, 0.0, 0.0, 0.0, 0.0, 0.0, 0.0, 3, 35.0, 0.015, 0.015 
104407, -0.14290910959243774, 0.8627777099609375, 170.33087158203125, 5.489999771118164, -1.2899999618530273, 0.0, 0.0, 0.0, 0.0, 0.0, 0.0, 0.0, 0.0, 0.0, 0.0, 0.0, 0.0, 0.0, 0.0, 0.0, 0.0, 0.0, 3, 35.0, 0.015, 0.015 
104409, -0.1436132937669754, 0.9390842318534851, 170.39401245117188, 5.329999923706055, -1.5499999523162842, 0.0, 0.0, 0.0, 0.0, 0.0, 0.0, 0.0, 0.0, 0.0, 0.0, 0.0, 0.0, 0.0, 0.0, 0.0, 0.0, 0.0, 3, 35.0, 0.015, 0.015 
104412, -0.2737831175327301, 0.887758195400238, 170.6025390625, 5.170000076293945, -1.8300000429153442, 0.0, 0.0, 0.0, 0.0, 0.0, 0.0, 0.0, 0.0, 0.0, 0.0, 0.0, 0.0, 0.0, 0.0, 0.0, 0.0, 0.0, 3, 35.0, 0.015, 0.015 
104414, -0.3671446740627289, 0.877727210521698, 170.72982788085938, 5.010000228881836, -2.0899999141693115, 0.0, 0.0, 0.0, 0.0, 0.0, 0.0, 0.0, 0.0, 0.0, 0.0, 0.0, 0.0, 0.0, 0.0, 0.0, 0.0, 0.0, 3, 35.0, 0.015, 0.015 
104416, -0.42858344316482544, 0.7925047278404236, 170.82647705078125, 4.760000228881836, -2.490000009536743, 0.0, 0.0, 0.0, 0.0, 0.0, 0.0, 0.0, 0.0, 0.0, 0.0, 0.0, 0.0, 0.0, 0.0, 0.0, 0.0, 0.0, 3, 35.0, 0.015, 0.015 
104418, -0.46904000639915466, 0.7211114168167114, 170.93675231933594, 4.599999904632568, -2.7300000190734863, 0.0, 0.0, 0.0, 0.0, 0.0, 0.0, 0.0, 0.0, 0.0, 0.0, 0.0, 0.0, 0.0, 0.0, 0.0, 0.0, 0.0, 3, 35.0, 0.015, 0.015 
104420, -0.5056631565093994, 0.5757218599319458, 171.03382873535156, 4.440000057220459, -2.940000057220459, 0.0, 0.0, 0.0, 0.0, 0.0, 0.0, 0.0, 0.0, 0.0, 0.0, 0.0, 0.0, 0.0, 0.0, 0.0, 0.0, 0.0, 3, 35.0, 0.015, 0.015 
104423, -0.5804694890975952, 0.5351821184158325, 171.15081787109375, 4.28000020980835, -3.119999885559082, 0.0, 0.0, 0.0, 0.0, 0.0, 0.0, 0.0, 0.0, 0.0, 0.0, 0.0, 0.0, 0.0, 0.0, 0.0, 0.0, 0.0, 3, 35.0, 0.015, 0.015 
104425, -0.6785765886306763, 0.47310516238212585, 171.27931213378906, 4.03000020980835, -3.359999895095825, 0.0, 0.0, 0.0, 0.0, 0.0, 0.0, 0.0, 0.0, 0.0, 0.0, 0.0, 0.0, 0.0, 0.0, 0.0, 0.0, 0.0, 3, 35.0, 0.015, 0.015 
104427, -0.814107358455658, 0.3082864582538605, 171.38397216796875, 3.869999885559082, -3.5, 0.0, 0.0, 0.0, 0.0, 0.0, 0.0, 0.0, 0.0, 0.0, 0.0, 0.0, 0.0, 0.0, 0.0, 0.0, 0.0, 0.0, 3, 35.0, 0.015, 0.015 
104429, -0.9537658095359802, 0.15847033262252808, 171.48655700683594, 3.7100000381469727, -3.5799999237060547, 0.0, 0.0, 0.0, 0.0, 0.0, 0.0, 0.0, 0.0, 0.0, 0.0, 0.0, 0.0, 0.0, 0.0, 0.0, 0.0, 0.0, 3, 35.0, 0.015, 0.015 
104431, -1.0716068744659424, 0.13385523855686188, 171.61865234375, 3.549999952316284, -3.630000114440918, 0.0, 0.0, 0.0, 0.0, 0.0, 0.0, 0.0, 0.0, 0.0, 0.0, 0.0, 0.0, 0.0, 0.0, 0.0, 0.0, 0.0, 3, 35.0, 0.015, 0.015 
104434, -1.2048946619033813, -0.08862676471471786, 171.77809143066406, 3.390000104904175, -3.6700000762939453, 0.0, 0.0, 0.0, 0.0, 0.0, 0.0, 0.0, 0.0, 0.0, 0.0, 0.0, 0.0, 0.0, 0.0, 0.0, 0.0, 0.0, 3, 35.0, 0.015, 0.015 
104436, -1.278622031211853, -0.24228651821613312, 171.8395538330078, 3.2200000286102295, -3.6700000762939453, 0.0, 0.0, 0.0, 0.0, 0.0, 0.0, 0.0, 0.0, 0.0, 0.0, 0.0, 0.0, 0.0, 0.0, 0.0, 0.0, 0.0, 3, 35.0, 0.015, 0.015 
104438, -1.3780224323272705, -0.3676450550556183, 171.9822540283203, 2.9800000190734863, -3.5899999141693115, 0.0, 0.0, 0.0, 0.0, 0.0, 0.0, 0.0, 0.0, 0.0, 0.0, 0.0, 0.0, 0.0, 0.0, 0.0, 0.0, 0.0, 3, 35.0, 0.015, 0.015 
104440, -1.503648281097412, -0.4713841378688812, 172.08291625976562, 2.819999933242798, -3.490000009536743, 0.0, 0.0, 0.0, 0.0, 0.0, 0.0, 0.0, 0.0, 0.0, 0.0, 0.0, 0.0, 0.0, 0.0, 0.0, 0.0, 0.0, 3, 35.0, 0.015, 0.015 
104443, -1.6864159107208252, -0.6991332173347473, 172.25035095214844, 2.6600000858306885, -3.3399999141693115, 0.0, 0.0, 0.0, 0.0, 0.0, 0.0, 0.0, 0.0, 0.0, 0.0, 0.0, 0.0, 0.0, 0.0, 0.0, 0.0, 0.0, 3, 35.0, 0.015, 0.015 
104445, -1.7893167734146118, -0.8502902984619141, 172.4132537841797, 2.490000009536743, -3.140000104904175, 0.0, 0.0, 0.0, 0.0, 0.0, 0.0, 0.0, 0.0, 0.0, 0.0, 0.0, 0.0, 0.0, 0.0, 0.0, 0.0, 0.0, 3, 35.0, 0.015, 0.015 
104447, -1.8472529649734497, -0.9119659066200256, 172.617919921875, 2.25, -2.7799999713897705, 0.0, 0.0, 0.0, 0.0, 0.0, 0.0, 0.0, 0.0, 0.0, 0.0, 0.0, 0.0, 0.0, 0.0, 0.0, 0.0, 0.0, 3, 35.0, 0.015, 0.015 
104449, -1.8717941045761108, -1.0147119760513306, 172.76776123046875, 2.0899999141693115, -2.5, 0.0, 0.0, 0.0, 0.0, 0.0, 0.0, 0.0, 0.0, 0.0, 0.0, 0.0, 0.0, 0.0, 0.0, 0.0, 0.0, 0.0, 3, 35.0, 0.015, 0.015 
104451, -1.867580533027649, -1.1754660606384277, 172.79522705078125, 1.9299999475479126, -2.180000066757202, 0.0, 0.0, 0.0, 0.0, 0.0, 0.0, 0.0, 0.0, 0.0, 0.0, 0.0, 0.0, 0.0, 0.0, 0.0, 0.0, 0.0, 3, 35.0, 0.015, 0.015 
104454, -1.8977400064468384, -1.19316565990448, 172.9670867919922, 1.7699999809265137, -1.840000033378601, 0.0, 0.0, 0.0, 0.0, 0.0, 0.0, 0.0, 0.0, 0.0, 0.0, 0.0, 0.0, 0.0, 0.0, 0.0, 0.0, 0.0, 3, 35.0, 0.015, 0.015 
104456, -1.97849702835083, -1.2846903800964355, 173.20443725585938, 1.600000023841858, -1.4900000095367432, 0.0, 0.0, 0.0, 0.0, 0.0, 0.0, 0.0, 0.0, 0.0, 0.0, 0.0, 0.0, 0.0, 0.0, 0.0, 0.0, 0.0, 3, 35.0, 0.015, 0.015 
104459, -2.095402240753174, -1.3320932388305664, 173.3426971435547, 1.3600000143051147, -0.9300000071525574, 0.0, 0.0, 0.0, 0.0, 0.0, 0.0, 0.0, 0.0, 0.0, 0.0, 0.0, 0.0, 0.0, 0.0, 0.0, 0.0, 0.0, 3, 35.0, 0.015, 0.015 
104460, -2.134559392929077, -1.4342200756072998, 173.49539184570312, 1.2000000476837158, -0.5400000214576721, 0.0, 0.0, 0.0, 0.0, 0.0, 0.0, 0.0, 0.0, 0.0, 0.0, 0.0, 0.0, 0.0, 0.0, 0.0, 0.0, 0.0, 3, 35.0, 0.015, 0.015 
104463, -2.0622074604034424, -1.2720038890838623, 173.8897705078125, 1.0399999618530273, -0.11999999731779099, 0.0, 0.0, 0.0, 0.0, 0.0, 0.0, 0.0, 0.0, 0.0, 0.0, 0.0, 0.0, 0.0, 0.0, 0.0, 0.0, 0.0, 3, 35.0, 0.015, 0.015 
104465, -1.9057103395462036, -1.2589478492736816, 173.96990966796875, 0.7900000214576721, 0.46000000834465027, 0.0, 0.0, 0.0, 0.0, 0.0, 0.0, 0.0, 0.0, 0.0, 0.0, 0.0, 0.0, 0.0, 0.0, 0.0, 0.0, 0.0, 3, 35.0, 0.015, 0.015 
104467, -1.7161791324615479, -1.3339489698410034, 173.96592712402344, 0.6299999952316284, 0.8500000238418579, 0.0, 0.0, 0.0, 0.0, 0.0, 0.0, 0.0, 0.0, 0.0, 0.0, 0.0, 0.0, 0.0, 0.0, 0.0, 0.0, 0.0, 3, 35.0, 0.015, 0.015 
104469, -1.553065299987793, -1.2728134393692017, 173.9889678955078, 0.4699999988079071, 1.2400000095367432, 0.0, 0.0, 0.0, 0.0, 0.0, 0.0, 0.0, 0.0, 0.0, 0.0, 0.0, 0.0, 0.0, 0.0, 0.0, 0.0, 0.0, 3, 35.0, 0.015, 0.015 
104471, -1.4549274444580078, -1.1525194644927979, 174.2668914794922, 0.3100000023841858, 1.6100000143051147, 0.0, 0.0, 0.0, 0.0, 0.0, 0.0, 0.0, 0.0, 0.0, 0.0, 0.0, 0.0, 0.0, 0.0, 0.0, 0.0, 0.0, 3, 35.0, 0.015, 0.015 
104474, -1.4087369441986084, -1.2728817462921143, 174.49554443359375, 0.15000000596046448, 1.9600000381469727, 0.0, 0.0, 0.0, 0.0, 0.0, 0.0, 0.0, 0.0, 0.0, 0.0, 0.0, 0.0, 0.0, 0.0, 0.0, 0.0, 0.0, 3, 35.0, 0.015, 0.015 
104476, -1.2980258464813232, -1.0414752960205078, 174.7276153564453, -0.09000000357627869, 2.5299999713897705, 0.0, 0.0, 0.0, 0.0, 0.0, 0.0, 0.0, 0.0, 0.0, 0.0, 0.0, 0.0, 0.0, 0.0, 0.0, 0.0, 0.0, 3, 35.0, 0.015, 0.015 
104478, -1.1231609582901, -0.9681977033615112, 174.9381103515625, -0.25, 2.8499999046325684, 0.0, 0.0, 0.0, 0.0, 0.0, 0.0, 0.0, 0.0, 0.0, 0.0, 0.0, 0.0, 0.0, 0.0, 0.0, 0.0, 0.0, 3, 35.0, 0.015, 0.015 
104480, -0.8909773230552673, -0.9799413681030273, 175.1270294189453, -0.41999998688697815, 3.140000104904175, 0.0, 0.0, 0.0, 0.0, 0.0, 0.0, 0.0, 0.0, 0.0, 0.0, 0.0, 0.0, 0.0, 0.0, 0.0, 0.0, 0.0, 3, 35.0, 0.015, 0.015 
104483, -0.5369141101837158, -0.6777747273445129, 175.2172393798828, -0.5799999833106995, 3.430000066757202, 0.0, 0.0, 0.0, 0.0, 0.0, 0.0, 0.0, 0.0, 0.0, 0.0, 0.0, 0.0, 0.0, 0.0, 0.0, 0.0, 0.0, 3, 35.0, 0.015, 0.015 
104485, -0.2914632558822632, -0.5299859642982483, 175.1505584716797, -0.7400000095367432, 3.6500000953674316, 0.0, 0.0, 0.0, 0.0, 0.0, 0.0, 0.0, 0.0, 0.0, 0.0, 0.0, 0.0, 0.0, 0.0, 0.0, 0.0, 0.0, 3, 35.0, 0.015, 0.015 
104487, -0.057027094066143036, -0.4923630654811859, 175.40866088867188, -0.9800000190734863, 3.9100000858306885, 0.0, 0.0, 0.0, 0.0, 0.0, 0.0, 0.0, 0.0, 0.0, 0.0, 0.0, 0.0, 0.0, 0.0, 0.0, 0.0, 0.0, 3, 35.0, 0.015, 0.015 
104489, 0.13935129344463348, -0.2614743113517761, 175.6082763671875, -1.1399999856948853, 4.039999961853027, 0.0, 0.0, 0.0, 0.0, 0.0, 0.0, 0.0, 0.0, 0.0, 0.0, 0.0, 0.0, 0.0, 0.0, 0.0, 0.0, 0.0, 3, 35.0, 0.015, 0.015 
104491, 0.27825939655303955, -0.14538438618183136, 175.63380432128906, -1.309999942779541, 4.119999885559082, 0.0, 0.0, 0.0, 0.0, 0.0, 0.0, 0.0, 0.0, 0.0, 0.0, 0.0, 0.0, 0.0, 0.0, 0.0, 0.0, 0.0, 3, 35.0, 0.015, 0.015 
104494, 0.5836255550384521, 0.08624380826950073, 176.0136260986328, -1.4700000286102295, 4.170000076293945, 0.0, 0.0, 0.0, 0.0, 0.0, 0.0, 0.0, 0.0, 0.0, 0.0, 0.0, 0.0, 0.0, 0.0, 0.0, 0.0, 0.0, 3, 35.0, 0.015, 0.015 
104496, 0.8522021770477295, 0.24321390688419342, 176.09402465820312, -1.7100000381469727, 4.150000095367432, 0.0, 0.0, 0.0, 0.0, 0.0, 0.0, 0.0, 0.0, 0.0, 0.0, 0.0, 0.0, 0.0, 0.0, 0.0, 0.0, 0.0, 3, 35.0, 0.015, 0.015 
104498, 1.1808868646621704, 0.5941597819328308, 176.12643432617188, -1.8700000047683716, 4.079999923706055, 0.0, 0.0, 0.0, 0.0, 0.0, 0.0, 0.0, 0.0, 0.0, 0.0, 0.0, 0.0, 0.0, 0.0, 0.0, 0.0, 0.0, 3, 35.0, 0.015, 0.015 
104500, 1.4915817975997925, 0.6849215626716614, 176.29698181152344, -2.0399999618530273, 3.9100000858306885, 0.0, 0.0, 0.0, 0.0, 0.0, 0.0, 0.0, 0.0, 0.0, 0.0, 0.0, 0.0, 0.0, 0.0, 0.0, 0.0, 0.0, 3, 35.0, 0.015, 0.015 
104502, 1.7510502338409424, 0.9223880171775818, 176.42051696777344, -2.200000047683716, 3.700000047683716, 0.0, 0.0, 0.0, 0.0, 0.0, 0.0, 0.0, 0.0, 0.0, 0.0, 0.0, 0.0, 0.0, 0.0, 0.0, 0.0, 0.0, 3, 35.0, 0.015, 0.015 
104505, 1.9731818437576294, 1.1204153299331665, 176.55897521972656, -2.359999895095825, 3.440000057220459, 0.0, 0.0, 0.0, 0.0, 0.0, 0.0, 0.0, 0.0, 0.0, 0.0, 0.0, 0.0, 0.0, 0.0, 0.0, 0.0, 0.0, 3, 35.0, 0.015, 0.015 
104507, 2.0809872150421143, 1.1794580221176147, 176.76466369628906, -2.5999999046325684, 2.950000047683716, 0.0, 0.0, 0.0, 0.0, 0.0, 0.0, 0.0, 0.0, 0.0, 0.0, 0.0, 0.0, 0.0, 0.0, 0.0, 0.0, 0.0, 3, 35.0, 0.015, 0.015 
104509, 2.2142510414123535, 1.1856260299682617, 176.8876495361328, -2.759999990463257, 2.5999999046325684, 0.0, 0.0, 0.0, 0.0, 0.0, 0.0, 0.0, 0.0, 0.0, 0.0, 0.0, 0.0, 0.0, 0.0, 0.0, 0.0, 0.0, 3, 35.0, 0.015, 0.015 
104511, 2.4144177436828613, 1.482311487197876, 176.98240661621094, -2.930000066757202, 2.2200000286102295, 0.0, 0.0, 0.0, 0.0, 0.0, 0.0, 0.0, 0.0, 0.0, 0.0, 0.0, 0.0, 0.0, 0.0, 0.0, 0.0, 0.0, 3, 35.0, 0.015, 0.015 
104514, 2.7750537395477295, 1.7767622470855713, 177.2232208251953, -3.0899999141693115, 1.7799999713897705, 0.0, 0.0, 0.0, 0.0, 0.0, 0.0, 0.0, 0.0, 0.0, 0.0, 0.0, 0.0, 0.0, 0.0, 0.0, 0.0, 0.0, 3, 35.0, 0.015, 0.015 
104516, 2.9244883060455322, 1.5840924978256226, 177.31271362304688, -3.3299999237060547, 1.0399999618530273, 0.0, 0.0, 0.0, 0.0, 0.0, 0.0, 0.0, 0.0, 0.0, 0.0, 0.0, 0.0, 0.0, 0.0, 0.0, 0.0, 0.0, 3, 35.0, 0.015, 0.015 
104518, 3.0037786960601807, 1.772567868232727, 177.4523468017578, -3.5, 0.5400000214576721, 0.0, 0.0, 0.0, 0.0, 0.0, 0.0, 0.0, 0.0, 0.0, 0.0, 0.0, 0.0, 0.0, 0.0, 0.0, 0.0, 0.0, 3, 35.0, 0.015, 0.015 
104520, 3.00490403175354, 1.8269822597503662, 177.64454650878906, -3.6600000858306885, 0.019999999552965164, 0.0, 0.0, 0.0, 0.0, 0.0, 0.0, 0.0, 0.0, 0.0, 0.0, 0.0, 0.0, 0.0, 0.0, 0.0, 0.0, 0.0, 3, 35.0, 0.015, 0.015 
104522, 2.9711132049560547, 1.7233012914657593, 177.7852325439453, -3.819999933242798, -0.5299999713897705, 0.0, 0.0, 0.0, 0.0, 0.0, 0.0, 0.0, 0.0, 0.0, 0.0, 0.0, 0.0, 0.0, 0.0, 0.0, 0.0, 0.0, 3, 35.0, 0.015, 0.015 
104525, 2.9835588932037354, 1.67180597782135, 177.9715118408203, -3.9800000190734863, -1.0399999618530273, 0.0, 0.0, 0.0, 0.0, 0.0, 0.0, 0.0, 0.0, 0.0, 0.0, 0.0, 0.0, 0.0, 0.0, 0.0, 0.0, 0.0, 3, 35.0, 0.015, 0.015 
104527, 3.0366933345794678, 1.8014147281646729, 178.09445190429688, -4.21999979019165, -1.7999999523162842, 0.0, 0.0, 0.0, 0.0, 0.0, 0.0, 0.0, 0.0, 0.0, 0.0, 0.0, 0.0, 0.0, 0.0, 0.0, 0.0, 0.0, 3, 35.0, 0.015, 0.015 
104529, 3.0810298919677734, 1.6413887739181519, 178.15396118164062, -4.389999866485596, -2.3299999237060547, 0.0, 0.0, 0.0, 0.0, 0.0, 0.0, 0.0, 0.0, 0.0, 0.0, 0.0, 0.0, 0.0, 0.0, 0.0, 0.0, 0.0, 3, 35.0, 0.015, 0.015 
104531, 3.0611984729766846, 1.4842896461486816, 178.23826599121094, -4.550000190734863, -2.819999933242798, 0.0, 0.0, 0.0, 0.0, 0.0, 0.0, 0.0, 0.0, 0.0, 0.0, 0.0, 0.0, 0.0, 0.0, 0.0, 0.0, 0.0, 3, 35.0, 0.015, 0.015 
104534, 2.8033077716827393, 1.306065320968628, 178.40586853027344, -4.710000038146973, -3.259999990463257, 0.0, 0.0, 0.0, 0.0, 0.0, 0.0, 0.0, 0.0, 0.0, 0.0, 0.0, 0.0, 0.0, 0.0, 0.0, 0.0, 0.0, 3, 35.0, 0.015, 0.015 
104536, 2.5489501953125, 1.1284626722335815, 178.48574829101562, -4.949999809265137, -3.859999895095825, 0.0, 0.0, 0.0, 0.0, 0.0, 0.0, 0.0, 0.0, 0.0, 0.0, 0.0, 0.0, 0.0, 0.0, 0.0, 0.0, 0.0, 3, 35.0, 0.015, 0.015 
104538, 2.2810094356536865, 0.9199818968772888, 178.60498046875, -5.110000133514404, -4.199999809265137, 0.0, 0.0, 0.0, 0.0, 0.0, 0.0, 0.0, 0.0, 0.0, 0.0, 0.0, 0.0, 0.0, 0.0, 0.0, 0.0, 0.0, 3, 35.0, 0.015, 0.015 
104540, 2.075141668319702, 0.7507922649383545, 178.69076538085938, -5.28000020980835, -4.480000019073486, 0.0, 0.0, 0.0, 0.0, 0.0, 0.0, 0.0, 0.0, 0.0, 0.0, 0.0, 0.0, 0.0, 0.0, 0.0, 0.0, 0.0, 3, 35.0, 0.015, 0.015 
104542, 1.9031275510787964, 0.5986979603767395, 178.75775146484375, -5.440000057220459, -4.710000038146973, 0.0, 0.0, 0.0, 0.0, 0.0, 0.0, 0.0, 0.0, 0.0, 0.0, 0.0, 0.0, 0.0, 0.0, 0.0, 0.0, 0.0, 3, 35.0, 0.015, 0.015 
104545, 1.7480812072753906, 0.5404396653175354, 178.74293518066406, -5.599999904632568, -4.869999885559082, 0.0, 0.0, 0.0, 0.0, 0.0, 0.0, 0.0, 0.0, 0.0, 0.0, 0.0, 0.0, 0.0, 0.0, 0.0, 0.0, 0.0, 3, 35.0, 0.015, 0.015 
104547, 1.573028326034546, 0.16746507585048676, 178.80738830566406, -5.840000152587891, -5.090000152587891, 0.0, 0.0, 0.0, 0.0, 0.0, 0.0, 0.0, 0.0, 0.0, 0.0, 0.0, 0.0, 0.0, 0.0, 0.0, 0.0, 0.0, 3, 35.0, 0.015, 0.015 
104549, 1.3301665782928467, 0.13037315011024475, 178.8911895751953, -6.0, -5.150000095367432, 0.0, 0.0, 0.0, 0.0, 0.0, 0.0, 0.0, 0.0, 0.0, 0.0, 0.0, 0.0, 0.0, 0.0, 0.0, 0.0, 0.0, 3, 35.0, 0.015, 0.015 
104551, 1.004137635231018, -0.09558822214603424, 178.9173583984375, -6.170000076293945, -5.190000057220459, 0.0, 0.0, 0.0, 0.0, 0.0, 0.0, 0.0, 0.0, 0.0, 0.0, 0.0, 0.0, 0.0, 0.0, 0.0, 0.0, 0.0, 3, 35.0, 0.015, 0.015 
104554, 0.4144193232059479, -0.43379536271095276, 179.1132354736328, -6.409999847412109, -5.110000133514404, 0.0, 0.0, 0.0, 0.0, 0.0, 0.0, 0.0, 0.0, 0.0, 0.0, 0.0, 0.0, 0.0, 0.0, 0.0, 0.0, 0.0, 3, 35.0, 0.015, 0.015 
104556, 0.12000203877687454, -0.671287477016449, 179.17340087890625, -6.570000171661377, -4.980000019073486, 0.0, 0.0, 0.0, 0.0, 0.0, 0.0, 0.0, 0.0, 0.0, 0.0, 0.0, 0.0, 0.0, 0.0, 0.0, 0.0, 0.0, 3, 35.0, 0.015, 0.015 
104559, -0.24235518276691437, -0.8908122777938843, 179.2056427001953, -6.809999942779541, -4.670000076293945, 0.0, 0.0, 0.0, 0.0, 0.0, 0.0, 0.0, 0.0, 0.0, 0.0, 0.0, 0.0, 0.0, 0.0, 0.0, 0.0, 0.0, 3, 35.0, 0.015, 0.015 
104560, -0.44823092222213745, -0.9171881675720215, 179.2943572998047, -6.900000095367432, -4.53000020980835, 0.0, 0.0, 0.0, 0.0, 0.0, 0.0, 0.0, 0.0, 0.0, 0.0, 0.0, 0.0, 0.0, 0.0, 0.0, 0.0, 0.0, 3, 35.0, 0.015, 0.015 
104563, -0.8790247440338135, -1.0337809324264526, 179.41014099121094, -7.139999866485596, -4.119999885559082, 0.0, 0.0, 0.0, 0.0, 0.0, 0.0, 0.0, 0.0, 0.0, 0.0, 0.0, 0.0, 0.0, 0.0, 0.0, 0.0, 0.0, 3, 35.0, 0.015, 0.015 
104565, -1.2172774076461792, -1.213404655456543, 179.4816436767578, -7.21999979019165, -3.9600000381469727, 0.0, 0.0, 0.0, 0.0, 0.0, 0.0, 0.0, 0.0, 0.0, 0.0, 0.0, 0.0, 0.0, 0.0, 0.0, 0.0, 0.0, 3, 35.0, 0.015, 0.015 
104567, -1.550369143486023, -1.265659213066101, 179.6259307861328, -7.460000038146973, -3.440000057220459, 0.0, 0.0, 0.0, 0.0, 0.0, 0.0, 0.0, 0.0, 0.0, 0.0, 0.0, 0.0, 0.0, 0.0, 0.0, 0.0, 0.0, 3, 35.0, 0.015, 0.015 
104569, -1.8849585056304932, -1.4128071069717407, 179.6870880126953, -7.630000114440918, -3.0399999618530273, 0.0, 0.0, 0.0, 0.0, 0.0, 0.0, 0.0, 0.0, 0.0, 0.0, 0.0, 0.0, 0.0, 0.0, 0.0, 0.0, 0.0, 3, 35.0, 0.015, 0.015 
104571, -2.2358193397521973, -1.5304027795791626, 179.77980041503906, -7.789999961853027, -2.619999885559082, 0.0, 0.0, 0.0, 0.0, 0.0, 0.0, 0.0, 0.0, 0.0, 0.0, 0.0, 0.0, 0.0, 0.0, 0.0, 0.0, 0.0, 3, 35.0, 0.015, 0.015 
104573, -2.588724374771118, -1.5945278406143188, 179.97584533691406, -7.949999809265137, -2.1600000858306885, 0.0, 0.0, 0.0, 0.0, 0.0, 0.0, 0.0, 0.0, 0.0, 0.0, 0.0, 0.0, 0.0, 0.0, 0.0, 0.0, 0.0, 3, 35.0, 0.015, 0.015 
104576, -3.095487117767334, -1.6256338357925415, -179.72412109375, -8.1899995803833, -1.399999976158142, 0.0, 0.0, 0.0, 0.0, 0.0, 0.0, 0.0, 0.0, 0.0, 0.0, 0.0, 0.0, 0.0, 0.0, 0.0, 0.0, 0.0, 3, 35.0, 0.015, 0.015 
104578, -3.3115954399108887, -1.7731373310089111, -179.46290588378906, -8.350000381469727, -0.9100000262260437, 0.0, 0.0, 0.0, 0.0, 0.0, 0.0, 0.0, 0.0, 0.0, 0.0, 0.0, 0.0, 0.0, 0.0, 0.0, 0.0, 0.0, 3, 35.0, 0.015, 0.015 
104580, -3.476224660873413, -1.7320477962493896, -179.38580322265625, -8.520000457763672, -0.3799999952316284, 0.0, 0.0, 0.0, 0.0, 0.0, 0.0, 0.0, 0.0, 0.0, 0.0, 0.0, 0.0, 0.0, 0.0, 0.0, 0.0, 0.0, 3, 35.0, 0.015, 0.015 
104582, -3.5668516159057617, -1.5837304592132568, -179.2372283935547, -8.680000305175781, 0.14000000059604645, 0.0, 0.0, 0.0, 0.0, 0.0, 0.0, 0.0, 0.0, 0.0, 0.0, 0.0, 0.0, 0.0, 0.0, 0.0, 0.0, 0.0, 3, 35.0, 0.015, 0.015 
104585, -3.5696799755096436, -1.834038496017456, -179.00816345214844, -8.84000015258789, 0.6200000047683716, 0.0, 0.0, 0.0, 0.0, 0.0, 0.0, 0.0, 0.0, 0.0, 0.0, 0.0, 0.0, 0.0, 0.0, 0.0, 0.0, 0.0, 3, 35.0, 0.015, 0.015 
104587, -3.5490384101867676, -1.5577367544174194, -178.93902587890625, -9.079999923706055, 1.409999966621399, 0.0, 0.0, 0.0, 0.0, 0.0, 0.0, 0.0, 0.0, 0.0, 0.0, 0.0, 0.0, 0.0, 0.0, 0.0, 0.0, 0.0, 3, 35.0, 0.015, 0.015 
104589, -3.5528008937835693, -1.3264468908309937, -178.92300415039062, -9.25, 1.8700000047683716, 0.0, 0.0, 0.0, 0.0, 0.0, 0.0, 0.0, 0.0, 0.0, 0.0, 0.0, 0.0, 0.0, 0.0, 0.0, 0.0, 0.0, 3, 35.0, 0.015, 0.015 
104591, -3.6121373176574707, -1.471888542175293, -178.62876892089844, -9.40999984741211, 2.2799999713897705, 0.0, 0.0, 0.0, 0.0, 0.0, 0.0, 0.0, 0.0, 0.0, 0.0, 0.0, 0.0, 0.0, 0.0, 0.0, 0.0, 0.0, 3, 35.0, 0.015, 0.015 
104593, -3.685131549835205, -1.4878402948379517, -178.387451171875, -9.569999694824219, 2.7200000286102295, 0.0, 0.0, 0.0, 0.0, 0.0, 0.0, 0.0, 0.0, 0.0, 0.0, 0.0, 0.0, 0.0, 0.0, 0.0, 0.0, 0.0, 3, 35.0, 0.015, 0.015 
104596, -3.569817543029785, -1.2291713953018188, -178.02244567871094, -9.729999542236328, 3.1500000953674316, 0.0, 0.0, 0.0, 0.0, 0.0, 0.0, 0.0, 0.0, 0.0, 0.0, 0.0, 0.0, 0.0, 0.0, 0.0, 0.0, 0.0, 3, 35.0, 0.015, 0.015 
104598, -3.4253344535827637, -1.0845834016799927, -177.8540802001953, -9.979999542236328, 3.7300000190734863, 0.0, 0.0, 0.0, 0.0, 0.0, 0.0, 0.0, 0.0, 0.0, 0.0, 0.0, 0.0, 0.0, 0.0, 0.0, 0.0, 0.0, 3, 35.0, 0.015, 0.015 
104600, -3.293937921524048, -0.8022447228431702, -177.79010009765625, -10.140000343322754, 4.050000190734863, 0.0, 0.0, 0.0, 0.0, 0.0, 0.0, 0.0, 0.0, 0.0, 0.0, 0.0, 0.0, 0.0, 0.0, 0.0, 0.0, 0.0, 3, 35.0, 0.015, 0.015 
104602, -3.212432622909546, -0.7898656725883484, -177.7656707763672, -10.300000190734863, 4.300000190734863, 0.0, 0.0, 0.0, 0.0, 0.0, 0.0, 0.0, 0.0, 0.0, 0.0, 0.0, 0.0, 0.0, 0.0, 0.0, 0.0, 0.0, 3, 35.0, 0.015, 0.015 
104605, -3.0089528560638428, -0.6006012558937073, -177.34329223632812, -10.460000038146973, 4.519999980926514, 0.0, 0.0, 0.0, 0.0, 0.0, 0.0, 0.0, 0.0, 0.0, 0.0, 0.0, 0.0, 0.0, 0.0, 0.0, 0.0, 0.0, 3, 35.0, 0.015, 0.015 
104607, -2.7482690811157227, -0.3658526837825775, -177.2022705078125, -10.699999809265137, 4.769999980926514, 0.0, 0.0, 0.0, 0.0, 0.0, 0.0, 0.0, 0.0, 0.0, 0.0, 0.0, 0.0, 0.0, 0.0, 0.0, 0.0, 0.0, 3, 35.0, 0.015, 0.015 
104609, -2.4751224517822266, -0.032477837055921555, -177.28915405273438, -10.869999885559082, 4.880000114440918, 0.0, 0.0, 0.0, 0.0, 0.0, 0.0, 0.0, 0.0, 0.0, 0.0, 0.0, 0.0, 0.0, 0.0, 0.0, 0.0, 0.0, 3, 35.0, 0.015, 0.015 
104612, -2.3654658794403076, 0.003913432825356722, -176.84861755371094, -11.109999656677246, 4.909999847412109, 0.0, 0.0, 0.0, 0.0, 0.0, 0.0, 0.0, 0.0, 0.0, 0.0, 0.0, 0.0, 0.0, 0.0, 0.0, 0.0, 0.0, 3, 35.0, 0.015, 0.015 
104613, -2.3262290954589844, -0.056307777762413025, -176.7417449951172, -11.1899995803833, 4.909999847412109, 0.0, 0.0, 0.0, 0.0, 0.0, 0.0, 0.0, 0.0, 0.0, 0.0, 0.0, 0.0, 0.0, 0.0, 0.0, 0.0, 0.0, 3, 35.0, 0.015, 0.015 
104616, -2.1235580444335938, 0.26448673009872437, -176.71969604492188, -11.430000305175781, 4.900000095367432, 0.0, 0.0, 0.0, 0.0, 0.0, 0.0, 0.0, 0.0, 0.0, 0.0, 0.0, 0.0, 0.0, 0.0, 0.0, 0.0, 0.0, 3, 35.0, 0.015, 0.015 
104618, -1.849700927734375, 0.6193066239356995, -176.5427703857422, -11.600000381469727, 4.809999942779541, 0.0, 0.0, 0.0, 0.0, 0.0, 0.0, 0.0, 0.0, 0.0, 0.0, 0.0, 0.0, 0.0, 0.0, 0.0, 0.0, 0.0, 3, 35.0, 0.015, 0.015 
104620, -1.621492862701416, 0.7007476687431335, -176.43670654296875, -11.760000228881836, 4.630000114440918, 0.0, 0.0, 0.0, 0.0, 0.0, 0.0, 0.0, 0.0, 0.0, 0.0, 0.0, 0.0, 0.0, 0.0, 0.0, 0.0, 0.0, 3, 35.0, 0.015, 0.015 
104622, -1.4939019680023193, 0.8125395774841309, -176.3885955810547, -11.920000076293945, 4.409999847412109, 0.0, 0.0, 0.0, 0.0, 0.0, 0.0, 0.0, 0.0, 0.0, 0.0, 0.0, 0.0, 0.0, 0.0, 0.0, 0.0, 0.0, 3, 35.0, 0.015, 0.015 
104625, -1.4390243291854858, 1.0591338872909546, -176.1199951171875, -12.079999923706055, 4.170000076293945, 0.0, 0.0, 0.0, 0.0, 0.0, 0.0, 0.0, 0.0, 0.0, 0.0, 0.0, 0.0, 0.0, 0.0, 0.0, 0.0, 0.0, 3, 35.0, 0.015, 0.015 
104627, -1.3970162868499756, 0.967961847782135, -175.98419189453125, -12.319999694824219, 3.740000009536743, 0.0, 0.0, 0.0, 0.0, 0.0, 0.0, 0.0, 0.0, 0.0, 0.0, 0.0, 0.0, 0.0, 0.0, 0.0, 0.0, 0.0, 3, 35.0, 0.015, 0.015 
104630, -1.2595120668411255, 0.9171191453933716, -175.84783935546875, -12.569999694824219, 3.2899999618530273, 0.0, 0.0, 0.0, 0.0, 0.0, 0.0, 0.0, 0.0, 0.0, 0.0, 0.0, 0.0, 0.0, 0.0, 0.0, 0.0, 0.0, 3, 35.0, 0.015, 0.015 
104631, -1.1933789253234863, 1.2994495630264282, -175.71926879882812, -12.649999618530273, 3.1500000953674316, 0.0, 0.0, 0.0, 0.0, 0.0, 0.0, 0.0, 0.0, 0.0, 0.0, 0.0, 0.0, 0.0, 0.0, 0.0, 0.0, 0.0, 3, 35.0, 0.015, 0.015 
104633, -1.1501939296722412, 1.3724952936172485, -175.61012268066406, -12.8100004196167, 2.7799999713897705, 0.0, 0.0, 0.0, 0.0, 0.0, 0.0, 0.0, 0.0, 0.0, 0.0, 0.0, 0.0, 0.0, 0.0, 0.0, 0.0, 0.0, 3, 35.0, 0.015, 0.015 
104641, -1.0693098306655884, 1.3835645914077759, -175.09291076660156, -13.460000038146973, 1.2300000190734863, 0.0, 0.0, 0.0, 0.0, 0.0, 0.0, 0.0, 0.0, 0.0, 0.0, 0.0, 0.0, 0.0, 0.0, 0.0, 0.0, 0.0, 3, 35.0, 0.015, 0.015 
104642, -1.0845973491668701, 1.2689721584320068, -175.03570556640625, -13.539999961853027, 1.0199999809265137, 0.0, 0.0, 0.0, 0.0, 0.0, 0.0, 0.0, 0.0, 0.0, 0.0, 0.0, 0.0, 0.0, 0.0, 0.0, 0.0, 0.0, 3, 35.0, 0.015, 0.015 
104643, -1.0961248874664307, 1.158535122871399, -174.96910095214844, -13.619999885559082, 0.8199999928474426, 0.0, 0.0, 0.0, 0.0, 0.0, 0.0, 0.0, 0.0, 0.0, 0.0, 0.0, 0.0, 0.0, 0.0, 0.0, 0.0, 0.0, 3, 35.0, 0.015, 0.015 
104644, -1.0670355558395386, 1.1222422122955322, -174.8182373046875, -13.619999885559082, 0.8199999928474426, 0.0, 0.0, 0.0, 0.0, 0.0, 0.0, 0.0, 0.0, 0.0, 0.0, 0.0, 0.0, 0.0, 0.0, 0.0, 0.0, 0.0, 3, 35.0, 0.015, 0.015 
104645, -1.0147209167480469, 1.2181472778320312, -174.643310546875, -13.699999809265137, 0.6399999856948853, 0.0, 0.0, 0.0, 0.0, 0.0, 0.0, 0.0, 0.0, 0.0, 0.0, 0.0, 0.0, 0.0, 0.0, 0.0, 0.0, 0.0, 3, 35.0, 0.015, 0.015 
104647, -0.8369539976119995, 1.3191709518432617, -174.48829650878906, -13.949999809265137, 0.10999999940395355, 0.0, 0.0, 0.0, 0.0, 0.0, 0.0, 0.0, 0.0, 0.0, 0.0, 0.0, 0.0, 0.0, 0.0, 0.0, 0.0, 0.0, 3, 35.0, 0.015, 0.015 
104649, -0.6391087770462036, 1.3743091821670532, -174.44662475585938, -14.109999656677246, -0.28999999165534973, 0.0, 0.0, 0.0, 0.0, 0.0, 0.0, 0.0, 0.0, 0.0, 0.0, 0.0, 0.0, 0.0, 0.0, 0.0, 0.0, 0.0, 3, 35.0, 0.015, 0.015 
104651, -0.48896992206573486, 1.0467231273651123, -174.42831420898438, -14.270000457763672, -0.6899999976158142, 0.0, 0.0, 0.0, 0.0, 0.0, 0.0, 0.0, 0.0, 0.0, 0.0, 0.0, 0.0, 0.0, 0.0, 0.0, 0.0, 0.0, 3, 35.0, 0.015, 0.015 
104653, -0.4163225591182709, 1.111467957496643, -174.15130615234375, -14.430000305175781, -1.0099999904632568, 0.0, 0.0, 0.0, 0.0, 0.0, 0.0, 0.0, 0.0, 0.0, 0.0, 0.0, 0.0, 0.0, 0.0, 0.0, 0.0, 0.0, 3, 35.0, 0.015, 0.015 
104656, -0.33210450410842896, 0.846595048904419, -173.85659790039062, -14.670000076293945, -1.4900000095367432, 0.0, 0.0, 0.0, 0.0, 0.0, 0.0, 0.0, 0.0, 0.0, 0.0, 0.0, 0.0, 0.0, 0.0, 0.0, 0.0, 0.0, 3, 35.0, 0.015, 0.015 
104658, -0.23827938735485077, 0.6058877110481262, -173.76817321777344, -14.84000015258789, -1.7400000095367432, 0.0, 0.0, 0.0, 0.0, 0.0, 0.0, 0.0, 0.0, 0.0, 0.0, 0.0, 0.0, 0.0, 0.0, 0.0, 0.0, 0.0, 3, 35.0, 0.015, 0.015 
104660, -0.07858061790466309, 0.7276664972305298, -173.6572723388672, -15.0, -1.9299999475479126, 0.0, 0.0, 0.0, 0.0, 0.0, 0.0, 0.0, 0.0, 0.0, 0.0, 0.0, 0.0, 0.0, 0.0, 0.0, 0.0, 0.0, 3, 35.0, 0.015, 0.015 
104662, 0.0680665448307991, 0.7248806357383728, -173.41299438476562, -15.15999984741211, -2.1500000953674316, 0.0, 0.0, 0.0, 0.0, 0.0, 0.0, 0.0, 0.0, 0.0, 0.0, 0.0, 0.0, 0.0, 0.0, 0.0, 0.0, 0.0, 3, 35.0, 0.015, 0.015 
104665, 0.2099013328552246, 0.403732031583786, -173.201171875, -15.399999618530273, -2.430000066757202, 0.0, 0.0, 0.0, 0.0, 0.0, 0.0, 0.0, 0.0, 0.0, 0.0, 0.0, 0.0, 0.0, 0.0, 0.0, 0.0, 0.0, 3, 35.0, 0.015, 0.015 
104667, 0.30800819396972656, 0.27443641424179077, -172.970458984375, -15.5600004196167, -2.549999952316284, 0.0, 0.0, 0.0, 0.0, 0.0, 0.0, 0.0, 0.0, 0.0, 0.0, 0.0, 0.0, 0.0, 0.0, 0.0, 0.0, 0.0, 3, 35.0, 0.015, 0.015 
104669, 0.4487776458263397, 0.21394796669483185, -172.8665008544922, -15.729999542236328, -2.640000104904175, 0.0, 0.0, 0.0, 0.0, 0.0, 0.0, 0.0, 0.0, 0.0, 0.0, 0.0, 0.0, 0.0, 0.0, 0.0, 0.0, 0.0, 3, 35.0, 0.015, 0.015 
104671, 0.5893055200576782, 0.19763800501823425, -172.75148010253906, -15.890000343322754, -2.700000047683716, 0.0, 0.0, 0.0, 0.0, 0.0, 0.0, 0.0, 0.0, 0.0, 0.0, 0.0, 0.0, 0.0, 0.0, 0.0, 0.0, 0.0, 3, 35.0, 0.015, 0.015 
104673, 0.6942021250724792, 0.02916065789759159, -172.5029754638672, -16.049999237060547, -2.759999990463257, 0.0, 0.0, 0.0, 0.0, 0.0, 0.0, 0.0, 0.0, 0.0, 0.0, 0.0, 0.0, 0.0, 0.0, 0.0, 0.0, 0.0, 3, 35.0, 0.015, 0.015 
104676, 0.8289368152618408, -0.08139949291944504, -172.36883544921875, -16.290000915527344, -2.7699999809265137, 0.0, 0.0, 0.0, 0.0, 0.0, 0.0, 0.0, 0.0, 0.0, 0.0, 0.0, 0.0, 0.0, 0.0, 0.0, 0.0, 0.0, 3, 35.0, 0.015, 0.015 
104678, 0.9710119962692261, -0.13534840941429138, -172.14088439941406, -16.459999084472656, -2.759999990463257, 0.0, 0.0, 0.0, 0.0, 0.0, 0.0, 0.0, 0.0, 0.0, 0.0, 0.0, 0.0, 0.0, 0.0, 0.0, 0.0, 0.0, 3, 35.0, 0.015, 0.015 
104680, 1.145215392112732, -0.17553755640983582, -171.9725799560547, -16.6200008392334, -2.7200000286102295, 0.0, 0.0, 0.0, 0.0, 0.0, 0.0, 0.0, 0.0, 0.0, 0.0, 0.0, 0.0, 0.0, 0.0, 0.0, 0.0, 0.0, 3, 35.0, 0.015, 0.015 
104682, 1.315155029296875, -0.19196680188179016, -171.91012573242188, -16.780000686645508, -2.6700000762939453, 0.0, 0.0, 0.0, 0.0, 0.0, 0.0, 0.0, 0.0, 0.0, 0.0, 0.0, 0.0, 0.0, 0.0, 0.0, 0.0, 0.0, 3, 35.0, 0.015, 0.015 
104684, 1.4806722402572632, -0.2742689847946167, -171.7784423828125, -16.940000534057617, -2.609999895095825, 0.0, 0.0, 0.0, 0.0, 0.0, 0.0, 0.0, 0.0, 0.0, 0.0, 0.0, 0.0, 0.0, 0.0, 0.0, 0.0, 0.0, 3, 35.0, 0.015, 0.015 
104687, 1.6835910081863403, -0.3824574053287506, -171.50753784179688, -17.18000030517578, -2.490000009536743, 0.0, 0.0, 0.0, 0.0, 0.0, 0.0, 0.0, 0.0, 0.0, 0.0, 0.0, 0.0, 0.0, 0.0, 0.0, 0.0, 0.0, 3, 35.0, 0.015, 0.015 
104689, 1.7657936811447144, -0.41842150688171387, -171.37757873535156, -17.350000381469727, -2.380000114440918, 0.0, 0.0, 0.0, 0.0, 0.0, 0.0, 0.0, 0.0, 0.0, 0.0, 0.0, 0.0, 0.0, 0.0, 0.0, 0.0, 0.0, 3, 35.0, 0.015, 0.015 
104691, 1.8203387260437012, -0.5047809481620789, -171.12843322753906, -17.510000228881836, -2.259999990463257, 0.0, 0.0, 0.0, 0.0, 0.0, 0.0, 0.0, 0.0, 0.0, 0.0, 0.0, 0.0, 0.0, 0.0, 0.0, 0.0, 0.0, 3, 35.0, 0.015, 0.015 
104693, 1.8975024223327637, -0.6256310343742371, -171.0688934326172, -17.670000076293945, -2.109999895095825, 0.0, 0.0, 0.0, 0.0, 0.0, 0.0, 0.0, 0.0, 0.0, 0.0, 0.0, 0.0, 0.0, 0.0, 0.0, 0.0, 0.0, 3, 35.0, 0.015, 0.015 
104696, 1.9993869066238403, -0.5471200942993164, -170.82777404785156, -17.829999923706055, -1.9299999475479126, 0.0, 0.0, 0.0, 0.0, 0.0, 0.0, 0.0, 0.0, 0.0, 0.0, 0.0, 0.0, 0.0, 0.0, 0.0, 0.0, 0.0, 3, 35.0, 0.015, 0.015 
104698, 2.0855796337127686, -0.4355907142162323, -170.65042114257812, -18.079999923706055, -1.6799999475479126, 0.0, 0.0, 0.0, 0.0, 0.0, 0.0, 0.0, 0.0, 0.0, 0.0, 0.0, 0.0, 0.0, 0.0, 0.0, 0.0, 0.0, 3, 35.0, 0.015, 0.015 
104700, 2.162003993988037, -0.5970382690429688, -170.60987854003906, -18.239999771118164, -1.5399999618530273, 0.0, 0.0, 0.0, 0.0, 0.0, 0.0, 0.0, 0.0, 0.0, 0.0, 0.0, 0.0, 0.0, 0.0, 0.0, 0.0, 0.0, 3, 35.0, 0.015, 0.015 
104702, 2.208670139312744, -0.5337116122245789, -170.41497802734375, -18.399999618530273, -1.3700000047683716, 0.0, 0.0, 0.0, 0.0, 0.0, 0.0, 0.0, 0.0, 0.0, 0.0, 0.0, 0.0, 0.0, 0.0, 0.0, 0.0, 0.0, 3, 35.0, 0.015, 0.015 
104704, 2.2059173583984375, -0.44821897149086, -170.2466278076172, -18.559999465942383, -1.2100000381469727, 0.0, 0.0, 0.0, 0.0, 0.0, 0.0, 0.0, 0.0, 0.0, 0.0, 0.0, 0.0, 0.0, 0.0, 0.0, 0.0, 0.0, 3, 35.0, 0.015, 0.015 
104707, 2.0892529487609863, -0.5392463803291321, -170.0657958984375, -18.809999465942383, -0.9599999785423279, 0.0, 0.0, 0.0, 0.0, 0.0, 0.0, 0.0, 0.0, 0.0, 0.0, 0.0, 0.0, 0.0, 0.0, 0.0, 0.0, 0.0, 3, 35.0, 0.015, 0.015 
104709, 1.9761936664581299, -0.6029149293899536, -169.84469604492188, -18.969999313354492, -0.7900000214576721, 0.0, 0.0, 0.0, 0.0, 0.0, 0.0, 0.0, 0.0, 0.0, 0.0, 0.0, 0.0, 0.0, 0.0, 0.0, 0.0, 0.0, 3, 35.0, 0.015, 0.015 
104711, 1.8870733976364136, -0.599014163017273, -169.73655700683594, -19.1299991607666, -0.6200000047683716, 0.0, 0.0, 0.0, 0.0, 0.0, 0.0, 0.0, 0.0, 0.0, 0.0, 0.0, 0.0, 0.0, 0.0, 0.0, 0.0, 0.0, 3, 35.0, 0.015, 0.015 
104713, 1.774764895439148, -0.453856498003006, -169.6138458251953, -19.290000915527344, -0.4399999976158142, 0.0, 0.0, 0.0, 0.0, 0.0, 0.0, 0.0, 0.0, 0.0, 0.0, 0.0, 0.0, 0.0, 0.0, 0.0, 0.0, 0.0, 3, 35.0, 0.015, 0.015 
104716, 1.5278911590576172, -0.44021478295326233, -169.35850524902344, -19.530000686645508, -0.2199999988079071, 0.0, 0.0, 0.0, 0.0, 0.0, 0.0, 0.0, 0.0, 0.0, 0.0, 0.0, 0.0, 0.0, 0.0, 0.0, 0.0, 0.0, 3, 35.0, 0.015, 0.015 
104718, 1.2569693326950073, -0.6474324464797974, -169.2501220703125, -19.700000762939453, -0.07000000029802322, 0.0, 0.0, 0.0, 0.0, 0.0, 0.0, 0.0, 0.0, 0.0, 0.0, 0.0, 0.0, 0.0, 0.0, 0.0, 0.0, 0.0, 3, 35.0, 0.015, 0.015 
104720, 0.9378610253334045, -0.45954629778862, -169.01612854003906, -19.860000610351562, 0.10999999940395355, 0.0, 0.0, 0.0, 0.0, 0.0, 0.0, 0.0, 0.0, 0.0, 0.0, 0.0, 0.0, 0.0, 0.0, 0.0, 0.0, 0.0, 3, 35.0, 0.015, 0.015 
104725, 0.16220907866954803, -0.4217723608016968, -168.6017303466797, -20.260000228881836, 0.4699999988079071, 0.0, 0.0, 0.0, 0.0, 0.0, 0.0, 0.0, 0.0, 0.0, 0.0, 0.0, 0.0, 0.0, 0.0, 0.0, 0.0, 0.0, 3, 35.0, 0.015, 0.015 
104727, -0.14594261348247528, -0.25925254821777344, -168.35195922851562, -20.43000030517578, 0.6200000047683716, 0.0, 0.0, 0.0, 0.0, 0.0, 0.0, 0.0, 0.0, 0.0, 0.0, 0.0, 0.0, 0.0, 0.0, 0.0, 0.0, 0.0, 3, 35.0, 0.015, 0.015 
104732, -1.0137203931808472, -0.1790030300617218, -167.9652862548828, -20.829999923706055, 0.800000011920929, 0.0, 0.0, 0.0, 0.0, 0.0, 0.0, 0.0, 0.0, 0.0, 0.0, 0.0, 0.0, 0.0, 0.0, 0.0, 0.0, 0.0, 3, 35.0, 0.015, 0.015 
104733, -1.271047830581665, -0.14122779667377472, -167.79527282714844, -20.90999984741211, 0.8299999833106995, 0.0, 0.0, 0.0, 0.0, 0.0, 0.0, 0.0, 0.0, 0.0, 0.0, 0.0, 0.0, 0.0, 0.0, 0.0, 0.0, 0.0, 3, 35.0, 0.015, 0.015 
104734, -1.4021461009979248, -0.11385585367679596, -167.72528076171875, -20.989999771118164, 0.8600000143051147, 0.0, 0.0, 0.0, 0.0, 0.0, 0.0, 0.0, 0.0, 0.0, 0.0, 0.0, 0.0, 0.0, 0.0, 0.0, 0.0, 0.0, 3, 35.0, 0.015, 0.015 
104734, -1.4021461009979248, -0.11385585367679596, -167.72528076171875, -20.989999771118164, 0.8600000143051147, 0.0, 0.0, 0.0, 0.0, 0.0, 0.0, 0.0, 0.0, 0.0, 0.0, 0.0, 0.0, 0.0, 0.0, 0.0, 0.0, 0.0, 3, 35.0, 0.015, 0.015 
104736, -1.7803621292114258, -0.04702082648873329, -167.5808563232422, -21.15999984741211, 0.8999999761581421, 0.0, 0.0, 0.0, 0.0, 0.0, 0.0, 0.0, 0.0, 0.0, 0.0, 0.0, 0.0, 0.0, 0.0, 0.0, 0.0, 0.0, 3, 35.0, 0.015, 0.015 
104738, -2.1828200817108154, -0.022871654480695724, -167.40875244140625, -21.31999969482422, 0.9200000166893005, 0.0, 0.0, 0.0, 0.0, 0.0, 0.0, 0.0, 0.0, 0.0, 0.0, 0.0, 0.0, 0.0, 0.0, 0.0, 0.0, 0.0, 3, 35.0, 0.015, 0.015 
104740, -2.6109979152679443, 0.016900768503546715, -167.16827392578125, -21.479999542236328, 0.9200000166893005, 0.0, 0.0, 0.0, 0.0, 0.0, 0.0, 0.0, 0.0, 0.0, 0.0, 0.0, 0.0, 0.0, 0.0, 0.0, 0.0, 0.0, 3, 35.0, 0.015, 0.015 
104742, -3.00586199760437, 0.07904283702373505, -166.9843292236328, -21.639999389648438, 0.9200000166893005, 0.0, 0.0, 0.0, 0.0, 0.0, 0.0, 0.0, 0.0, 0.0, 0.0, 0.0, 0.0, 0.0, 0.0, 0.0, 0.0, 0.0, 3, 35.0, 0.015, 0.015 
104744, -3.398827314376831, 0.20585110783576965, -166.83177185058594, -21.799999237060547, 0.8999999761581421, 0.0, 0.0, 0.0, 0.0, 0.0, 0.0, 0.0, 0.0, 0.0, 0.0, 0.0, 0.0, 0.0, 0.0, 0.0, 0.0, 0.0, 3, 35.0, 0.015, 0.015 
104747, -4.062470436096191, 0.2315792441368103, -166.49334716796875, -22.049999237060547, 0.8299999833106995, 0.0, 0.0, 0.0, 0.0, 0.0, 0.0, 0.0, 0.0, 0.0, 0.0, 0.0, 0.0, 0.0, 0.0, 0.0, 0.0, 0.0, 3, 35.0, 0.015, 0.015 
104749, -4.516847133636475, 0.2623221278190613, -166.33599853515625, -22.209999084472656, 0.7699999809265137, 0.0, 0.0, 0.0, 0.0, 0.0, 0.0, 0.0, 0.0, 0.0, 0.0, 0.0, 0.0, 0.0, 0.0, 0.0, 0.0, 0.0, 3, 35.0, 0.015, 0.015 
104752, -5.076702117919922, 0.162593275308609, -166.0205078125, -22.450000762939453, 0.6499999761581421, 0.0, 0.0, 0.0, 0.0, 0.0, 0.0, 0.0, 0.0, 0.0, 0.0, 0.0, 0.0, 0.0, 0.0, 0.0, 0.0, 0.0, 3, 35.0, 0.015, 0.015 
