counter, roll, pitch, yaw, pan, tilt, lati, longi, timestp, heading, rateofturn, cog, sog2, sow, sog, temp, humidity, pressure, wind_speed, wind_angle, bb_roll, bb_pitch, bb_yaw, proc_ptu_mode, proc_colav_limit, proc_colav_speed, proc_surveil_speed
68604, 0.06258799880743027, -0.2963702380657196, 101.19190979003906, -0.009999999776482582, 0.75, 0.0, 0.0, 0.0, 0.0, 0.0, 0.0, 0.0, 0.0, 0.0, 0.0, 0.0, 0.0, 0.0, 0.0, 0.0, 0.0, 0.0, 1, 35.0, 0.015, 0.015 
68607, 0.13527444005012512, -0.30462446808815, 101.03565216064453, -0.009999999776482582, 0.8899999856948853, 0.0, 0.0, 0.0, 0.0, 0.0, 0.0, 0.0, 0.0, 0.0, 0.0, 0.0, 0.0, 0.0, 0.0, 0.0, 0.0, 0.0, 1, 35.0, 0.015, 0.015 
68607, 0.13527444005012512, -0.30462446808815, 101.03565216064453, -0.009999999776482582, 0.8899999856948853, 0.0, 0.0, 0.0, 0.0, 0.0, 0.0, 0.0, 0.0, 0.0, 0.0, 0.0, 0.0, 0.0, 0.0, 0.0, 0.0, 0.0, 1, 35.0, 0.015, 0.015 
68608, 0.14978958666324615, -0.22973762452602386, 100.992431640625, -0.009999999776482582, 0.9399999976158142, 0.0, 0.0, 0.0, 0.0, 0.0, 0.0, 0.0, 0.0, 0.0, 0.0, 0.0, 0.0, 0.0, 0.0, 0.0, 0.0, 0.0, 1, 35.0, 0.015, 0.015 
68609, 0.14752891659736633, -0.21160583198070526, 100.9742202758789, -0.009999999776482582, 0.9800000190734863, 0.0, 0.0, 0.0, 0.0, 0.0, 0.0, 0.0, 0.0, 0.0, 0.0, 0.0, 0.0, 0.0, 0.0, 0.0, 0.0, 0.0, 1, 35.0, 0.015, 0.015 
68612, 0.0923127681016922, -0.2781698703765869, 100.88372802734375, -0.009999999776482582, 1.0399999618530273, 0.0, 0.0, 0.0, 0.0, 0.0, 0.0, 0.0, 0.0, 0.0, 0.0, 0.0, 0.0, 0.0, 0.0, 0.0, 0.0, 0.0, 1, 35.0, 0.015, 0.015 
68614, 0.04604071006178856, -0.2054775208234787, 100.8568344116211, -0.009999999776482582, 1.1100000143051147, 0.0, 0.0, 0.0, 0.0, 0.0, 0.0, 0.0, 0.0, 0.0, 0.0, 0.0, 0.0, 0.0, 0.0, 0.0, 0.0, 0.0, 1, 35.0, 0.015, 0.015 
68616, -0.021320095285773277, -0.09711749106645584, 100.8663330078125, -0.009999999776482582, 1.2200000286102295, 0.0, 0.0, 0.0, 0.0, 0.0, 0.0, 0.0, 0.0, 0.0, 0.0, 0.0, 0.0, 0.0, 0.0, 0.0, 0.0, 0.0, 1, 35.0, 0.015, 0.015 
68618, -0.12725353240966797, -0.20173045992851257, 100.8165283203125, -0.009999999776482582, 1.2400000095367432, 0.0, 0.0, 0.0, 0.0, 0.0, 0.0, 0.0, 0.0, 0.0, 0.0, 0.0, 0.0, 0.0, 0.0, 0.0, 0.0, 0.0, 1, 35.0, 0.015, 0.015 
68621, -0.2769503593444824, -0.13605788350105286, 100.8413314819336, -0.009999999776482582, 1.2899999618530273, 0.0, 0.0, 0.0, 0.0, 0.0, 0.0, 0.0, 0.0, 0.0, 0.0, 0.0, 0.0, 0.0, 0.0, 0.0, 0.0, 0.0, 1, 35.0, 0.015, 0.015 
68623, -0.342471182346344, -0.05061352625489235, 100.90653228759766, -0.009999999776482582, 1.340000033378601, 0.0, 0.0, 0.0, 0.0, 0.0, 0.0, 0.0, 0.0, 0.0, 0.0, 0.0, 0.0, 0.0, 0.0, 0.0, 0.0, 0.0, 1, 35.0, 0.015, 0.015 
68625, -0.44528985023498535, -0.0539214201271534, 100.8466796875, -0.009999999776482582, 1.3700000047683716, 0.0, 0.0, 0.0, 0.0, 0.0, 0.0, 0.0, 0.0, 0.0, 0.0, 0.0, 0.0, 0.0, 0.0, 0.0, 0.0, 0.0, 1, 35.0, 0.015, 0.015 
68627, -0.5184414386749268, -0.03236548230051994, 100.79340362548828, -0.009999999776482582, 1.3799999952316284, 0.0, 0.0, 0.0, 0.0, 0.0, 0.0, 0.0, 0.0, 0.0, 0.0, 0.0, 0.0, 0.0, 0.0, 0.0, 0.0, 0.0, 1, 35.0, 0.015, 0.015 
68629, -0.6658308506011963, -0.00011695141438394785, 100.80889892578125, -0.009999999776482582, 1.3799999952316284, 0.0, 0.0, 0.0, 0.0, 0.0, 0.0, 0.0, 0.0, 0.0, 0.0, 0.0, 0.0, 0.0, 0.0, 0.0, 0.0, 0.0, 1, 35.0, 0.015, 0.015 
68632, -1.0358567237854004, 0.004417851101607084, 100.84434509277344, -0.009999999776482582, 1.3799999952316284, 0.0, 0.0, 0.0, 0.0, 0.0, 0.0, 0.0, 0.0, 0.0, 0.0, 0.0, 0.0, 0.0, 0.0, 0.0, 0.0, 0.0, 1, 35.0, 0.015, 0.015 
68634, -1.2265061140060425, -0.03515550121665001, 100.9626693725586, -0.009999999776482582, 1.3799999952316284, 0.0, 0.0, 0.0, 0.0, 0.0, 0.0, 0.0, 0.0, 0.0, 0.0, 0.0, 0.0, 0.0, 0.0, 0.0, 0.0, 0.0, 1, 35.0, 0.015, 0.015 
68636, -1.3823492527008057, -0.013491922989487648, 101.02699279785156, -0.009999999776482582, 1.3799999952316284, 0.0, 0.0, 0.0, 0.0, 0.0, 0.0, 0.0, 0.0, 0.0, 0.0, 0.0, 0.0, 0.0, 0.0, 0.0, 0.0, 0.0, 1, 35.0, 0.015, 0.015 
68638, -1.5511279106140137, 0.029660765081644058, 101.04935455322266, -0.009999999776482582, 1.3799999952316284, 0.0, 0.0, 0.0, 0.0, 0.0, 0.0, 0.0, 0.0, 0.0, 0.0, 0.0, 0.0, 0.0, 0.0, 0.0, 0.0, 0.0, 1, 35.0, 0.015, 0.015 
68641, -1.8208247423171997, 0.009660701267421246, 101.08892822265625, -0.009999999776482582, 1.3799999952316284, 0.0, 0.0, 0.0, 0.0, 0.0, 0.0, 0.0, 0.0, 0.0, 0.0, 0.0, 0.0, 0.0, 0.0, 0.0, 0.0, 0.0, 1, 35.0, 0.015, 0.015 
68643, -2.02732515335083, 0.06753119081258774, 101.11797332763672, -0.009999999776482582, 1.3799999952316284, 0.0, 0.0, 0.0, 0.0, 0.0, 0.0, 0.0, 0.0, 0.0, 0.0, 0.0, 0.0, 0.0, 0.0, 0.0, 0.0, 0.0, 1, 35.0, 0.015, 0.015 
68645, -2.1983206272125244, 0.05474003776907921, 101.1574935913086, -0.009999999776482582, 1.3799999952316284, 0.0, 0.0, 0.0, 0.0, 0.0, 0.0, 0.0, 0.0, 0.0, 0.0, 0.0, 0.0, 0.0, 0.0, 0.0, 0.0, 0.0, 1, 35.0, 0.015, 0.015 
68647, -2.311781883239746, 0.06226858124136925, 101.2060775756836, -0.009999999776482582, 1.3799999952316284, 0.0, 0.0, 0.0, 0.0, 0.0, 0.0, 0.0, 0.0, 0.0, 0.0, 0.0, 0.0, 0.0, 0.0, 0.0, 0.0, 0.0, 1, 35.0, 0.015, 0.015 
68649, -2.390110969543457, 0.08162595331668854, 101.19996643066406, -0.009999999776482582, 1.3799999952316284, 0.0, 0.0, 0.0, 0.0, 0.0, 0.0, 0.0, 0.0, 0.0, 0.0, 0.0, 0.0, 0.0, 0.0, 0.0, 0.0, 0.0, 1, 35.0, 0.015, 0.015 
68652, -2.5519068241119385, 0.0900036171078682, 101.26950073242188, -0.009999999776482582, 1.3799999952316284, 0.0, 0.0, 0.0, 0.0, 0.0, 0.0, 0.0, 0.0, 0.0, 0.0, 0.0, 0.0, 0.0, 0.0, 0.0, 0.0, 0.0, 1, 35.0, 0.015, 0.015 
68654, -2.6841378211975098, 0.09513096511363983, 101.31649017333984, -0.009999999776482582, 1.3799999952316284, 0.0, 0.0, 0.0, 0.0, 0.0, 0.0, 0.0, 0.0, 0.0, 0.0, 0.0, 0.0, 0.0, 0.0, 0.0, 0.0, 0.0, 1, 35.0, 0.015, 0.015 
68656, -2.8072290420532227, 0.0721454992890358, 101.34069061279297, -0.009999999776482582, 1.3600000143051147, 0.0, 0.0, 0.0, 0.0, 0.0, 0.0, 0.0, 0.0, 0.0, 0.0, 0.0, 0.0, 0.0, 0.0, 0.0, 0.0, 0.0, 1, 35.0, 0.015, 0.015 
68659, -2.926276683807373, 0.09271202981472015, 101.43729400634766, -0.009999999776482582, 1.3600000143051147, 0.0, 0.0, 0.0, 0.0, 0.0, 0.0, 0.0, 0.0, 0.0, 0.0, 0.0, 0.0, 0.0, 0.0, 0.0, 0.0, 0.0, 1, 35.0, 0.015, 0.015 
68661, -2.9664835929870605, 0.09240129590034485, 101.4644546508789, -0.009999999776482582, 1.3600000143051147, 0.0, 0.0, 0.0, 0.0, 0.0, 0.0, 0.0, 0.0, 0.0, 0.0, 0.0, 0.0, 0.0, 0.0, 0.0, 0.0, 0.0, 1, 35.0, 0.015, 0.015 
68663, -2.996936082839966, 0.11704213172197342, 101.4745101928711, -0.009999999776482582, 1.3600000143051147, 0.0, 0.0, 0.0, 0.0, 0.0, 0.0, 0.0, 0.0, 0.0, 0.0, 0.0, 0.0, 0.0, 0.0, 0.0, 0.0, 0.0, 1, 35.0, 0.015, 0.015 
68665, -3.0366768836975098, 0.14553993940353394, 101.54637908935547, -0.009999999776482582, 1.3200000524520874, 0.0, 0.0, 0.0, 0.0, 0.0, 0.0, 0.0, 0.0, 0.0, 0.0, 0.0, 0.0, 0.0, 0.0, 0.0, 0.0, 0.0, 1, 35.0, 0.015, 0.015 
68667, -3.073312282562256, 0.09573877602815628, 101.58097839355469, -0.009999999776482582, 1.2799999713897705, 0.0, 0.0, 0.0, 0.0, 0.0, 0.0, 0.0, 0.0, 0.0, 0.0, 0.0, 0.0, 0.0, 0.0, 0.0, 0.0, 0.0, 1, 35.0, 0.015, 0.015 
68669, -3.1077723503112793, 0.07598418742418289, 101.6058578491211, -0.009999999776482582, 1.2599999904632568, 0.0, 0.0, 0.0, 0.0, 0.0, 0.0, 0.0, 0.0, 0.0, 0.0, 0.0, 0.0, 0.0, 0.0, 0.0, 0.0, 0.0, 1, 35.0, 0.015, 0.015 
68672, -3.1313130855560303, 0.04022073373198509, 101.6961898803711, -0.009999999776482582, 1.2599999904632568, 0.0, 0.0, 0.0, 0.0, 0.0, 0.0, 0.0, 0.0, 0.0, 0.0, 0.0, 0.0, 0.0, 0.0, 0.0, 0.0, 0.0, 1, 35.0, 0.015, 0.015 
68674, -3.1249911785125732, 0.031184017658233643, 101.73472595214844, -0.009999999776482582, 1.2599999904632568, 0.0, 0.0, 0.0, 0.0, 0.0, 0.0, 0.0, 0.0, 0.0, 0.0, 0.0, 0.0, 0.0, 0.0, 0.0, 0.0, 0.0, 1, 35.0, 0.015, 0.015 
68676, -3.1080539226531982, 0.002899457700550556, 101.76919555664062, -0.009999999776482582, 1.2599999904632568, 0.0, 0.0, 0.0, 0.0, 0.0, 0.0, 0.0, 0.0, 0.0, 0.0, 0.0, 0.0, 0.0, 0.0, 0.0, 0.0, 0.0, 1, 35.0, 0.015, 0.015 
68678, -3.0806312561035156, -0.025359706953167915, 101.80921173095703, -0.009999999776482582, 1.2599999904632568, 0.0, 0.0, 0.0, 0.0, 0.0, 0.0, 0.0, 0.0, 0.0, 0.0, 0.0, 0.0, 0.0, 0.0, 0.0, 0.0, 0.0, 1, 35.0, 0.015, 0.015 
68681, -3.0120348930358887, -0.061861615628004074, 101.86149597167969, -0.009999999776482582, 1.2599999904632568, 0.0, 0.0, 0.0, 0.0, 0.0, 0.0, 0.0, 0.0, 0.0, 0.0, 0.0, 0.0, 0.0, 0.0, 0.0, 0.0, 0.0, 1, 35.0, 0.015, 0.015 
68683, -2.9349639415740967, -0.06666481494903564, 101.88618469238281, -0.009999999776482582, 1.2599999904632568, 0.0, 0.0, 0.0, 0.0, 0.0, 0.0, 0.0, 0.0, 0.0, 0.0, 0.0, 0.0, 0.0, 0.0, 0.0, 0.0, 0.0, 1, 35.0, 0.015, 0.015 
68685, -2.8685965538024902, -0.11018169671297073, 101.91361999511719, -0.009999999776482582, 1.2599999904632568, 0.0, 0.0, 0.0, 0.0, 0.0, 0.0, 0.0, 0.0, 0.0, 0.0, 0.0, 0.0, 0.0, 0.0, 0.0, 0.0, 0.0, 1, 35.0, 0.015, 0.015 
68687, -2.82775616645813, -0.16812074184417725, 101.94959259033203, -0.009999999776482582, 1.2899999618530273, 0.0, 0.0, 0.0, 0.0, 0.0, 0.0, 0.0, 0.0, 0.0, 0.0, 0.0, 0.0, 0.0, 0.0, 0.0, 0.0, 0.0, 1, 35.0, 0.015, 0.015 
68689, -2.802081823348999, -0.1856953501701355, 101.98609924316406, -0.009999999776482582, 1.340000033378601, 0.0, 0.0, 0.0, 0.0, 0.0, 0.0, 0.0, 0.0, 0.0, 0.0, 0.0, 0.0, 0.0, 0.0, 0.0, 0.0, 0.0, 1, 35.0, 0.015, 0.015 
68692, -2.7007956504821777, -0.17002218961715698, 102.05795288085938, -0.009999999776482582, 1.3899999856948853, 0.0, 0.0, 0.0, 0.0, 0.0, 0.0, 0.0, 0.0, 0.0, 0.0, 0.0, 0.0, 0.0, 0.0, 0.0, 0.0, 0.0, 1, 35.0, 0.015, 0.015 
68694, -2.588524103164673, -0.1673305332660675, 102.07158660888672, -0.009999999776482582, 1.440000057220459, 0.0, 0.0, 0.0, 0.0, 0.0, 0.0, 0.0, 0.0, 0.0, 0.0, 0.0, 0.0, 0.0, 0.0, 0.0, 0.0, 0.0, 1, 35.0, 0.015, 0.015 
68697, -2.451272487640381, -0.14231428503990173, 102.12503814697266, -0.009999999776482582, 1.5299999713897705, 0.0, 0.0, 0.0, 0.0, 0.0, 0.0, 0.0, 0.0, 0.0, 0.0, 0.0, 0.0, 0.0, 0.0, 0.0, 0.0, 0.0, 1, 35.0, 0.015, 0.015 
68698, -2.44172739982605, -0.12774842977523804, 102.13336944580078, -0.009999999776482582, 1.5499999523162842, 0.0, 0.0, 0.0, 0.0, 0.0, 0.0, 0.0, 0.0, 0.0, 0.0, 0.0, 0.0, 0.0, 0.0, 0.0, 0.0, 0.0, 1, 35.0, 0.015, 0.015 
68700, -2.4281017780303955, -0.14205308258533478, 102.16459655761719, -0.009999999776482582, 1.590000033378601, 0.0, 0.0, 0.0, 0.0, 0.0, 0.0, 0.0, 0.0, 0.0, 0.0, 0.0, 0.0, 0.0, 0.0, 0.0, 0.0, 0.0, 1, 35.0, 0.015, 0.015 
68703, -2.3965907096862793, -0.136050283908844, 102.27554321289062, -0.009999999776482582, 1.6299999952316284, 0.0, 0.0, 0.0, 0.0, 0.0, 0.0, 0.0, 0.0, 0.0, 0.0, 0.0, 0.0, 0.0, 0.0, 0.0, 0.0, 0.0, 1, 35.0, 0.015, 0.015 
68707, -2.266334295272827, -0.11073744297027588, 102.3782730102539, -0.009999999776482582, 1.7000000476837158, 0.0, 0.0, 0.0, 0.0, 0.0, 0.0, 0.0, 0.0, 0.0, 0.0, 0.0, 0.0, 0.0, 0.0, 0.0, 0.0, 0.0, 1, 35.0, 0.015, 0.015 
68709, -2.2302908897399902, -0.1348998099565506, 102.40238952636719, -0.009999999776482582, 1.7400000095367432, 0.0, 0.0, 0.0, 0.0, 0.0, 0.0, 0.0, 0.0, 0.0, 0.0, 0.0, 0.0, 0.0, 0.0, 0.0, 0.0, 0.0, 1, 35.0, 0.015, 0.015 
68709, -2.2302908897399902, -0.1348998099565506, 102.40238952636719, -0.009999999776482582, 1.7400000095367432, 0.0, 0.0, 0.0, 0.0, 0.0, 0.0, 0.0, 0.0, 0.0, 0.0, 0.0, 0.0, 0.0, 0.0, 0.0, 0.0, 0.0, 1, 35.0, 0.015, 0.015 
68712, -2.1881322860717773, -0.04816287383437157, 102.48686981201172, -0.009999999776482582, 1.7799999713897705, 0.0, 0.0, 0.0, 0.0, 0.0, 0.0, 0.0, 0.0, 0.0, 0.0, 0.0, 0.0, 0.0, 0.0, 0.0, 0.0, 0.0, 1, 35.0, 0.015, 0.015 
68714, -2.1451101303100586, -0.10462091118097305, 102.51560974121094, -0.009999999776482582, 1.7999999523162842, 0.0, 0.0, 0.0, 0.0, 0.0, 0.0, 0.0, 0.0, 0.0, 0.0, 0.0, 0.0, 0.0, 0.0, 0.0, 0.0, 0.0, 1, 35.0, 0.015, 0.015 
68716, -2.1006624698638916, -0.12467502802610397, 102.55783081054688, -0.009999999776482582, 1.8200000524520874, 0.0, 0.0, 0.0, 0.0, 0.0, 0.0, 0.0, 0.0, 0.0, 0.0, 0.0, 0.0, 0.0, 0.0, 0.0, 0.0, 0.0, 1, 35.0, 0.015, 0.015 
68718, -2.0881636142730713, -0.08584204316139221, 102.59233093261719, -0.009999999776482582, 1.850000023841858, 0.0, 0.0, 0.0, 0.0, 0.0, 0.0, 0.0, 0.0, 0.0, 0.0, 0.0, 0.0, 0.0, 0.0, 0.0, 0.0, 0.0, 1, 35.0, 0.015, 0.015 
68721, -2.159637212753296, -0.1337762326002121, 102.68511962890625, -0.009999999776482582, 1.850000023841858, 0.0, 0.0, 0.0, 0.0, 0.0, 0.0, 0.0, 0.0, 0.0, 0.0, 0.0, 0.0, 0.0, 0.0, 0.0, 0.0, 0.0, 1, 35.0, 0.015, 0.015 
68724, -2.184061050415039, -0.10345522314310074, 102.7769546508789, -0.009999999776482582, 1.899999976158142, 0.0, 0.0, 0.0, 0.0, 0.0, 0.0, 0.0, 0.0, 0.0, 0.0, 0.0, 0.0, 0.0, 0.0, 0.0, 0.0, 0.0, 1, 35.0, 0.015, 0.015 
68725, -2.168031692504883, -0.09517057240009308, 102.76087188720703, -0.009999999776482582, 1.9299999475479126, 0.0, 0.0, 0.0, 0.0, 0.0, 0.0, 0.0, 0.0, 0.0, 0.0, 0.0, 0.0, 0.0, 0.0, 0.0, 0.0, 0.0, 1, 35.0, 0.015, 0.015 
68730, -2.2072088718414307, -0.10319280624389648, 102.86891174316406, -0.009999999776482582, 1.9600000381469727, 0.0, 0.0, 0.0, 0.0, 0.0, 0.0, 0.0, 0.0, 0.0, 0.0, 0.0, 0.0, 0.0, 0.0, 0.0, 0.0, 0.0, 1, 35.0, 0.015, 0.015 
68731, -2.2624144554138184, -0.0591539666056633, 102.89435577392578, -0.009999999776482582, 1.9600000381469727, 0.0, 0.0, 0.0, 0.0, 0.0, 0.0, 0.0, 0.0, 0.0, 0.0, 0.0, 0.0, 0.0, 0.0, 0.0, 0.0, 0.0, 1, 35.0, 0.015, 0.015 
68732, -2.2938010692596436, -0.0611594058573246, 102.91282653808594, -0.009999999776482582, 1.9700000286102295, 0.0, 0.0, 0.0, 0.0, 0.0, 0.0, 0.0, 0.0, 0.0, 0.0, 0.0, 0.0, 0.0, 0.0, 0.0, 0.0, 0.0, 1, 35.0, 0.015, 0.015 
68735, -2.376973867416382, -0.05688992142677307, 103.0234146118164, -0.009999999776482582, 1.9800000190734863, 0.0, 0.0, 0.0, 0.0, 0.0, 0.0, 0.0, 0.0, 0.0, 0.0, 0.0, 0.0, 0.0, 0.0, 0.0, 0.0, 0.0, 1, 35.0, 0.015, 0.015 
68739, -2.328134059906006, 0.06735754758119583, 103.08675384521484, -0.009999999776482582, 1.9800000190734863, 0.0, 0.0, 0.0, 0.0, 0.0, 0.0, 0.0, 0.0, 0.0, 0.0, 0.0, 0.0, 0.0, 0.0, 0.0, 0.0, 0.0, 1, 35.0, 0.015, 0.015 
68741, -2.326639175415039, 0.07972941547632217, 103.11190795898438, -0.009999999776482582, 1.9800000190734863, 0.0, 0.0, 0.0, 0.0, 0.0, 0.0, 0.0, 0.0, 0.0, 0.0, 0.0, 0.0, 0.0, 0.0, 0.0, 0.0, 0.0, 1, 35.0, 0.015, 0.015 
68742, -2.3251962661743164, 0.06627775728702545, 103.12481689453125, -0.009999999776482582, 1.9800000190734863, 0.0, 0.0, 0.0, 0.0, 0.0, 0.0, 0.0, 0.0, 0.0, 0.0, 0.0, 0.0, 0.0, 0.0, 0.0, 0.0, 0.0, 1, 35.0, 0.015, 0.015 
68745, -2.253885507583618, 0.24163685739040375, 103.19303131103516, -0.009999999776482582, 1.9700000286102295, 0.0, 0.0, 0.0, 0.0, 0.0, 0.0, 0.0, 0.0, 0.0, 0.0, 0.0, 0.0, 0.0, 0.0, 0.0, 0.0, 0.0, 1, 35.0, 0.015, 0.015 
68747, -2.1635868549346924, 0.2495960146188736, 103.22547149658203, -0.009999999776482582, 1.8799999952316284, 0.0, 0.0, 0.0, 0.0, 0.0, 0.0, 0.0, 0.0, 0.0, 0.0, 0.0, 0.0, 0.0, 0.0, 0.0, 0.0, 0.0, 1, 35.0, 0.015, 0.015 
68749, -2.078021287918091, 0.2972043454647064, 103.26164245605469, -0.009999999776482582, 1.840000033378601, 0.0, 0.0, 0.0, 0.0, 0.0, 0.0, 0.0, 0.0, 0.0, 0.0, 0.0, 0.0, 0.0, 0.0, 0.0, 0.0, 0.0, 1, 35.0, 0.015, 0.015 
68750, -2.055891513824463, 0.29765307903289795, 103.27330780029297, -0.009999999776482582, 1.7599999904632568, 0.0, 0.0, 0.0, 0.0, 0.0, 0.0, 0.0, 0.0, 0.0, 0.0, 0.0, 0.0, 0.0, 0.0, 0.0, 0.0, 0.0, 1, 35.0, 0.015, 0.015 
68751, -1.9983549118041992, 0.24837301671504974, 103.30288696289062, -0.009999999776482582, 1.7200000286102295, 0.0, 0.0, 0.0, 0.0, 0.0, 0.0, 0.0, 0.0, 0.0, 0.0, 0.0, 0.0, 0.0, 0.0, 0.0, 0.0, 0.0, 1, 35.0, 0.015, 0.015 
68754, -1.8623102903366089, 0.23065122961997986, 103.37484741210938, -0.009999999776482582, 1.6399999856948853, 0.0, 0.0, 0.0, 0.0, 0.0, 0.0, 0.0, 0.0, 0.0, 0.0, 0.0, 0.0, 0.0, 0.0, 0.0, 0.0, 0.0, 1, 35.0, 0.015, 0.015 
68756, -1.7103246450424194, 0.3096197545528412, 103.43224334716797, -0.009999999776482582, 1.5299999713897705, 0.0, 0.0, 0.0, 0.0, 0.0, 0.0, 0.0, 0.0, 0.0, 0.0, 0.0, 0.0, 0.0, 0.0, 0.0, 0.0, 0.0, 1, 35.0, 0.015, 0.015 
68758, -1.5367908477783203, 0.23580093681812286, 103.45304107666016, -0.009999999776482582, 1.440000057220459, 0.0, 0.0, 0.0, 0.0, 0.0, 0.0, 0.0, 0.0, 0.0, 0.0, 0.0, 0.0, 0.0, 0.0, 0.0, 0.0, 0.0, 1, 35.0, 0.015, 0.015 
68760, -1.3799922466278076, 0.23728987574577332, 103.5263442993164, -0.009999999776482582, 1.3700000047683716, 0.0, 0.0, 0.0, 0.0, 0.0, 0.0, 0.0, 0.0, 0.0, 0.0, 0.0, 0.0, 0.0, 0.0, 0.0, 0.0, 0.0, 1, 35.0, 0.015, 0.015 
68763, -1.1354515552520752, 0.22621576488018036, 103.6174087524414, -0.009999999776482582, 1.25, 0.0, 0.0, 0.0, 0.0, 0.0, 0.0, 0.0, 0.0, 0.0, 0.0, 0.0, 0.0, 0.0, 0.0, 0.0, 0.0, 0.0, 1, 35.0, 0.015, 0.015 
68765, -0.9907936453819275, 0.24409334361553192, 103.68414306640625, -0.009999999776482582, 1.1799999475479126, 0.0, 0.0, 0.0, 0.0, 0.0, 0.0, 0.0, 0.0, 0.0, 0.0, 0.0, 0.0, 0.0, 0.0, 0.0, 0.0, 0.0, 1, 35.0, 0.015, 0.015 
68767, -0.8425288200378418, 0.2644326984882355, 103.76541900634766, -0.009999999776482582, 1.1100000143051147, 0.0, 0.0, 0.0, 0.0, 0.0, 0.0, 0.0, 0.0, 0.0, 0.0, 0.0, 0.0, 0.0, 0.0, 0.0, 0.0, 0.0, 1, 35.0, 0.015, 0.015 
68769, -0.6933785080909729, 0.1999264657497406, 103.78649139404297, -0.009999999776482582, 1.0299999713897705, 0.0, 0.0, 0.0, 0.0, 0.0, 0.0, 0.0, 0.0, 0.0, 0.0, 0.0, 0.0, 0.0, 0.0, 0.0, 0.0, 0.0, 1, 35.0, 0.015, 0.015 
68772, -0.5124069452285767, 0.22228148579597473, 103.87158203125, -0.009999999776482582, 0.9700000286102295, 0.0, 0.0, 0.0, 0.0, 0.0, 0.0, 0.0, 0.0, 0.0, 0.0, 0.0, 0.0, 0.0, 0.0, 0.0, 0.0, 0.0, 1, 35.0, 0.015, 0.015 
68774, -0.381204754114151, 0.14862486720085144, 103.91051483154297, -0.009999999776482582, 0.8700000047683716, 0.0, 0.0, 0.0, 0.0, 0.0, 0.0, 0.0, 0.0, 0.0, 0.0, 0.0, 0.0, 0.0, 0.0, 0.0, 0.0, 0.0, 1, 35.0, 0.015, 0.015 
68776, -0.2554123103618622, 0.12471889704465866, 103.96659851074219, -0.009999999776482582, 0.8199999928474426, 0.0, 0.0, 0.0, 0.0, 0.0, 0.0, 0.0, 0.0, 0.0, 0.0, 0.0, 0.0, 0.0, 0.0, 0.0, 0.0, 0.0, 1, 35.0, 0.015, 0.015 
68778, -0.14756697416305542, 0.14594188332557678, 104.0419692993164, -0.009999999776482582, 0.7799999713897705, 0.0, 0.0, 0.0, 0.0, 0.0, 0.0, 0.0, 0.0, 0.0, 0.0, 0.0, 0.0, 0.0, 0.0, 0.0, 0.0, 0.0, 1, 35.0, 0.015, 0.015 
68781, 0.04101835936307907, 0.010738689452409744, 104.12818145751953, -0.009999999776482582, 0.7400000095367432, 0.0, 0.0, 0.0, 0.0, 0.0, 0.0, 0.0, 0.0, 0.0, 0.0, 0.0, 0.0, 0.0, 0.0, 0.0, 0.0, 0.0, 1, 35.0, 0.015, 0.015 
68783, 0.16846010088920593, 0.04768702760338783, 104.18273162841797, -0.009999999776482582, 0.7400000095367432, 0.0, 0.0, 0.0, 0.0, 0.0, 0.0, 0.0, 0.0, 0.0, 0.0, 0.0, 0.0, 0.0, 0.0, 0.0, 0.0, 0.0, 1, 35.0, 0.015, 0.015 
68785, 0.2765803039073944, -0.04062095656991005, 104.21172332763672, -0.009999999776482582, 0.7400000095367432, 0.0, 0.0, 0.0, 0.0, 0.0, 0.0, 0.0, 0.0, 0.0, 0.0, 0.0, 0.0, 0.0, 0.0, 0.0, 0.0, 0.0, 1, 35.0, 0.015, 0.015 
68787, 0.3353925347328186, -0.02128761261701584, 104.19019317626953, -0.009999999776482582, 0.7400000095367432, 0.0, 0.0, 0.0, 0.0, 0.0, 0.0, 0.0, 0.0, 0.0, 0.0, 0.0, 0.0, 0.0, 0.0, 0.0, 0.0, 0.0, 1, 35.0, 0.015, 0.015 
68789, 0.3403245806694031, -0.015229688957333565, 104.16397094726562, -0.009999999776482582, 0.7400000095367432, 0.0, 0.0, 0.0, 0.0, 0.0, 0.0, 0.0, 0.0, 0.0, 0.0, 0.0, 0.0, 0.0, 0.0, 0.0, 0.0, 0.0, 1, 35.0, 0.015, 0.015 
68792, 0.30522066354751587, -0.06611485034227371, 104.31289672851562, -0.009999999776482582, 0.7400000095367432, 0.0, 0.0, 0.0, 0.0, 0.0, 0.0, 0.0, 0.0, 0.0, 0.0, 0.0, 0.0, 0.0, 0.0, 0.0, 0.0, 0.0, 1, 35.0, 0.015, 0.015 
68794, 0.31691378355026245, -0.03908615559339523, 104.39917755126953, -0.009999999776482582, 0.7400000095367432, 0.0, 0.0, 0.0, 0.0, 0.0, 0.0, 0.0, 0.0, 0.0, 0.0, 0.0, 0.0, 0.0, 0.0, 0.0, 0.0, 0.0, 1, 35.0, 0.015, 0.015 
68796, 0.371512234210968, -0.04709530249238014, 104.44084930419922, -0.009999999776482582, 0.7400000095367432, 0.0, 0.0, 0.0, 0.0, 0.0, 0.0, 0.0, 0.0, 0.0, 0.0, 0.0, 0.0, 0.0, 0.0, 0.0, 0.0, 0.0, 1, 35.0, 0.015, 0.015 
68798, 0.4083220362663269, 0.0022969471756368876, 104.39344787597656, -0.009999999776482582, 0.7400000095367432, 0.0, 0.0, 0.0, 0.0, 0.0, 0.0, 0.0, 0.0, 0.0, 0.0, 0.0, 0.0, 0.0, 0.0, 0.0, 0.0, 0.0, 1, 35.0, 0.015, 0.015 
68800, 0.37228235602378845, 0.014358464628458023, 104.34548950195312, -0.009999999776482582, 0.7400000095367432, 0.0, 0.0, 0.0, 0.0, 0.0, 0.0, 0.0, 0.0, 0.0, 0.0, 0.0, 0.0, 0.0, 0.0, 0.0, 0.0, 0.0, 1, 35.0, 0.015, 0.015 
68802, 0.2912852466106415, 0.021785426884889603, 104.46680450439453, -0.009999999776482582, 0.7400000095367432, 0.0, 0.0, 0.0, 0.0, 0.0, 0.0, 0.0, 0.0, 0.0, 0.0, 0.0, 0.0, 0.0, 0.0, 0.0, 0.0, 0.0, 1, 35.0, 0.015, 0.015 
68805, 0.10823383927345276, 0.1190672218799591, 104.47306060791016, -0.009999999776482582, 0.7400000095367432, 0.0, 0.0, 0.0, 0.0, 0.0, 0.0, 0.0, 0.0, 0.0, 0.0, 0.0, 0.0, 0.0, 0.0, 0.0, 0.0, 0.0, 1, 35.0, 0.015, 0.015 
68807, 0.021899593994021416, 0.11062093079090118, 104.57105255126953, -0.009999999776482582, 0.7200000286102295, 0.0, 0.0, 0.0, 0.0, 0.0, 0.0, 0.0, 0.0, 0.0, 0.0, 0.0, 0.0, 0.0, 0.0, 0.0, 0.0, 0.0, 1, 35.0, 0.015, 0.015 
68809, -0.05547528713941574, 0.12008334696292877, 104.59705352783203, -0.009999999776482582, 0.6800000071525574, 0.0, 0.0, 0.0, 0.0, 0.0, 0.0, 0.0, 0.0, 0.0, 0.0, 0.0, 0.0, 0.0, 0.0, 0.0, 0.0, 0.0, 1, 35.0, 0.015, 0.015 
68811, -0.1394374519586563, 0.18901151418685913, 104.57532501220703, -0.009999999776482582, 0.6499999761581421, 0.0, 0.0, 0.0, 0.0, 0.0, 0.0, 0.0, 0.0, 0.0, 0.0, 0.0, 0.0, 0.0, 0.0, 0.0, 0.0, 0.0, 1, 35.0, 0.015, 0.015 
68814, -0.32206711173057556, 0.14860476553440094, 104.5430908203125, -0.009999999776482582, 0.6000000238418579, 0.0, 0.0, 0.0, 0.0, 0.0, 0.0, 0.0, 0.0, 0.0, 0.0, 0.0, 0.0, 0.0, 0.0, 0.0, 0.0, 0.0, 1, 35.0, 0.015, 0.015 
68816, -0.4252605140209198, 0.13957719504833221, 104.53126525878906, -0.009999999776482582, 0.5199999809265137, 0.0, 0.0, 0.0, 0.0, 0.0, 0.0, 0.0, 0.0, 0.0, 0.0, 0.0, 0.0, 0.0, 0.0, 0.0, 0.0, 0.0, 1, 35.0, 0.015, 0.015 
68819, -0.7478423118591309, 0.1764560341835022, 104.5659408569336, -0.009999999776482582, 0.47999998927116394, 0.0, 0.0, 0.0, 0.0, 0.0, 0.0, 0.0, 0.0, 0.0, 0.0, 0.0, 0.0, 0.0, 0.0, 0.0, 0.0, 0.0, 1, 35.0, 0.015, 0.015 
68821, -0.979022741317749, 0.23212608695030212, 104.5516586303711, -0.009999999776482582, 0.4300000071525574, 0.0, 0.0, 0.0, 0.0, 0.0, 0.0, 0.0, 0.0, 0.0, 0.0, 0.0, 0.0, 0.0, 0.0, 0.0, 0.0, 0.0, 1, 35.0, 0.015, 0.015 
68823, -1.2092875242233276, 0.1335924118757248, 104.59638214111328, -0.009999999776482582, 0.3400000035762787, 0.0, 0.0, 0.0, 0.0, 0.0, 0.0, 0.0, 0.0, 0.0, 0.0, 0.0, 0.0, 0.0, 0.0, 0.0, 0.0, 0.0, 1, 35.0, 0.015, 0.015 
68825, -1.4078515768051147, 0.17557813227176666, 104.61708068847656, -0.009999999776482582, 0.28999999165534973, 0.0, 0.0, 0.0, 0.0, 0.0, 0.0, 0.0, 0.0, 0.0, 0.0, 0.0, 0.0, 0.0, 0.0, 0.0, 0.0, 0.0, 1, 35.0, 0.015, 0.015 
68827, -1.5971297025680542, 0.29370859265327454, 104.6170654296875, -0.009999999776482582, 0.23999999463558197, 0.0, 0.0, 0.0, 0.0, 0.0, 0.0, 0.0, 0.0, 0.0, 0.0, 0.0, 0.0, 0.0, 0.0, 0.0, 0.0, 0.0, 1, 35.0, 0.015, 0.015 
68829, -1.7969608306884766, 0.21266651153564453, 104.60267639160156, -0.009999999776482582, 0.1599999964237213, 0.0, 0.0, 0.0, 0.0, 0.0, 0.0, 0.0, 0.0, 0.0, 0.0, 0.0, 0.0, 0.0, 0.0, 0.0, 0.0, 0.0, 1, 35.0, 0.015, 0.015 
68831, -2.017009973526001, 0.22340214252471924, 104.57282257080078, -0.009999999776482582, 0.09000000357627869, 0.0, 0.0, 0.0, 0.0, 0.0, 0.0, 0.0, 0.0, 0.0, 0.0, 0.0, 0.0, 0.0, 0.0, 0.0, 0.0, 0.0, 1, 35.0, 0.015, 0.015 
68834, -2.33035945892334, 0.26108038425445557, 104.59073638916016, -0.009999999776482582, -0.009999999776482582, 0.0, 0.0, 0.0, 0.0, 0.0, 0.0, 0.0, 0.0, 0.0, 0.0, 0.0, 0.0, 0.0, 0.0, 0.0, 0.0, 0.0, 1, 35.0, 0.015, 0.015 
68836, -2.567417860031128, 0.15754908323287964, 104.63775634765625, -0.009999999776482582, -0.07999999821186066, 0.0, 0.0, 0.0, 0.0, 0.0, 0.0, 0.0, 0.0, 0.0, 0.0, 0.0, 0.0, 0.0, 0.0, 0.0, 0.0, 0.0, 1, 35.0, 0.015, 0.015 
68838, -2.7758119106292725, 0.16552534699440002, 104.62508392333984, -0.009999999776482582, -0.12999999523162842, 0.0, 0.0, 0.0, 0.0, 0.0, 0.0, 0.0, 0.0, 0.0, 0.0, 0.0, 0.0, 0.0, 0.0, 0.0, 0.0, 0.0, 1, 35.0, 0.015, 0.015 
68840, -3.0031516551971436, 0.1398814469575882, 104.62259674072266, -0.009999999776482582, -0.18000000715255737, 0.0, 0.0, 0.0, 0.0, 0.0, 0.0, 0.0, 0.0, 0.0, 0.0, 0.0, 0.0, 0.0, 0.0, 0.0, 0.0, 0.0, 1, 35.0, 0.015, 0.015 
68842, -3.119305372238159, 0.09024997055530548, 104.62178802490234, -0.009999999776482582, -0.2199999988079071, 0.0, 0.0, 0.0, 0.0, 0.0, 0.0, 0.0, 0.0, 0.0, 0.0, 0.0, 0.0, 0.0, 0.0, 0.0, 0.0, 0.0, 1, 35.0, 0.015, 0.015 
68845, -3.3908579349517822, -0.07865598797798157, 104.6679458618164, -0.009999999776482582, -0.23999999463558197, 0.0, 0.0, 0.0, 0.0, 0.0, 0.0, 0.0, 0.0, 0.0, 0.0, 0.0, 0.0, 0.0, 0.0, 0.0, 0.0, 0.0, 1, 35.0, 0.015, 0.015 
68847, -3.4819443225860596, -0.07904648035764694, 104.66979217529297, -0.009999999776482582, -0.23999999463558197, 0.0, 0.0, 0.0, 0.0, 0.0, 0.0, 0.0, 0.0, 0.0, 0.0, 0.0, 0.0, 0.0, 0.0, 0.0, 0.0, 0.0, 1, 35.0, 0.015, 0.015 
68849, -3.5121402740478516, -0.14551310241222382, 104.7016830444336, -0.009999999776482582, -0.23999999463558197, 0.0, 0.0, 0.0, 0.0, 0.0, 0.0, 0.0, 0.0, 0.0, 0.0, 0.0, 0.0, 0.0, 0.0, 0.0, 0.0, 0.0, 1, 35.0, 0.015, 0.015 
68851, -3.5071828365325928, -0.2919439971446991, 104.67636108398438, -0.009999999776482582, -0.23000000417232513, 0.0, 0.0, 0.0, 0.0, 0.0, 0.0, 0.0, 0.0, 0.0, 0.0, 0.0, 0.0, 0.0, 0.0, 0.0, 0.0, 0.0, 1, 35.0, 0.015, 0.015 
68853, -3.512413501739502, -0.3382807672023773, 104.66348266601562, -0.009999999776482582, -0.15000000596046448, 0.0, 0.0, 0.0, 0.0, 0.0, 0.0, 0.0, 0.0, 0.0, 0.0, 0.0, 0.0, 0.0, 0.0, 0.0, 0.0, 0.0, 1, 35.0, 0.015, 0.015 
68856, -3.5763533115386963, -0.37245479226112366, 104.68123626708984, -0.009999999776482582, -0.0, 0.0, 0.0, 0.0, 0.0, 0.0, 0.0, 0.0, 0.0, 0.0, 0.0, 0.0, 0.0, 0.0, 0.0, 0.0, 0.0, 0.0, 1, 35.0, 0.015, 0.015 
68858, -3.633319854736328, -0.42696985602378845, 104.6877670288086, -0.009999999776482582, 0.11999999731779099, 0.0, 0.0, 0.0, 0.0, 0.0, 0.0, 0.0, 0.0, 0.0, 0.0, 0.0, 0.0, 0.0, 0.0, 0.0, 0.0, 0.0, 1, 35.0, 0.015, 0.015 
68860, -3.6268694400787354, -0.44068071246147156, 104.68931579589844, -0.009999999776482582, 0.25, 0.0, 0.0, 0.0, 0.0, 0.0, 0.0, 0.0, 0.0, 0.0, 0.0, 0.0, 0.0, 0.0, 0.0, 0.0, 0.0, 0.0, 1, 35.0, 0.015, 0.015 
68862, -3.5731537342071533, -0.44186052680015564, 104.6647720336914, -0.009999999776482582, 0.3700000047683716, 0.0, 0.0, 0.0, 0.0, 0.0, 0.0, 0.0, 0.0, 0.0, 0.0, 0.0, 0.0, 0.0, 0.0, 0.0, 0.0, 0.0, 1, 35.0, 0.015, 0.015 
68865, -3.47247052192688, -0.39269381761550903, 104.64151763916016, -0.009999999776482582, 0.5699999928474426, 0.0, 0.0, 0.0, 0.0, 0.0, 0.0, 0.0, 0.0, 0.0, 0.0, 0.0, 0.0, 0.0, 0.0, 0.0, 0.0, 0.0, 1, 35.0, 0.015, 0.015 
68867, -3.38651180267334, -0.407198429107666, 104.60580444335938, -0.009999999776482582, 0.6899999976158142, 0.0, 0.0, 0.0, 0.0, 0.0, 0.0, 0.0, 0.0, 0.0, 0.0, 0.0, 0.0, 0.0, 0.0, 0.0, 0.0, 0.0, 1, 35.0, 0.015, 0.015 
68869, -3.287362575531006, -0.43379804491996765, 104.57050323486328, -0.009999999776482582, 0.8100000023841858, 0.0, 0.0, 0.0, 0.0, 0.0, 0.0, 0.0, 0.0, 0.0, 0.0, 0.0, 0.0, 0.0, 0.0, 0.0, 0.0, 0.0, 1, 35.0, 0.015, 0.015 
68871, -3.179781913757324, -0.34612202644348145, 104.53772735595703, -0.009999999776482582, 0.9399999976158142, 0.0, 0.0, 0.0, 0.0, 0.0, 0.0, 0.0, 0.0, 0.0, 0.0, 0.0, 0.0, 0.0, 0.0, 0.0, 0.0, 0.0, 1, 35.0, 0.015, 0.015 
68873, -3.061671495437622, -0.38337942957878113, 104.47220611572266, -0.009999999776482582, 1.0399999618530273, 0.0, 0.0, 0.0, 0.0, 0.0, 0.0, 0.0, 0.0, 0.0, 0.0, 0.0, 0.0, 0.0, 0.0, 0.0, 0.0, 0.0, 1, 35.0, 0.015, 0.015 
68876, -2.88832950592041, -0.30655795335769653, 104.38335418701172, -0.009999999776482582, 1.2200000286102295, 0.0, 0.0, 0.0, 0.0, 0.0, 0.0, 0.0, 0.0, 0.0, 0.0, 0.0, 0.0, 0.0, 0.0, 0.0, 0.0, 0.0, 1, 35.0, 0.015, 0.015 
68878, -2.787623882293701, -0.3769066035747528, 104.29838562011719, -0.009999999776482582, 1.309999942779541, 0.0, 0.0, 0.0, 0.0, 0.0, 0.0, 0.0, 0.0, 0.0, 0.0, 0.0, 0.0, 0.0, 0.0, 0.0, 0.0, 0.0, 1, 35.0, 0.015, 0.015 
68880, -2.669543981552124, -0.3181469440460205, 104.23047637939453, -0.009999999776482582, 1.4199999570846558, 0.0, 0.0, 0.0, 0.0, 0.0, 0.0, 0.0, 0.0, 0.0, 0.0, 0.0, 0.0, 0.0, 0.0, 0.0, 0.0, 0.0, 1, 35.0, 0.015, 0.015 
68882, -2.5406363010406494, -0.18556399643421173, 104.18018341064453, -0.009999999776482582, 1.5199999809265137, 0.0, 0.0, 0.0, 0.0, 0.0, 0.0, 0.0, 0.0, 0.0, 0.0, 0.0, 0.0, 0.0, 0.0, 0.0, 0.0, 0.0, 1, 35.0, 0.015, 0.015 
68885, -2.398822546005249, -0.2346089631319046, 104.01861572265625, -0.009999999776482582, 1.6100000143051147, 0.0, 0.0, 0.0, 0.0, 0.0, 0.0, 0.0, 0.0, 0.0, 0.0, 0.0, 0.0, 0.0, 0.0, 0.0, 0.0, 0.0, 1, 35.0, 0.015, 0.015 
68887, -2.3529295921325684, -0.16777396202087402, 103.88334655761719, -0.009999999776482582, 1.6799999475479126, 0.0, 0.0, 0.0, 0.0, 0.0, 0.0, 0.0, 0.0, 0.0, 0.0, 0.0, 0.0, 0.0, 0.0, 0.0, 0.0, 0.0, 1, 35.0, 0.015, 0.015 
68889, -2.3422129154205322, -0.15418802201747894, 103.78208923339844, -0.009999999776482582, 1.7300000190734863, 0.0, 0.0, 0.0, 0.0, 0.0, 0.0, 0.0, 0.0, 0.0, 0.0, 0.0, 0.0, 0.0, 0.0, 0.0, 0.0, 0.0, 1, 35.0, 0.015, 0.015 
68891, -2.3422625064849854, -0.1197938472032547, 103.77543640136719, -0.009999999776482582, 1.7799999713897705, 0.0, 0.0, 0.0, 0.0, 0.0, 0.0, 0.0, 0.0, 0.0, 0.0, 0.0, 0.0, 0.0, 0.0, 0.0, 0.0, 0.0, 1, 35.0, 0.015, 0.015 
68893, -2.324674129486084, -0.09085763990879059, 103.76466369628906, -0.009999999776482582, 1.8200000524520874, 0.0, 0.0, 0.0, 0.0, 0.0, 0.0, 0.0, 0.0, 0.0, 0.0, 0.0, 0.0, 0.0, 0.0, 0.0, 0.0, 0.0, 1, 35.0, 0.015, 0.015 
68896, -2.2298970222473145, -0.09262467175722122, 103.6760025024414, -0.009999999776482582, 1.840000033378601, 0.0, 0.0, 0.0, 0.0, 0.0, 0.0, 0.0, 0.0, 0.0, 0.0, 0.0, 0.0, 0.0, 0.0, 0.0, 0.0, 0.0, 1, 35.0, 0.015, 0.015 
68898, -2.184520721435547, 0.0451546236872673, 103.5569076538086, -0.009999999776482582, 1.840000033378601, 0.0, 0.0, 0.0, 0.0, 0.0, 0.0, 0.0, 0.0, 0.0, 0.0, 0.0, 0.0, 0.0, 0.0, 0.0, 0.0, 0.0, 1, 35.0, 0.015, 0.015 
68900, -2.1694347858428955, -0.01314428262412548, 103.44868469238281, -0.009999999776482582, 1.840000033378601, 0.0, 0.0, 0.0, 0.0, 0.0, 0.0, 0.0, 0.0, 0.0, 0.0, 0.0, 0.0, 0.0, 0.0, 0.0, 0.0, 0.0, 1, 35.0, 0.015, 0.015 
68902, -2.1981141567230225, 0.044941168278455734, 103.3772201538086, -0.009999999776482582, 1.840000033378601, 0.0, 0.0, 0.0, 0.0, 0.0, 0.0, 0.0, 0.0, 0.0, 0.0, 0.0, 0.0, 0.0, 0.0, 0.0, 0.0, 0.0, 1, 35.0, 0.015, 0.015 
68904, -2.2603719234466553, 0.10059390962123871, 103.37689971923828, -0.009999999776482582, 1.840000033378601, 0.0, 0.0, 0.0, 0.0, 0.0, 0.0, 0.0, 0.0, 0.0, 0.0, 0.0, 0.0, 0.0, 0.0, 0.0, 0.0, 0.0, 1, 35.0, 0.015, 0.015 
68907, -2.399543046951294, 0.1618487536907196, 103.28858184814453, -0.009999999776482582, 1.7999999523162842, 0.0, 0.0, 0.0, 0.0, 0.0, 0.0, 0.0, 0.0, 0.0, 0.0, 0.0, 0.0, 0.0, 0.0, 0.0, 0.0, 0.0, 1, 35.0, 0.015, 0.015 
68909, -2.5180771350860596, 0.14699026942253113, 103.27896118164062, -0.009999999776482582, 1.7599999904632568, 0.0, 0.0, 0.0, 0.0, 0.0, 0.0, 0.0, 0.0, 0.0, 0.0, 0.0, 0.0, 0.0, 0.0, 0.0, 0.0, 0.0, 1, 35.0, 0.015, 0.015 
68911, -2.6212589740753174, 0.12873047590255737, 103.25408935546875, -0.009999999776482582, 1.7100000381469727, 0.0, 0.0, 0.0, 0.0, 0.0, 0.0, 0.0, 0.0, 0.0, 0.0, 0.0, 0.0, 0.0, 0.0, 0.0, 0.0, 0.0, 1, 35.0, 0.015, 0.015 
68913, -2.71067214012146, 0.2130744308233261, 103.23388671875, -0.009999999776482582, 1.6699999570846558, 0.0, 0.0, 0.0, 0.0, 0.0, 0.0, 0.0, 0.0, 0.0, 0.0, 0.0, 0.0, 0.0, 0.0, 0.0, 0.0, 0.0, 1, 35.0, 0.015, 0.015 
68916, -2.8578224182128906, 0.12515570223331451, 103.21068572998047, -0.009999999776482582, 1.5800000429153442, 0.0, 0.0, 0.0, 0.0, 0.0, 0.0, 0.0, 0.0, 0.0, 0.0, 0.0, 0.0, 0.0, 0.0, 0.0, 0.0, 0.0, 1, 35.0, 0.015, 0.015 
68918, -2.9259400367736816, 0.1754615604877472, 103.15948486328125, -0.009999999776482582, 1.5399999618530273, 0.0, 0.0, 0.0, 0.0, 0.0, 0.0, 0.0, 0.0, 0.0, 0.0, 0.0, 0.0, 0.0, 0.0, 0.0, 0.0, 0.0, 1, 35.0, 0.015, 0.015 
68920, -2.9683589935302734, 0.20851604640483856, 103.0746841430664, -0.009999999776482582, 1.5, 0.0, 0.0, 0.0, 0.0, 0.0, 0.0, 0.0, 0.0, 0.0, 0.0, 0.0, 0.0, 0.0, 0.0, 0.0, 0.0, 0.0, 1, 35.0, 0.015, 0.015 
68923, -3.0483951568603516, 0.13481268286705017, 102.98428344726562, -0.009999999776482582, 1.399999976158142, 0.0, 0.0, 0.0, 0.0, 0.0, 0.0, 0.0, 0.0, 0.0, 0.0, 0.0, 0.0, 0.0, 0.0, 0.0, 0.0, 0.0, 1, 35.0, 0.015, 0.015 
68925, -3.1560235023498535, 0.19965331256389618, 102.90044403076172, -0.009999999776482582, 1.350000023841858, 0.0, 0.0, 0.0, 0.0, 0.0, 0.0, 0.0, 0.0, 0.0, 0.0, 0.0, 0.0, 0.0, 0.0, 0.0, 0.0, 0.0, 1, 35.0, 0.015, 0.015 
68927, -3.286118268966675, 0.11973963677883148, 102.8631820678711, -0.009999999776482582, 1.2999999523162842, 0.0, 0.0, 0.0, 0.0, 0.0, 0.0, 0.0, 0.0, 0.0, 0.0, 0.0, 0.0, 0.0, 0.0, 0.0, 0.0, 0.0, 1, 35.0, 0.015, 0.015 
68929, -3.39258074760437, 0.0985790342092514, 102.82731628417969, -0.009999999776482582, 1.2599999904632568, 0.0, 0.0, 0.0, 0.0, 0.0, 0.0, 0.0, 0.0, 0.0, 0.0, 0.0, 0.0, 0.0, 0.0, 0.0, 0.0, 0.0, 1, 35.0, 0.015, 0.015 
68931, -3.437073230743408, 0.16573093831539154, 102.73928833007812, -0.009999999776482582, 1.2400000095367432, 0.0, 0.0, 0.0, 0.0, 0.0, 0.0, 0.0, 0.0, 0.0, 0.0, 0.0, 0.0, 0.0, 0.0, 0.0, 0.0, 0.0, 1, 35.0, 0.015, 0.015 
68934, -3.432959794998169, 0.13664184510707855, 102.5741958618164, -0.009999999776482582, 1.190000057220459, 0.0, 0.0, 0.0, 0.0, 0.0, 0.0, 0.0, 0.0, 0.0, 0.0, 0.0, 0.0, 0.0, 0.0, 0.0, 0.0, 0.0, 1, 35.0, 0.015, 0.015 
68936, -3.4533307552337646, 0.15953893959522247, 102.52840423583984, -0.009999999776482582, 1.159999966621399, 0.0, 0.0, 0.0, 0.0, 0.0, 0.0, 0.0, 0.0, 0.0, 0.0, 0.0, 0.0, 0.0, 0.0, 0.0, 0.0, 0.0, 1, 35.0, 0.015, 0.015 
68938, -3.4890644550323486, 0.04573836177587509, 102.40101623535156, -0.009999999776482582, 1.1200000047683716, 0.0, 0.0, 0.0, 0.0, 0.0, 0.0, 0.0, 0.0, 0.0, 0.0, 0.0, 0.0, 0.0, 0.0, 0.0, 0.0, 0.0, 1, 35.0, 0.015, 0.015 
68940, -3.5235464572906494, 0.13831494748592377, 102.32809448242188, -0.009999999776482582, 1.100000023841858, 0.0, 0.0, 0.0, 0.0, 0.0, 0.0, 0.0, 0.0, 0.0, 0.0, 0.0, 0.0, 0.0, 0.0, 0.0, 0.0, 0.0, 1, 35.0, 0.015, 0.015 
68942, -3.524540901184082, 0.12081513553857803, 102.26824188232422, -0.009999999776482582, 1.090000033378601, 0.0, 0.0, 0.0, 0.0, 0.0, 0.0, 0.0, 0.0, 0.0, 0.0, 0.0, 0.0, 0.0, 0.0, 0.0, 0.0, 0.0, 1, 35.0, 0.015, 0.015 
68944, -3.4806034564971924, 0.0816696509718895, 102.13594055175781, -0.009999999776482582, 1.0499999523162842, 0.0, 0.0, 0.0, 0.0, 0.0, 0.0, 0.0, 0.0, 0.0, 0.0, 0.0, 0.0, 0.0, 0.0, 0.0, 0.0, 0.0, 1, 35.0, 0.015, 0.015 
68947, -3.3952600955963135, 0.14433977007865906, 102.0157470703125, -0.009999999776482582, 1.0199999809265137, 0.0, 0.0, 0.0, 0.0, 0.0, 0.0, 0.0, 0.0, 0.0, 0.0, 0.0, 0.0, 0.0, 0.0, 0.0, 0.0, 0.0, 1, 35.0, 0.015, 0.015 
68949, -3.34090256690979, 0.12571439146995544, 101.9216079711914, -0.009999999776482582, 0.9900000095367432, 0.0, 0.0, 0.0, 0.0, 0.0, 0.0, 0.0, 0.0, 0.0, 0.0, 0.0, 0.0, 0.0, 0.0, 0.0, 0.0, 0.0, 1, 35.0, 0.015, 0.015 
68951, -3.269059419631958, 0.14788410067558289, 101.82968139648438, -0.009999999776482582, 0.949999988079071, 0.0, 0.0, 0.0, 0.0, 0.0, 0.0, 0.0, 0.0, 0.0, 0.0, 0.0, 0.0, 0.0, 0.0, 0.0, 0.0, 0.0, 1, 35.0, 0.015, 0.015 
68953, -3.150517225265503, 0.1582157015800476, 101.7231674194336, -0.009999999776482582, 0.9100000262260437, 0.0, 0.0, 0.0, 0.0, 0.0, 0.0, 0.0, 0.0, 0.0, 0.0, 0.0, 0.0, 0.0, 0.0, 0.0, 0.0, 0.0, 1, 35.0, 0.015, 0.015 
68956, -2.8987808227539062, 0.14973708987236023, 101.55376434326172, -0.009999999776482582, 0.8399999737739563, 0.0, 0.0, 0.0, 0.0, 0.0, 0.0, 0.0, 0.0, 0.0, 0.0, 0.0, 0.0, 0.0, 0.0, 0.0, 0.0, 0.0, 1, 35.0, 0.015, 0.015 
68958, -2.7757928371429443, 0.13438986241817474, 101.44978332519531, -0.009999999776482582, 0.800000011920929, 0.0, 0.0, 0.0, 0.0, 0.0, 0.0, 0.0, 0.0, 0.0, 0.0, 0.0, 0.0, 0.0, 0.0, 0.0, 0.0, 0.0, 1, 35.0, 0.015, 0.015 
68960, -2.6694586277008057, 0.1560717076063156, 101.3550033569336, -0.009999999776482582, 0.75, 0.0, 0.0, 0.0, 0.0, 0.0, 0.0, 0.0, 0.0, 0.0, 0.0, 0.0, 0.0, 0.0, 0.0, 0.0, 0.0, 0.0, 1, 35.0, 0.015, 0.015 
68962, -2.545865297317505, 0.15020813047885895, 101.27987670898438, -0.009999999776482582, 0.7099999785423279, 0.0, 0.0, 0.0, 0.0, 0.0, 0.0, 0.0, 0.0, 0.0, 0.0, 0.0, 0.0, 0.0, 0.0, 0.0, 0.0, 0.0, 1, 35.0, 0.015, 0.015 
68965, -2.311570882797241, 0.11958795040845871, 101.13742065429688, -0.009999999776482582, 0.6399999856948853, 0.0, 0.0, 0.0, 0.0, 0.0, 0.0, 0.0, 0.0, 0.0, 0.0, 0.0, 0.0, 0.0, 0.0, 0.0, 0.0, 0.0, 1, 35.0, 0.015, 0.015 
68967, -2.115859270095825, 0.15554195642471313, 101.04082489013672, -0.009999999776482582, 0.6000000238418579, 0.0, 0.0, 0.0, 0.0, 0.0, 0.0, 0.0, 0.0, 0.0, 0.0, 0.0, 0.0, 0.0, 0.0, 0.0, 0.0, 0.0, 1, 35.0, 0.015, 0.015 
68969, -1.936275601387024, 0.19796262681484222, 100.95304870605469, -0.009999999776482582, 0.5699999928474426, 0.0, 0.0, 0.0, 0.0, 0.0, 0.0, 0.0, 0.0, 0.0, 0.0, 0.0, 0.0, 0.0, 0.0, 0.0, 0.0, 0.0, 1, 35.0, 0.015, 0.015 
68971, -1.756557583808899, 0.15131007134914398, 100.8443832397461, -0.009999999776482582, 0.5099999904632568, 0.0, 0.0, 0.0, 0.0, 0.0, 0.0, 0.0, 0.0, 0.0, 0.0, 0.0, 0.0, 0.0, 0.0, 0.0, 0.0, 0.0, 1, 35.0, 0.015, 0.015 
68973, -1.558681607246399, 0.1928975135087967, 100.76661682128906, -0.009999999776482582, 0.46000000834465027, 0.0, 0.0, 0.0, 0.0, 0.0, 0.0, 0.0, 0.0, 0.0, 0.0, 0.0, 0.0, 0.0, 0.0, 0.0, 0.0, 0.0, 1, 35.0, 0.015, 0.015 
68976, -1.1809037923812866, 0.19920356571674347, 100.60303497314453, -0.009999999776482582, 0.3799999952316284, 0.0, 0.0, 0.0, 0.0, 0.0, 0.0, 0.0, 0.0, 0.0, 0.0, 0.0, 0.0, 0.0, 0.0, 0.0, 0.0, 0.0, 1, 35.0, 0.015, 0.015 
68978, -0.9823592305183411, 0.21037666499614716, 100.52411651611328, -0.009999999776482582, 0.3199999928474426, 0.0, 0.0, 0.0, 0.0, 0.0, 0.0, 0.0, 0.0, 0.0, 0.0, 0.0, 0.0, 0.0, 0.0, 0.0, 0.0, 0.0, 1, 35.0, 0.015, 0.015 
68980, -0.8022920489311218, 0.1516413688659668, 100.45669555664062, -0.009999999776482582, 0.25999999046325684, 0.0, 0.0, 0.0, 0.0, 0.0, 0.0, 0.0, 0.0, 0.0, 0.0, 0.0, 0.0, 0.0, 0.0, 0.0, 0.0, 0.0, 1, 35.0, 0.015, 0.015 
68983, -0.5347561836242676, 0.08468949794769287, 100.32450866699219, -0.009999999776482582, 0.18000000715255737, 0.0, 0.0, 0.0, 0.0, 0.0, 0.0, 0.0, 0.0, 0.0, 0.0, 0.0, 0.0, 0.0, 0.0, 0.0, 0.0, 0.0, 1, 35.0, 0.015, 0.015 
68985, -0.30925026535987854, 0.0994868054986, 100.25318908691406, -0.009999999776482582, 0.15000000596046448, 0.0, 0.0, 0.0, 0.0, 0.0, 0.0, 0.0, 0.0, 0.0, 0.0, 0.0, 0.0, 0.0, 0.0, 0.0, 0.0, 0.0, 1, 35.0, 0.015, 0.015 
68987, -0.081400066614151, 0.02534586377441883, 100.16566467285156, -0.009999999776482582, 0.15000000596046448, 0.0, 0.0, 0.0, 0.0, 0.0, 0.0, 0.0, 0.0, 0.0, 0.0, 0.0, 0.0, 0.0, 0.0, 0.0, 0.0, 0.0, 1, 35.0, 0.015, 0.015 
68989, 0.11809230595827103, 0.04325688257813454, 100.06806945800781, -0.009999999776482582, 0.15000000596046448, 0.0, 0.0, 0.0, 0.0, 0.0, 0.0, 0.0, 0.0, 0.0, 0.0, 0.0, 0.0, 0.0, 0.0, 0.0, 0.0, 0.0, 1, 35.0, 0.015, 0.015 
68991, 0.2784256637096405, -0.021129660308361053, 99.98403930664062, -0.009999999776482582, 0.15000000596046448, 0.0, 0.0, 0.0, 0.0, 0.0, 0.0, 0.0, 0.0, 0.0, 0.0, 0.0, 0.0, 0.0, 0.0, 0.0, 0.0, 0.0, 1, 35.0, 0.015, 0.015 
68993, 0.4110523760318756, -0.11577757447957993, 99.92292022705078, -0.009999999776482582, 0.15000000596046448, 0.0, 0.0, 0.0, 0.0, 0.0, 0.0, 0.0, 0.0, 0.0, 0.0, 0.0, 0.0, 0.0, 0.0, 0.0, 0.0, 0.0, 1, 35.0, 0.015, 0.015 
68996, 0.6133619546890259, -0.25363004207611084, 99.86420440673828, -0.009999999776482582, 0.18000000715255737, 0.0, 0.0, 0.0, 0.0, 0.0, 0.0, 0.0, 0.0, 0.0, 0.0, 0.0, 0.0, 0.0, 0.0, 0.0, 0.0, 0.0, 1, 35.0, 0.015, 0.015 
68998, 0.7507668733596802, -0.34574082493782043, 99.77178955078125, -0.009999999776482582, 0.23000000417232513, 0.0, 0.0, 0.0, 0.0, 0.0, 0.0, 0.0, 0.0, 0.0, 0.0, 0.0, 0.0, 0.0, 0.0, 0.0, 0.0, 0.0, 1, 35.0, 0.015, 0.015 
69000, 0.8980776071548462, -0.3759307563304901, 99.731689453125, -0.009999999776482582, 0.3199999928474426, 0.0, 0.0, 0.0, 0.0, 0.0, 0.0, 0.0, 0.0, 0.0, 0.0, 0.0, 0.0, 0.0, 0.0, 0.0, 0.0, 0.0, 1, 35.0, 0.015, 0.015 
69003, 1.076738953590393, -0.4311187267303467, 99.61599731445312, -0.009999999776482582, 0.49000000953674316, 0.0, 0.0, 0.0, 0.0, 0.0, 0.0, 0.0, 0.0, 0.0, 0.0, 0.0, 0.0, 0.0, 0.0, 0.0, 0.0, 0.0, 1, 35.0, 0.015, 0.015 
69004, 1.1334534883499146, -0.49101054668426514, 99.51748657226562, -0.009999999776482582, 0.550000011920929, 0.0, 0.0, 0.0, 0.0, 0.0, 0.0, 0.0, 0.0, 0.0, 0.0, 0.0, 0.0, 0.0, 0.0, 0.0, 0.0, 0.0, 1, 35.0, 0.015, 0.015 
69007, 1.1633961200714111, -0.5387282967567444, 99.34369659423828, -0.009999999776482582, 0.7599999904632568, 0.0, 0.0, 0.0, 0.0, 0.0, 0.0, 0.0, 0.0, 0.0, 0.0, 0.0, 0.0, 0.0, 0.0, 0.0, 0.0, 0.0, 1, 35.0, 0.015, 0.015 
69009, 1.1565613746643066, -0.548976480960846, 99.41809844970703, -0.009999999776482582, 0.9100000262260437, 0.0, 0.0, 0.0, 0.0, 0.0, 0.0, 0.0, 0.0, 0.0, 0.0, 0.0, 0.0, 0.0, 0.0, 0.0, 0.0, 0.0, 1, 35.0, 0.015, 0.015 
69011, 1.1333712339401245, -0.5581890940666199, 99.35526275634766, -0.009999999776482582, 1.0800000429153442, 0.0, 0.0, 0.0, 0.0, 0.0, 0.0, 0.0, 0.0, 0.0, 0.0, 0.0, 0.0, 0.0, 0.0, 0.0, 0.0, 0.0, 1, 35.0, 0.015, 0.015 
69014, 1.0990723371505737, -0.6671800017356873, 99.30935668945312, -0.009999999776482582, 1.340000033378601, 0.0, 0.0, 0.0, 0.0, 0.0, 0.0, 0.0, 0.0, 0.0, 0.0, 0.0, 0.0, 0.0, 0.0, 0.0, 0.0, 0.0, 1, 35.0, 0.015, 0.015 
69016, 1.0847992897033691, -0.5988516211509705, 99.290771484375, -0.009999999776482582, 1.5299999713897705, 0.0, 0.0, 0.0, 0.0, 0.0, 0.0, 0.0, 0.0, 0.0, 0.0, 0.0, 0.0, 0.0, 0.0, 0.0, 0.0, 0.0, 1, 35.0, 0.015, 0.015 
69018, 1.048042893409729, -0.561895489692688, 99.23684692382812, -0.009999999776482582, 1.7100000381469727, 0.0, 0.0, 0.0, 0.0, 0.0, 0.0, 0.0, 0.0, 0.0, 0.0, 0.0, 0.0, 0.0, 0.0, 0.0, 0.0, 0.0, 1, 35.0, 0.015, 0.015 
69020, 0.9856762290000916, -0.5694633722305298, 99.25955963134766, -0.009999999776482582, 1.8799999952316284, 0.0, 0.0, 0.0, 0.0, 0.0, 0.0, 0.0, 0.0, 0.0, 0.0, 0.0, 0.0, 0.0, 0.0, 0.0, 0.0, 0.0, 1, 35.0, 0.015, 0.015 
69022, 0.8959643840789795, -0.5135166049003601, 99.24311065673828, -0.009999999776482582, 2.049999952316284, 0.0, 0.0, 0.0, 0.0, 0.0, 0.0, 0.0, 0.0, 0.0, 0.0, 0.0, 0.0, 0.0, 0.0, 0.0, 0.0, 0.0, 1, 35.0, 0.015, 0.015 
69024, 0.7718333601951599, -0.4905679523944855, 99.24515533447266, -0.009999999776482582, 2.2899999618530273, 0.0, 0.0, 0.0, 0.0, 0.0, 0.0, 0.0, 0.0, 0.0, 0.0, 0.0, 0.0, 0.0, 0.0, 0.0, 0.0, 0.0, 1, 35.0, 0.015, 0.015 
69027, 0.5411514639854431, -0.4272491931915283, 99.25936889648438, -0.009999999776482582, 2.440000057220459, 0.0, 0.0, 0.0, 0.0, 0.0, 0.0, 0.0, 0.0, 0.0, 0.0, 0.0, 0.0, 0.0, 0.0, 0.0, 0.0, 0.0, 1, 35.0, 0.015, 0.015 
69029, 0.335713654756546, -0.33882594108581543, 99.29090118408203, -0.009999999776482582, 2.569999933242798, 0.0, 0.0, 0.0, 0.0, 0.0, 0.0, 0.0, 0.0, 0.0, 0.0, 0.0, 0.0, 0.0, 0.0, 0.0, 0.0, 0.0, 1, 35.0, 0.015, 0.015 
69031, 0.1300390511751175, -0.29691970348358154, 99.28765106201172, -0.009999999776482582, 2.680000066757202, 0.0, 0.0, 0.0, 0.0, 0.0, 0.0, 0.0, 0.0, 0.0, 0.0, 0.0, 0.0, 0.0, 0.0, 0.0, 0.0, 0.0, 1, 35.0, 0.015, 0.015 
69033, -0.06753147393465042, -0.20247754454612732, 99.32785034179688, -0.009999999776482582, 2.7799999713897705, 0.0, 0.0, 0.0, 0.0, 0.0, 0.0, 0.0, 0.0, 0.0, 0.0, 0.0, 0.0, 0.0, 0.0, 0.0, 0.0, 0.0, 1, 35.0, 0.015, 0.015 
69036, -0.4189305901527405, -0.10849013179540634, 99.35874938964844, -0.009999999776482582, 2.880000114440918, 0.0, 0.0, 0.0, 0.0, 0.0, 0.0, 0.0, 0.0, 0.0, 0.0, 0.0, 0.0, 0.0, 0.0, 0.0, 0.0, 0.0, 1, 35.0, 0.015, 0.015 
69038, -0.6712725758552551, 0.019841810688376427, 99.41706848144531, -0.009999999776482582, 2.9200000762939453, 0.0, 0.0, 0.0, 0.0, 0.0, 0.0, 0.0, 0.0, 0.0, 0.0, 0.0, 0.0, 0.0, 0.0, 0.0, 0.0, 0.0, 1, 35.0, 0.015, 0.015 
69040, -0.9538167715072632, 0.06562436372041702, 99.46812438964844, -0.009999999776482582, 2.930000066757202, 0.0, 0.0, 0.0, 0.0, 0.0, 0.0, 0.0, 0.0, 0.0, 0.0, 0.0, 0.0, 0.0, 0.0, 0.0, 0.0, 0.0, 1, 35.0, 0.015, 0.015 
69042, -1.2356947660446167, 0.15739886462688446, 99.5284652709961, -0.009999999776482582, 2.930000066757202, 0.0, 0.0, 0.0, 0.0, 0.0, 0.0, 0.0, 0.0, 0.0, 0.0, 0.0, 0.0, 0.0, 0.0, 0.0, 0.0, 0.0, 1, 35.0, 0.015, 0.015 
69044, -1.5167468786239624, 0.26187095046043396, 99.58161926269531, -0.009999999776482582, 2.9000000953674316, 0.0, 0.0, 0.0, 0.0, 0.0, 0.0, 0.0, 0.0, 0.0, 0.0, 0.0, 0.0, 0.0, 0.0, 0.0, 0.0, 0.0, 1, 35.0, 0.015, 0.015 
69047, -1.8886374235153198, 0.3164258897304535, 99.66883850097656, -0.009999999776482582, 2.799999952316284, 0.0, 0.0, 0.0, 0.0, 0.0, 0.0, 0.0, 0.0, 0.0, 0.0, 0.0, 0.0, 0.0, 0.0, 0.0, 0.0, 0.0, 1, 35.0, 0.015, 0.015 
69049, -2.1663246154785156, 0.43700146675109863, 99.7382583618164, -0.009999999776482582, 2.7100000381469727, 0.0, 0.0, 0.0, 0.0, 0.0, 0.0, 0.0, 0.0, 0.0, 0.0, 0.0, 0.0, 0.0, 0.0, 0.0, 0.0, 0.0, 1, 35.0, 0.015, 0.015 
69051, -2.4302501678466797, 0.5065702795982361, 99.82240295410156, -0.009999999776482582, 2.5899999141693115, 0.0, 0.0, 0.0, 0.0, 0.0, 0.0, 0.0, 0.0, 0.0, 0.0, 0.0, 0.0, 0.0, 0.0, 0.0, 0.0, 0.0, 1, 35.0, 0.015, 0.015 
69053, -2.677229404449463, 0.5310805439949036, 99.89340209960938, -0.009999999776482582, 2.450000047683716, 0.0, 0.0, 0.0, 0.0, 0.0, 0.0, 0.0, 0.0, 0.0, 0.0, 0.0, 0.0, 0.0, 0.0, 0.0, 0.0, 0.0, 1, 35.0, 0.015, 0.015 
69056, -3.0838427543640137, 0.6215176582336426, 100.01422882080078, -0.009999999776482582, 2.2100000381469727, 0.0, 0.0, 0.0, 0.0, 0.0, 0.0, 0.0, 0.0, 0.0, 0.0, 0.0, 0.0, 0.0, 0.0, 0.0, 0.0, 0.0, 1, 35.0, 0.015, 0.015 
69058, -3.3300135135650635, 0.6594460606575012, 100.11656951904297, -0.009999999776482582, 2.0199999809265137, 0.0, 0.0, 0.0, 0.0, 0.0, 0.0, 0.0, 0.0, 0.0, 0.0, 0.0, 0.0, 0.0, 0.0, 0.0, 0.0, 0.0, 1, 35.0, 0.015, 0.015 
69062, -3.733557939529419, 0.6335524320602417, 100.18526458740234, -0.009999999776482582, 1.6299999952316284, 0.0, 0.0, 0.0, 0.0, 0.0, 0.0, 0.0, 0.0, 0.0, 0.0, 0.0, 0.0, 0.0, 0.0, 0.0, 0.0, 0.0, 1, 35.0, 0.015, 0.015 
69069, -4.195566654205322, 0.48201680183410645, 100.2862548828125, -0.009999999776482582, 0.9800000190734863, 0.0, 0.0, 0.0, 0.0, 0.0, 0.0, 0.0, 0.0, 0.0, 0.0, 0.0, 0.0, 0.0, 0.0, 0.0, 0.0, 0.0, 1, 35.0, 0.015, 0.015 
69070, -4.287539482116699, 0.4004434645175934, 100.28044128417969, -0.009999999776482582, 0.8199999928474426, 0.0, 0.0, 0.0, 0.0, 0.0, 0.0, 0.0, 0.0, 0.0, 0.0, 0.0, 0.0, 0.0, 0.0, 0.0, 0.0, 0.0, 1, 35.0, 0.015, 0.015 
69071, -4.326542377471924, 0.38490045070648193, 100.29449462890625, -0.009999999776482582, 0.8199999928474426, 0.0, 0.0, 0.0, 0.0, 0.0, 0.0, 0.0, 0.0, 0.0, 0.0, 0.0, 0.0, 0.0, 0.0, 0.0, 0.0, 0.0, 1, 35.0, 0.015, 0.015 
69072, -4.392645359039307, 0.36897411942481995, 100.34036254882812, -0.009999999776482582, 0.7599999904632568, 0.0, 0.0, 0.0, 0.0, 0.0, 0.0, 0.0, 0.0, 0.0, 0.0, 0.0, 0.0, 0.0, 0.0, 0.0, 0.0, 0.0, 1, 35.0, 0.015, 0.015 
69072, -4.392645359039307, 0.36897411942481995, 100.34036254882812, -0.009999999776482582, 0.7599999904632568, 0.0, 0.0, 0.0, 0.0, 0.0, 0.0, 0.0, 0.0, 0.0, 0.0, 0.0, 0.0, 0.0, 0.0, 0.0, 0.0, 0.0, 1, 35.0, 0.015, 0.015 
69074, -4.447084903717041, 0.26282963156700134, 100.33670043945312, -0.009999999776482582, 0.6399999856948853, 0.0, 0.0, 0.0, 0.0, 0.0, 0.0, 0.0, 0.0, 0.0, 0.0, 0.0, 0.0, 0.0, 0.0, 0.0, 0.0, 0.0, 1, 35.0, 0.015, 0.015 
69076, -4.434178829193115, 0.24118809401988983, 100.32957458496094, -0.009999999776482582, 0.550000011920929, 0.0, 0.0, 0.0, 0.0, 0.0, 0.0, 0.0, 0.0, 0.0, 0.0, 0.0, 0.0, 0.0, 0.0, 0.0, 0.0, 0.0, 1, 35.0, 0.015, 0.015 
69078, -4.357900619506836, 0.21808336675167084, 100.35201263427734, -0.009999999776482582, 0.47999998927116394, 0.0, 0.0, 0.0, 0.0, 0.0, 0.0, 0.0, 0.0, 0.0, 0.0, 0.0, 0.0, 0.0, 0.0, 0.0, 0.0, 0.0, 1, 35.0, 0.015, 0.015 
69080, -4.237641334533691, 0.18260440230369568, 100.34474182128906, -0.009999999776482582, 0.4099999964237213, 0.0, 0.0, 0.0, 0.0, 0.0, 0.0, 0.0, 0.0, 0.0, 0.0, 0.0, 0.0, 0.0, 0.0, 0.0, 0.0, 0.0, 1, 35.0, 0.015, 0.015 
69082, -4.091965675354004, 0.15572281181812286, 100.3576889038086, -0.009999999776482582, 0.3400000035762787, 0.0, 0.0, 0.0, 0.0, 0.0, 0.0, 0.0, 0.0, 0.0, 0.0, 0.0, 0.0, 0.0, 0.0, 0.0, 0.0, 0.0, 1, 35.0, 0.015, 0.015 
69084, -3.9320907592773438, 0.10091187804937363, 100.37236022949219, -0.009999999776482582, 0.27000001072883606, 0.0, 0.0, 0.0, 0.0, 0.0, 0.0, 0.0, 0.0, 0.0, 0.0, 0.0, 0.0, 0.0, 0.0, 0.0, 0.0, 0.0, 1, 35.0, 0.015, 0.015 
69087, -3.685886859893799, 0.09632929414510727, 100.4065933227539, -0.009999999776482582, 0.23999999463558197, 0.0, 0.0, 0.0, 0.0, 0.0, 0.0, 0.0, 0.0, 0.0, 0.0, 0.0, 0.0, 0.0, 0.0, 0.0, 0.0, 0.0, 1, 35.0, 0.015, 0.015 
69089, -3.439671516418457, 0.03341982513666153, 100.40666961669922, -0.009999999776482582, 0.2199999988079071, 0.0, 0.0, 0.0, 0.0, 0.0, 0.0, 0.0, 0.0, 0.0, 0.0, 0.0, 0.0, 0.0, 0.0, 0.0, 0.0, 0.0, 1, 35.0, 0.015, 0.015 
69091, -3.1486902236938477, 0.06572123616933823, 100.42801666259766, -0.009999999776482582, 0.2199999988079071, 0.0, 0.0, 0.0, 0.0, 0.0, 0.0, 0.0, 0.0, 0.0, 0.0, 0.0, 0.0, 0.0, 0.0, 0.0, 0.0, 0.0, 1, 35.0, 0.015, 0.015 
69093, -2.8482418060302734, 0.09948014467954636, 100.43339538574219, -0.009999999776482582, 0.2199999988079071, 0.0, 0.0, 0.0, 0.0, 0.0, 0.0, 0.0, 0.0, 0.0, 0.0, 0.0, 0.0, 0.0, 0.0, 0.0, 0.0, 0.0, 1, 35.0, 0.015, 0.015 
69096, -2.3966150283813477, 0.05906219407916069, 100.45101165771484, -0.009999999776482582, 0.2199999988079071, 0.0, 0.0, 0.0, 0.0, 0.0, 0.0, 0.0, 0.0, 0.0, 0.0, 0.0, 0.0, 0.0, 0.0, 0.0, 0.0, 0.0, 1, 35.0, 0.015, 0.015 
69098, -2.1275010108947754, 0.08965247124433517, 100.47452545166016, -0.009999999776482582, 0.2199999988079071, 0.0, 0.0, 0.0, 0.0, 0.0, 0.0, 0.0, 0.0, 0.0, 0.0, 0.0, 0.0, 0.0, 0.0, 0.0, 0.0, 0.0, 1, 35.0, 0.015, 0.015 
69100, -1.8272737264633179, 0.09493453800678253, 100.44928741455078, -0.009999999776482582, 0.2199999988079071, 0.0, 0.0, 0.0, 0.0, 0.0, 0.0, 0.0, 0.0, 0.0, 0.0, 0.0, 0.0, 0.0, 0.0, 0.0, 0.0, 0.0, 1, 35.0, 0.015, 0.015 
69102, -1.518734335899353, 0.0928879901766777, 100.4556655883789, -0.009999999776482582, 0.2199999988079071, 0.0, 0.0, 0.0, 0.0, 0.0, 0.0, 0.0, 0.0, 0.0, 0.0, 0.0, 0.0, 0.0, 0.0, 0.0, 0.0, 0.0, 1, 35.0, 0.015, 0.015 
69104, -1.2097669839859009, 0.10534556955099106, 100.46143341064453, -0.009999999776482582, 0.2199999988079071, 0.0, 0.0, 0.0, 0.0, 0.0, 0.0, 0.0, 0.0, 0.0, 0.0, 0.0, 0.0, 0.0, 0.0, 0.0, 0.0, 0.0, 1, 35.0, 0.015, 0.015 
69107, -0.8049914836883545, 0.112873874604702, 100.42986297607422, -0.009999999776482582, 0.20000000298023224, 0.0, 0.0, 0.0, 0.0, 0.0, 0.0, 0.0, 0.0, 0.0, 0.0, 0.0, 0.0, 0.0, 0.0, 0.0, 0.0, 0.0, 1, 35.0, 0.015, 0.015 
69109, -0.5208514928817749, 0.11361277848482132, 100.43928527832031, -0.009999999776482582, 0.1599999964237213, 0.0, 0.0, 0.0, 0.0, 0.0, 0.0, 0.0, 0.0, 0.0, 0.0, 0.0, 0.0, 0.0, 0.0, 0.0, 0.0, 0.0, 1, 35.0, 0.015, 0.015 
69111, -0.24422092735767365, 0.10607179999351501, 100.44310760498047, -0.009999999776482582, 0.12999999523162842, 0.0, 0.0, 0.0, 0.0, 0.0, 0.0, 0.0, 0.0, 0.0, 0.0, 0.0, 0.0, 0.0, 0.0, 0.0, 0.0, 0.0, 1, 35.0, 0.015, 0.015 
69113, -0.0019458092283457518, 0.04327460005879402, 100.40768432617188, -0.009999999776482582, 0.10000000149011612, 0.0, 0.0, 0.0, 0.0, 0.0, 0.0, 0.0, 0.0, 0.0, 0.0, 0.0, 0.0, 0.0, 0.0, 0.0, 0.0, 0.0, 1, 35.0, 0.015, 0.015 
69116, 0.2958012819290161, 0.010459712706506252, 100.37885284423828, -0.009999999776482582, 0.07999999821186066, 0.0, 0.0, 0.0, 0.0, 0.0, 0.0, 0.0, 0.0, 0.0, 0.0, 0.0, 0.0, 0.0, 0.0, 0.0, 0.0, 0.0, 1, 35.0, 0.015, 0.015 
69118, 0.465090274810791, 0.01926484890282154, 100.42923736572266, -0.009999999776482582, 0.07999999821186066, 0.0, 0.0, 0.0, 0.0, 0.0, 0.0, 0.0, 0.0, 0.0, 0.0, 0.0, 0.0, 0.0, 0.0, 0.0, 0.0, 0.0, 1, 35.0, 0.015, 0.015 
69120, 0.6474636197090149, 0.04870445281267166, 100.4950180053711, -0.009999999776482582, 0.07999999821186066, 0.0, 0.0, 0.0, 0.0, 0.0, 0.0, 0.0, 0.0, 0.0, 0.0, 0.0, 0.0, 0.0, 0.0, 0.0, 0.0, 0.0, 1, 35.0, 0.015, 0.015 
69122, 0.849900484085083, 0.015287232585251331, 100.5425796508789, -0.009999999776482582, 0.07999999821186066, 0.0, 0.0, 0.0, 0.0, 0.0, 0.0, 0.0, 0.0, 0.0, 0.0, 0.0, 0.0, 0.0, 0.0, 0.0, 0.0, 0.0, 1, 35.0, 0.015, 0.015 
69124, 1.0355106592178345, 0.029298871755599976, 100.50859069824219, -0.009999999776482582, 0.07999999821186066, 0.0, 0.0, 0.0, 0.0, 0.0, 0.0, 0.0, 0.0, 0.0, 0.0, 0.0, 0.0, 0.0, 0.0, 0.0, 0.0, 0.0, 1, 35.0, 0.015, 0.015 
69127, 1.2071934938430786, 0.061727456748485565, 100.51866149902344, -0.009999999776482582, 0.07999999821186066, 0.0, 0.0, 0.0, 0.0, 0.0, 0.0, 0.0, 0.0, 0.0, 0.0, 0.0, 0.0, 0.0, 0.0, 0.0, 0.0, 0.0, 1, 35.0, 0.015, 0.015 
69129, 1.2779604196548462, 0.026832254603505135, 100.60813903808594, -0.009999999776482582, 0.07999999821186066, 0.0, 0.0, 0.0, 0.0, 0.0, 0.0, 0.0, 0.0, 0.0, 0.0, 0.0, 0.0, 0.0, 0.0, 0.0, 0.0, 0.0, 1, 35.0, 0.015, 0.015 
69131, 1.3206313848495483, -0.00397083256393671, 100.605224609375, -0.009999999776482582, 0.07999999821186066, 0.0, 0.0, 0.0, 0.0, 0.0, 0.0, 0.0, 0.0, 0.0, 0.0, 0.0, 0.0, 0.0, 0.0, 0.0, 0.0, 0.0, 1, 35.0, 0.015, 0.015 
69133, 1.3336656093597412, 0.0026887881103903055, 100.67152404785156, -0.009999999776482582, 0.07999999821186066, 0.0, 0.0, 0.0, 0.0, 0.0, 0.0, 0.0, 0.0, 0.0, 0.0, 0.0, 0.0, 0.0, 0.0, 0.0, 0.0, 0.0, 1, 35.0, 0.015, 0.015 
69135, 1.2964075803756714, 0.00444385502487421, 100.70719909667969, -0.009999999776482582, 0.07999999821186066, 0.0, 0.0, 0.0, 0.0, 0.0, 0.0, 0.0, 0.0, 0.0, 0.0, 0.0, 0.0, 0.0, 0.0, 0.0, 0.0, 0.0, 1, 35.0, 0.015, 0.015 
69138, 1.166481614112854, -0.09559071063995361, 100.8011245727539, -0.009999999776482582, 0.07999999821186066, 0.0, 0.0, 0.0, 0.0, 0.0, 0.0, 0.0, 0.0, 0.0, 0.0, 0.0, 0.0, 0.0, 0.0, 0.0, 0.0, 0.0, 1, 35.0, 0.015, 0.015 
69140, 1.0977801084518433, -0.11252090334892273, 100.8498306274414, -0.009999999776482582, 0.07999999821186066, 0.0, 0.0, 0.0, 0.0, 0.0, 0.0, 0.0, 0.0, 0.0, 0.0, 0.0, 0.0, 0.0, 0.0, 0.0, 0.0, 0.0, 1, 35.0, 0.015, 0.015 
69142, 1.0378520488739014, -0.10766750574111938, 100.91181182861328, -0.009999999776482582, 0.10000000149011612, 0.0, 0.0, 0.0, 0.0, 0.0, 0.0, 0.0, 0.0, 0.0, 0.0, 0.0, 0.0, 0.0, 0.0, 0.0, 0.0, 0.0, 1, 35.0, 0.015, 0.015 
69144, 0.9626472592353821, -0.20138199627399445, 100.92332458496094, -0.009999999776482582, 0.14000000059604645, 0.0, 0.0, 0.0, 0.0, 0.0, 0.0, 0.0, 0.0, 0.0, 0.0, 0.0, 0.0, 0.0, 0.0, 0.0, 0.0, 0.0, 1, 35.0, 0.015, 0.015 
69147, 0.7948538661003113, -0.22450372576713562, 101.00157928466797, -0.009999999776482582, 0.20000000298023224, 0.0, 0.0, 0.0, 0.0, 0.0, 0.0, 0.0, 0.0, 0.0, 0.0, 0.0, 0.0, 0.0, 0.0, 0.0, 0.0, 0.0, 1, 35.0, 0.015, 0.015 
69149, 0.607002854347229, -0.20325633883476257, 101.0337142944336, -0.009999999776482582, 0.27000001072883606, 0.0, 0.0, 0.0, 0.0, 0.0, 0.0, 0.0, 0.0, 0.0, 0.0, 0.0, 0.0, 0.0, 0.0, 0.0, 0.0, 0.0, 1, 35.0, 0.015, 0.015 
69151, 0.36935803294181824, -0.25277721881866455, 101.08759307861328, -0.009999999776482582, 0.33000001311302185, 0.0, 0.0, 0.0, 0.0, 0.0, 0.0, 0.0, 0.0, 0.0, 0.0, 0.0, 0.0, 0.0, 0.0, 0.0, 0.0, 0.0, 1, 35.0, 0.015, 0.015 
69153, 0.12686699628829956, -0.2858644127845764, 101.17262268066406, -0.009999999776482582, 0.4000000059604645, 0.0, 0.0, 0.0, 0.0, 0.0, 0.0, 0.0, 0.0, 0.0, 0.0, 0.0, 0.0, 0.0, 0.0, 0.0, 0.0, 0.0, 1, 35.0, 0.015, 0.015 
69155, -0.06577014923095703, -0.2854273319244385, 101.2940902709961, -0.009999999776482582, 0.5299999713897705, 0.0, 0.0, 0.0, 0.0, 0.0, 0.0, 0.0, 0.0, 0.0, 0.0, 0.0, 0.0, 0.0, 0.0, 0.0, 0.0, 0.0, 1, 35.0, 0.015, 0.015 
69158, -0.30742764472961426, -0.28442588448524475, 101.43519592285156, -0.009999999776482582, 0.6100000143051147, 0.0, 0.0, 0.0, 0.0, 0.0, 0.0, 0.0, 0.0, 0.0, 0.0, 0.0, 0.0, 0.0, 0.0, 0.0, 0.0, 0.0, 1, 35.0, 0.015, 0.015 
69160, -0.43589961528778076, -0.3235073685646057, 101.42182159423828, -0.009999999776482582, 0.699999988079071, 0.0, 0.0, 0.0, 0.0, 0.0, 0.0, 0.0, 0.0, 0.0, 0.0, 0.0, 0.0, 0.0, 0.0, 0.0, 0.0, 0.0, 1, 35.0, 0.015, 0.015 
69162, -0.5836499333381653, -0.3300073742866516, 101.48895263671875, -0.009999999776482582, 0.7900000214576721, 0.0, 0.0, 0.0, 0.0, 0.0, 0.0, 0.0, 0.0, 0.0, 0.0, 0.0, 0.0, 0.0, 0.0, 0.0, 0.0, 0.0, 1, 35.0, 0.015, 0.015 
69164, -0.7669150233268738, -0.3222045302391052, 101.53897857666016, -0.009999999776482582, 0.9399999976158142, 0.0, 0.0, 0.0, 0.0, 0.0, 0.0, 0.0, 0.0, 0.0, 0.0, 0.0, 0.0, 0.0, 0.0, 0.0, 0.0, 0.0, 1, 35.0, 0.015, 0.015 
69167, -1.0497843027114868, -0.3937869668006897, 101.62078094482422, -0.009999999776482582, 1.0299999713897705, 0.0, 0.0, 0.0, 0.0, 0.0, 0.0, 0.0, 0.0, 0.0, 0.0, 0.0, 0.0, 0.0, 0.0, 0.0, 0.0, 0.0, 1, 35.0, 0.015, 0.015 
69169, -1.2670962810516357, -0.35412290692329407, 101.70320129394531, -0.009999999776482582, 1.1399999856948853, 0.0, 0.0, 0.0, 0.0, 0.0, 0.0, 0.0, 0.0, 0.0, 0.0, 0.0, 0.0, 0.0, 0.0, 0.0, 0.0, 0.0, 1, 35.0, 0.015, 0.015 
69171, -1.4656875133514404, -0.3389894664287567, 101.7657699584961, -0.009999999776482582, 1.25, 0.0, 0.0, 0.0, 0.0, 0.0, 0.0, 0.0, 0.0, 0.0, 0.0, 0.0, 0.0, 0.0, 0.0, 0.0, 0.0, 0.0, 1, 35.0, 0.015, 0.015 
69173, -1.6317317485809326, -0.35872551798820496, 101.77713012695312, -0.009999999776482582, 1.350000023841858, 0.0, 0.0, 0.0, 0.0, 0.0, 0.0, 0.0, 0.0, 0.0, 0.0, 0.0, 0.0, 0.0, 0.0, 0.0, 0.0, 0.0, 1, 35.0, 0.015, 0.015 
69175, -1.7597194910049438, -0.2972969114780426, 101.83963012695312, -0.009999999776482582, 1.5099999904632568, 0.0, 0.0, 0.0, 0.0, 0.0, 0.0, 0.0, 0.0, 0.0, 0.0, 0.0, 0.0, 0.0, 0.0, 0.0, 0.0, 0.0, 1, 35.0, 0.015, 0.015 
69178, -1.9616119861602783, -0.24453754723072052, 101.86248016357422, -0.009999999776482582, 1.600000023841858, 0.0, 0.0, 0.0, 0.0, 0.0, 0.0, 0.0, 0.0, 0.0, 0.0, 0.0, 0.0, 0.0, 0.0, 0.0, 0.0, 0.0, 1, 35.0, 0.015, 0.015 
69180, -2.106046676635742, -0.20420511066913605, 101.92965698242188, -0.009999999776482582, 1.6799999475479126, 0.0, 0.0, 0.0, 0.0, 0.0, 0.0, 0.0, 0.0, 0.0, 0.0, 0.0, 0.0, 0.0, 0.0, 0.0, 0.0, 0.0, 1, 35.0, 0.015, 0.015 
69183, -2.302718162536621, -0.19254335761070251, 101.93553161621094, -0.009999999776482582, 1.7799999713897705, 0.0, 0.0, 0.0, 0.0, 0.0, 0.0, 0.0, 0.0, 0.0, 0.0, 0.0, 0.0, 0.0, 0.0, 0.0, 0.0, 0.0, 1, 35.0, 0.015, 0.015 
69184, -2.3812713623046875, -0.15610267221927643, 101.970703125, -0.009999999776482582, 1.8300000429153442, 0.0, 0.0, 0.0, 0.0, 0.0, 0.0, 0.0, 0.0, 0.0, 0.0, 0.0, 0.0, 0.0, 0.0, 0.0, 0.0, 0.0, 1, 35.0, 0.015, 0.015 
69187, -2.4702324867248535, -0.10406240820884705, 102.01285552978516, -0.009999999776482582, 1.8799999952316284, 0.0, 0.0, 0.0, 0.0, 0.0, 0.0, 0.0, 0.0, 0.0, 0.0, 0.0, 0.0, 0.0, 0.0, 0.0, 0.0, 0.0, 1, 35.0, 0.015, 0.015 
69189, -2.4749436378479004, -0.08425810188055038, 102.00572204589844, -0.009999999776482582, 1.9199999570846558, 0.0, 0.0, 0.0, 0.0, 0.0, 0.0, 0.0, 0.0, 0.0, 0.0, 0.0, 0.0, 0.0, 0.0, 0.0, 0.0, 0.0, 1, 35.0, 0.015, 0.015 
69191, -2.467529296875, 0.041505299508571625, 102.01941680908203, -0.009999999776482582, 1.9299999475479126, 0.0, 0.0, 0.0, 0.0, 0.0, 0.0, 0.0, 0.0, 0.0, 0.0, 0.0, 0.0, 0.0, 0.0, 0.0, 0.0, 0.0, 1, 35.0, 0.015, 0.015 
69193, -2.4806740283966064, 0.034814607352018356, 102.02256774902344, -0.009999999776482582, 1.9299999475479126, 0.0, 0.0, 0.0, 0.0, 0.0, 0.0, 0.0, 0.0, 0.0, 0.0, 0.0, 0.0, 0.0, 0.0, 0.0, 0.0, 0.0, 1, 35.0, 0.015, 0.015 
69195, -2.5291593074798584, 0.046570178121328354, 102.02006530761719, -0.009999999776482582, 1.9299999475479126, 0.0, 0.0, 0.0, 0.0, 0.0, 0.0, 0.0, 0.0, 0.0, 0.0, 0.0, 0.0, 0.0, 0.0, 0.0, 0.0, 0.0, 1, 35.0, 0.015, 0.015 
69198, -2.6172029972076416, 0.11720870435237885, 102.06169128417969, -0.009999999776482582, 1.9299999475479126, 0.0, 0.0, 0.0, 0.0, 0.0, 0.0, 0.0, 0.0, 0.0, 0.0, 0.0, 0.0, 0.0, 0.0, 0.0, 0.0, 0.0, 1, 35.0, 0.015, 0.015 
69200, -2.639400005340576, 0.15258736908435822, 102.05416870117188, -0.009999999776482582, 1.9199999570846558, 0.0, 0.0, 0.0, 0.0, 0.0, 0.0, 0.0, 0.0, 0.0, 0.0, 0.0, 0.0, 0.0, 0.0, 0.0, 0.0, 0.0, 1, 35.0, 0.015, 0.015 
69202, -2.618006706237793, 0.1814393699169159, 102.07161712646484, -0.009999999776482582, 1.8799999952316284, 0.0, 0.0, 0.0, 0.0, 0.0, 0.0, 0.0, 0.0, 0.0, 0.0, 0.0, 0.0, 0.0, 0.0, 0.0, 0.0, 0.0, 1, 35.0, 0.015, 0.015 
