counter, roll, pitch, yaw, pan, tilt, lati, longi, timestp, heading, rateofturn, cog, sog2, sow, sog, temp, humidity, pressure, wind_speed, wind_angle, bb_roll, bb_pitch, bb_yaw, proc_ptu_mode, proc_colav_limit, proc_colav_speed, proc_surveil_speed
197440, 1.8442925214767456, -0.10209973156452179, 174.2639617919922, 28.030000686645508, 1.0499999523162842, 0.0, 0.0, 0.0, 0.0, 0.0, 0.0, 0.0, 0.0, 0.0, 0.0, 0.0, 0.0, 0.0, 0.0, 0.0, 0.0, 0.0, 3, 35.0, 0.015, 0.015 
197443, 1.9405114650726318, -0.3040444552898407, 173.7808074951172, 28.270000457763672, 1.0800000429153442, 0.0, 0.0, 0.0, 0.0, 0.0, 0.0, 0.0, 0.0, 0.0, 0.0, 0.0, 0.0, 0.0, 0.0, 0.0, 0.0, 0.0, 3, 35.0, 0.015, 0.015 
197445, 2.019136667251587, -0.3139684796333313, 173.6271209716797, 28.43000030517578, 1.1699999570846558, 0.0, 0.0, 0.0, 0.0, 0.0, 0.0, 0.0, 0.0, 0.0, 0.0, 0.0, 0.0, 0.0, 0.0, 0.0, 0.0, 0.0, 3, 35.0, 0.015, 0.015 
197445, 2.019136667251587, -0.3139684796333313, 173.6271209716797, 28.43000030517578, 1.1699999570846558, 0.0, 0.0, 0.0, 0.0, 0.0, 0.0, 0.0, 0.0, 0.0, 0.0, 0.0, 0.0, 0.0, 0.0, 0.0, 0.0, 0.0, 3, 35.0, 0.015, 0.015 
197448, 1.8906161785125732, -0.368419885635376, 173.13998413085938, 28.68000030517578, 1.309999942779541, 0.0, 0.0, 0.0, 0.0, 0.0, 0.0, 0.0, 0.0, 0.0, 0.0, 0.0, 0.0, 0.0, 0.0, 0.0, 0.0, 0.0, 3, 35.0, 0.015, 0.015 
197450, 1.740578532218933, -0.3478791117668152, 173.1036834716797, 28.84000015258789, 1.4199999570846558, 0.0, 0.0, 0.0, 0.0, 0.0, 0.0, 0.0, 0.0, 0.0, 0.0, 0.0, 0.0, 0.0, 0.0, 0.0, 0.0, 0.0, 3, 35.0, 0.015, 0.015 
197452, 1.4530541896820068, 0.00625344505533576, 173.0978240966797, 29.0, 1.5, 0.0, 0.0, 0.0, 0.0, 0.0, 0.0, 0.0, 0.0, 0.0, 0.0, 0.0, 0.0, 0.0, 0.0, 0.0, 0.0, 0.0, 3, 35.0, 0.015, 0.015 
197454, 1.1588143110275269, 0.09124622493982315, 173.0736846923828, 29.15999984741211, 1.5, 0.0, 0.0, 0.0, 0.0, 0.0, 0.0, 0.0, 0.0, 0.0, 0.0, 0.0, 0.0, 0.0, 0.0, 0.0, 0.0, 0.0, 3, 35.0, 0.015, 0.015 
197456, 0.9410051703453064, 0.008347348310053349, 172.8736572265625, 29.31999969482422, 1.5, 0.0, 0.0, 0.0, 0.0, 0.0, 0.0, 0.0, 0.0, 0.0, 0.0, 0.0, 0.0, 0.0, 0.0, 0.0, 0.0, 0.0, 3, 35.0, 0.015, 0.015 
197459, 0.6963260173797607, -0.06339336931705475, 172.59083557128906, 29.489999771118164, 1.5, 0.0, 0.0, 0.0, 0.0, 0.0, 0.0, 0.0, 0.0, 0.0, 0.0, 0.0, 0.0, 0.0, 0.0, 0.0, 0.0, 0.0, 3, 35.0, 0.015, 0.015 
197462, 0.29571887850761414, 0.003913066815584898, 172.24264526367188, 29.809999465942383, 1.5, 0.0, 0.0, 0.0, 0.0, 0.0, 0.0, 0.0, 0.0, 0.0, 0.0, 0.0, 0.0, 0.0, 0.0, 0.0, 0.0, 0.0, 3, 35.0, 0.015, 0.015 
197463, 0.16486871242523193, 0.05491098389029503, 172.15338134765625, 29.889999389648438, 1.5, 0.0, 0.0, 0.0, 0.0, 0.0, 0.0, 0.0, 0.0, 0.0, 0.0, 0.0, 0.0, 0.0, 0.0, 0.0, 0.0, 0.0, 3, 35.0, 0.015, 0.015 
197466, -0.33855000138282776, 0.14243783056735992, 172.06471252441406, 30.049999237060547, 1.5, 0.0, 0.0, 0.0, 0.0, 0.0, 0.0, 0.0, 0.0, 0.0, 0.0, 0.0, 0.0, 0.0, 0.0, 0.0, 0.0, 0.0, 3, 35.0, 0.015, 0.015 
197468, -0.6737616658210754, 0.2822861075401306, 172.12657165527344, 30.209999084472656, 1.4900000095367432, 0.0, 0.0, 0.0, 0.0, 0.0, 0.0, 0.0, 0.0, 0.0, 0.0, 0.0, 0.0, 0.0, 0.0, 0.0, 0.0, 0.0, 3, 35.0, 0.015, 0.015 
197470, -1.0182139873504639, 0.3633255064487457, 171.9051971435547, 30.459999084472656, 1.3799999952316284, 0.0, 0.0, 0.0, 0.0, 0.0, 0.0, 0.0, 0.0, 0.0, 0.0, 0.0, 0.0, 0.0, 0.0, 0.0, 0.0, 0.0, 3, 35.0, 0.015, 0.015 
197472, -1.3506731986999512, 0.3570473790168762, 171.73109436035156, 30.6200008392334, 1.2699999809265137, 0.0, 0.0, 0.0, 0.0, 0.0, 0.0, 0.0, 0.0, 0.0, 0.0, 0.0, 0.0, 0.0, 0.0, 0.0, 0.0, 0.0, 3, 35.0, 0.015, 0.015 
197474, -1.6473455429077148, 0.38524264097213745, 171.70509338378906, 30.780000686645508, 1.1699999570846558, 0.0, 0.0, 0.0, 0.0, 0.0, 0.0, 0.0, 0.0, 0.0, 0.0, 0.0, 0.0, 0.0, 0.0, 0.0, 0.0, 0.0, 3, 35.0, 0.015, 0.015 
197476, -1.9328346252441406, 0.4826841950416565, 171.48898315429688, 30.940000534057617, 1.0499999523162842, 0.0, 0.0, 0.0, 0.0, 0.0, 0.0, 0.0, 0.0, 0.0, 0.0, 0.0, 0.0, 0.0, 0.0, 0.0, 0.0, 0.0, 3, 35.0, 0.015, 0.015 
197479, -2.394373893737793, 0.45149582624435425, 171.34033203125, 31.190000534057617, 0.8399999737739563, 0.0, 0.0, 0.0, 0.0, 0.0, 0.0, 0.0, 0.0, 0.0, 0.0, 0.0, 0.0, 0.0, 0.0, 0.0, 0.0, 0.0, 3, 35.0, 0.015, 0.015 
197481, -2.6753666400909424, 0.5168566703796387, 171.17141723632812, 31.350000381469727, 0.699999988079071, 0.0, 0.0, 0.0, 0.0, 0.0, 0.0, 0.0, 0.0, 0.0, 0.0, 0.0, 0.0, 0.0, 0.0, 0.0, 0.0, 0.0, 3, 35.0, 0.015, 0.015 
197483, -2.954279899597168, 0.6011013984680176, 171.0579376220703, 31.510000228881836, 0.5400000214576721, 0.0, 0.0, 0.0, 0.0, 0.0, 0.0, 0.0, 0.0, 0.0, 0.0, 0.0, 0.0, 0.0, 0.0, 0.0, 0.0, 0.0, 3, 35.0, 0.015, 0.015 
197486, -3.3785958290100098, 0.5970419049263, 170.86492919921875, 31.75, 0.25999999046325684, 0.0, 0.0, 0.0, 0.0, 0.0, 0.0, 0.0, 0.0, 0.0, 0.0, 0.0, 0.0, 0.0, 0.0, 0.0, 0.0, 0.0, 3, 35.0, 0.015, 0.015 
197487, -3.4318110942840576, 0.5833612084388733, 170.81671142578125, 31.84000015258789, 0.1599999964237213, 0.0, 0.0, 0.0, 0.0, 0.0, 0.0, 0.0, 0.0, 0.0, 0.0, 0.0, 0.0, 0.0, 0.0, 0.0, 0.0, 0.0, 3, 35.0, 0.015, 0.015 
197490, -3.5846078395843506, 0.6661607623100281, 170.57545471191406, 32.08000183105469, -0.10999999940395355, 0.0, 0.0, 0.0, 0.0, 0.0, 0.0, 0.0, 0.0, 0.0, 0.0, 0.0, 0.0, 0.0, 0.0, 0.0, 0.0, 0.0, 3, 35.0, 0.015, 0.015 
197492, -3.6657090187072754, 0.5747983455657959, 170.37965393066406, 32.2400016784668, -0.3100000023841858, 0.0, 0.0, 0.0, 0.0, 0.0, 0.0, 0.0, 0.0, 0.0, 0.0, 0.0, 0.0, 0.0, 0.0, 0.0, 0.0, 0.0, 3, 35.0, 0.015, 0.015 
197494, -3.7212133407592773, 0.5991356372833252, 170.25897216796875, 32.38999938964844, -0.47999998927116394, 0.0, 0.0, 0.0, 0.0, 0.0, 0.0, 0.0, 0.0, 0.0, 0.0, 0.0, 0.0, 0.0, 0.0, 0.0, 0.0, 0.0, 3, 35.0, 0.015, 0.015 
197496, -3.767627000808716, 0.6918898224830627, 170.09271240234375, 32.540000915527344, -0.6600000262260437, 0.0, 0.0, 0.0, 0.0, 0.0, 0.0, 0.0, 0.0, 0.0, 0.0, 0.0, 0.0, 0.0, 0.0, 0.0, 0.0, 0.0, 3, 35.0, 0.015, 0.015 
197498, -3.850766658782959, 0.6959443092346191, 169.92787170410156, 32.68000030517578, -0.8700000047683716, 0.0, 0.0, 0.0, 0.0, 0.0, 0.0, 0.0, 0.0, 0.0, 0.0, 0.0, 0.0, 0.0, 0.0, 0.0, 0.0, 0.0, 3, 35.0, 0.015, 0.015 
197501, -3.942521095275879, 0.758165180683136, 169.8053741455078, 32.900001525878906, -1.1799999475479126, 0.0, 0.0, 0.0, 0.0, 0.0, 0.0, 0.0, 0.0, 0.0, 0.0, 0.0, 0.0, 0.0, 0.0, 0.0, 0.0, 0.0, 3, 35.0, 0.015, 0.015 
197503, -3.9563140869140625, 0.8044718503952026, 169.6053466796875, 33.04999923706055, -1.409999966621399, 0.0, 0.0, 0.0, 0.0, 0.0, 0.0, 0.0, 0.0, 0.0, 0.0, 0.0, 0.0, 0.0, 0.0, 0.0, 0.0, 0.0, 3, 35.0, 0.015, 0.015 
197505, -3.93538236618042, 0.7858774662017822, 169.4031982421875, 33.189998626708984, -1.649999976158142, 0.0, 0.0, 0.0, 0.0, 0.0, 0.0, 0.0, 0.0, 0.0, 0.0, 0.0, 0.0, 0.0, 0.0, 0.0, 0.0, 0.0, 3, 35.0, 0.015, 0.015 
197508, -3.8721277713775635, 0.6642032861709595, 169.10818481445312, 33.380001068115234, -2.0, 0.0, 0.0, 0.0, 0.0, 0.0, 0.0, 0.0, 0.0, 0.0, 0.0, 0.0, 0.0, 0.0, 0.0, 0.0, 0.0, 0.0, 3, 35.0, 0.015, 0.015 
197510, -3.848925828933716, 0.6745506525039673, 168.90127563476562, 33.470001220703125, -2.2100000381469727, 0.0, 0.0, 0.0, 0.0, 0.0, 0.0, 0.0, 0.0, 0.0, 0.0, 0.0, 0.0, 0.0, 0.0, 0.0, 0.0, 0.0, 3, 35.0, 0.015, 0.015 
197512, -3.8701331615448, 0.7386435866355896, 168.8338165283203, 33.56999969482422, -2.4100000858306885, 0.0, 0.0, 0.0, 0.0, 0.0, 0.0, 0.0, 0.0, 0.0, 0.0, 0.0, 0.0, 0.0, 0.0, 0.0, 0.0, 0.0, 3, 35.0, 0.015, 0.015 
197514, -3.9135169982910156, 0.6773330569267273, 168.74395751953125, 33.66999816894531, -2.619999885559082, 0.0, 0.0, 0.0, 0.0, 0.0, 0.0, 0.0, 0.0, 0.0, 0.0, 0.0, 0.0, 0.0, 0.0, 0.0, 0.0, 0.0, 3, 35.0, 0.015, 0.015 
197516, -3.9012391567230225, 0.659774899482727, 168.51751708984375, 33.7599983215332, -2.8299999237060547, 0.0, 0.0, 0.0, 0.0, 0.0, 0.0, 0.0, 0.0, 0.0, 0.0, 0.0, 0.0, 0.0, 0.0, 0.0, 0.0, 0.0, 3, 35.0, 0.015, 0.015 
197518, -3.8641133308410645, 0.6957175135612488, 168.36289978027344, 33.86000061035156, -3.0299999713897705, 0.0, 0.0, 0.0, 0.0, 0.0, 0.0, 0.0, 0.0, 0.0, 0.0, 0.0, 0.0, 0.0, 0.0, 0.0, 0.0, 0.0, 3, 35.0, 0.015, 0.015 
197521, -3.8416342735290527, 0.38193297386169434, 168.19491577148438, 34.0, -3.3299999237060547, 0.0, 0.0, 0.0, 0.0, 0.0, 0.0, 0.0, 0.0, 0.0, 0.0, 0.0, 0.0, 0.0, 0.0, 0.0, 0.0, 0.0, 3, 35.0, 0.015, 0.015 
197523, -3.760951280593872, 0.3940114676952362, 167.9478759765625, 34.04999923706055, -3.4700000286102295, 0.0, 0.0, 0.0, 0.0, 0.0, 0.0, 0.0, 0.0, 0.0, 0.0, 0.0, 0.0, 0.0, 0.0, 0.0, 0.0, 0.0, 3, 35.0, 0.015, 0.015 
197525, -3.758347988128662, 0.2983308732509613, 167.77102661132812, 34.09000015258789, -3.5799999237060547, 0.0, 0.0, 0.0, 0.0, 0.0, 0.0, 0.0, 0.0, 0.0, 0.0, 0.0, 0.0, 0.0, 0.0, 0.0, 0.0, 0.0, 3, 35.0, 0.015, 0.015 
197527, -3.7921531200408936, 0.17643098533153534, 167.70794677734375, 34.13999938964844, -3.680000066757202, 0.0, 0.0, 0.0, 0.0, 0.0, 0.0, 0.0, 0.0, 0.0, 0.0, 0.0, 0.0, 0.0, 0.0, 0.0, 0.0, 0.0, 3, 35.0, 0.015, 0.015 
197529, -3.8106203079223633, 0.2709919512271881, 167.67674255371094, 34.220001220703125, -3.7799999713897705, 0.0, 0.0, 0.0, 0.0, 0.0, 0.0, 0.0, 0.0, 0.0, 0.0, 0.0, 0.0, 0.0, 0.0, 0.0, 0.0, 0.0, 3, 35.0, 0.015, 0.015 
197532, -3.819215774536133, 0.23744294047355652, 167.41319274902344, 34.2599983215332, -3.859999895095825, 0.0, 0.0, 0.0, 0.0, 0.0, 0.0, 0.0, 0.0, 0.0, 0.0, 0.0, 0.0, 0.0, 0.0, 0.0, 0.0, 0.0, 3, 35.0, 0.015, 0.015 
197534, -3.756385326385498, 0.054215241223573685, 167.32550048828125, 34.310001373291016, -3.940000057220459, 0.0, 0.0, 0.0, 0.0, 0.0, 0.0, 0.0, 0.0, 0.0, 0.0, 0.0, 0.0, 0.0, 0.0, 0.0, 0.0, 0.0, 3, 35.0, 0.015, 0.015 
197536, -3.635809898376465, -0.09576144069433212, 167.12583923339844, 34.36000061035156, -3.990000009536743, 0.0, 0.0, 0.0, 0.0, 0.0, 0.0, 0.0, 0.0, 0.0, 0.0, 0.0, 0.0, 0.0, 0.0, 0.0, 0.0, 0.0, 3, 35.0, 0.015, 0.015 
197538, -3.527772903442383, -0.1876617819070816, 166.9639434814453, 34.40999984741211, -3.990000009536743, 0.0, 0.0, 0.0, 0.0, 0.0, 0.0, 0.0, 0.0, 0.0, 0.0, 0.0, 0.0, 0.0, 0.0, 0.0, 0.0, 0.0, 3, 35.0, 0.015, 0.015 
197541, -3.478782892227173, -0.2501988112926483, 166.81036376953125, 34.47999954223633, -3.930000066757202, 0.0, 0.0, 0.0, 0.0, 0.0, 0.0, 0.0, 0.0, 0.0, 0.0, 0.0, 0.0, 0.0, 0.0, 0.0, 0.0, 0.0, 3, 35.0, 0.015, 0.015 
197543, -3.4583396911621094, -0.22602994740009308, 166.71417236328125, 34.529998779296875, -3.869999885559082, 0.0, 0.0, 0.0, 0.0, 0.0, 0.0, 0.0, 0.0, 0.0, 0.0, 0.0, 0.0, 0.0, 0.0, 0.0, 0.0, 0.0, 3, 35.0, 0.015, 0.015 
197545, -3.3944931030273438, -0.2427065074443817, 166.55982971191406, 34.58000183105469, -3.799999952316284, 0.0, 0.0, 0.0, 0.0, 0.0, 0.0, 0.0, 0.0, 0.0, 0.0, 0.0, 0.0, 0.0, 0.0, 0.0, 0.0, 0.0, 3, 35.0, 0.015, 0.015 
197547, -3.341207265853882, -0.27694979310035706, 166.40557861328125, 34.630001068115234, -3.7200000286102295, 0.0, 0.0, 0.0, 0.0, 0.0, 0.0, 0.0, 0.0, 0.0, 0.0, 0.0, 0.0, 0.0, 0.0, 0.0, 0.0, 0.0, 3, 35.0, 0.015, 0.015 
197550, -3.2367866039276123, -0.3082386255264282, 166.2339630126953, 34.70000076293945, -3.609999895095825, 0.0, 0.0, 0.0, 0.0, 0.0, 0.0, 0.0, 0.0, 0.0, 0.0, 0.0, 0.0, 0.0, 0.0, 0.0, 0.0, 0.0, 3, 35.0, 0.015, 0.015 
197552, -3.1285178661346436, -0.33704742789268494, 166.05711364746094, 34.75, -3.509999990463257, 0.0, 0.0, 0.0, 0.0, 0.0, 0.0, 0.0, 0.0, 0.0, 0.0, 0.0, 0.0, 0.0, 0.0, 0.0, 0.0, 0.0, 3, 35.0, 0.015, 0.015 
197554, -2.979567766189575, -0.4497778117656708, 165.9552764892578, 34.79999923706055, -3.4100000858306885, 0.0, 0.0, 0.0, 0.0, 0.0, 0.0, 0.0, 0.0, 0.0, 0.0, 0.0, 0.0, 0.0, 0.0, 0.0, 0.0, 0.0, 3, 35.0, 0.015, 0.015 
197556, -2.781461238861084, -0.5567929148674011, 165.79737854003906, 34.849998474121094, -3.299999952316284, 0.0, 0.0, 0.0, 0.0, 0.0, 0.0, 0.0, 0.0, 0.0, 0.0, 0.0, 0.0, 0.0, 0.0, 0.0, 0.0, 0.0, 3, 35.0, 0.015, 0.015 
197558, -2.602037191390991, -0.6115230321884155, 165.59298706054688, 34.91999816894531, -3.059999942779541, 0.0, 0.0, 0.0, 0.0, 0.0, 0.0, 0.0, 0.0, 0.0, 0.0, 0.0, 0.0, 0.0, 0.0, 0.0, 0.0, 0.0, 3, 35.0, 0.015, 0.015 
197561, -2.4347496032714844, -0.5466251373291016, 165.51708984375, 34.970001220703125, -2.880000114440918, 0.0, 0.0, 0.0, 0.0, 0.0, 0.0, 0.0, 0.0, 0.0, 0.0, 0.0, 0.0, 0.0, 0.0, 0.0, 0.0, 0.0, 3, 35.0, 0.015, 0.015 
197563, -2.261197328567505, -0.5594350695610046, 165.38662719726562, 35.02000045776367, -2.7100000381469727, 0.0, 0.0, 0.0, 0.0, 0.0, 0.0, 0.0, 0.0, 0.0, 0.0, 0.0, 0.0, 0.0, 0.0, 0.0, 0.0, 0.0, 3, 35.0, 0.015, 0.015 
197565, -1.855257511138916, -0.6345082521438599, 165.201416015625, 34.95000076293945, -2.549999952316284, 0.0, 0.0, 0.0, 0.0, 0.0, 0.0, 0.0, 0.0, 0.0, 0.0, 0.0, 0.0, 0.0, 0.0, 0.0, 0.0, 0.0, 3, 35.0, 0.015, 0.015 
197567, -1.6157562732696533, -0.7026166915893555, 165.1464080810547, 34.869998931884766, -2.369999885559082, 0.0, 0.0, 0.0, 0.0, 0.0, 0.0, 0.0, 0.0, 0.0, 0.0, 0.0, 0.0, 0.0, 0.0, 0.0, 0.0, 0.0, 3, 35.0, 0.015, 0.015 
197569, -1.1501476764678955, -0.9030792713165283, 165.24085998535156, 34.79999923706055, -2.049999952316284, 0.0, 0.0, 0.0, 0.0, 0.0, 0.0, 0.0, 0.0, 0.0, 0.0, 0.0, 0.0, 0.0, 0.0, 0.0, 0.0, 0.0, 3, 35.0, 0.015, 0.015 
197572, -0.7297089695930481, -0.8067386746406555, 165.02938842773438, 34.75, -1.7799999713897705, 0.0, 0.0, 0.0, 0.0, 0.0, 0.0, 0.0, 0.0, 0.0, 0.0, 0.0, 0.0, 0.0, 0.0, 0.0, 0.0, 0.0, 3, 35.0, 0.015, 0.015 
197574, -0.46638429164886475, -0.7237216234207153, 164.98292541503906, 34.70000076293945, -1.5199999809265137, 0.0, 0.0, 0.0, 0.0, 0.0, 0.0, 0.0, 0.0, 0.0, 0.0, 0.0, 0.0, 0.0, 0.0, 0.0, 0.0, 0.0, 3, 35.0, 0.015, 0.015 
197576, -0.16747528314590454, -0.7219200730323792, 165.0478973388672, 34.650001525878906, -1.2999999523162842, 0.0, 0.0, 0.0, 0.0, 0.0, 0.0, 0.0, 0.0, 0.0, 0.0, 0.0, 0.0, 0.0, 0.0, 0.0, 0.0, 0.0, 3, 35.0, 0.015, 0.015 
197578, 0.21548433601856232, -0.7098858952522278, 165.119384765625, 34.58000183105469, -0.9700000286102295, 0.0, 0.0, 0.0, 0.0, 0.0, 0.0, 0.0, 0.0, 0.0, 0.0, 0.0, 0.0, 0.0, 0.0, 0.0, 0.0, 0.0, 3, 35.0, 0.015, 0.015 
197580, 0.628785252571106, -0.775339663028717, 164.91000366210938, 34.529998779296875, -0.7599999904632568, 0.0, 0.0, 0.0, 0.0, 0.0, 0.0, 0.0, 0.0, 0.0, 0.0, 0.0, 0.0, 0.0, 0.0, 0.0, 0.0, 0.0, 3, 35.0, 0.015, 0.015 
197583, 1.3380433320999146, -0.8686196804046631, 164.754638671875, 34.47999954223633, -0.5199999809265137, 0.0, 0.0, 0.0, 0.0, 0.0, 0.0, 0.0, 0.0, 0.0, 0.0, 0.0, 0.0, 0.0, 0.0, 0.0, 0.0, 0.0, 3, 35.0, 0.015, 0.015 
197585, 1.7216854095458984, -0.855754554271698, 164.7059326171875, 34.43000030517578, -0.25999999046325684, 0.0, 0.0, 0.0, 0.0, 0.0, 0.0, 0.0, 0.0, 0.0, 0.0, 0.0, 0.0, 0.0, 0.0, 0.0, 0.0, 0.0, 3, 35.0, 0.015, 0.015 
197587, 2.0453522205352783, -0.7646801471710205, 164.63316345214844, 34.380001068115234, -0.0, 0.0, 0.0, 0.0, 0.0, 0.0, 0.0, 0.0, 0.0, 0.0, 0.0, 0.0, 0.0, 0.0, 0.0, 0.0, 0.0, 0.0, 3, 35.0, 0.015, 0.015 
197589, 2.291823625564575, -0.6195473670959473, 164.5894012451172, 34.310001373291016, 0.36000001430511475, 0.0, 0.0, 0.0, 0.0, 0.0, 0.0, 0.0, 0.0, 0.0, 0.0, 0.0, 0.0, 0.0, 0.0, 0.0, 0.0, 0.0, 3, 35.0, 0.015, 0.015 
197592, 2.575094223022461, -0.289167582988739, 164.6123809814453, 34.2599983215332, 0.5400000214576721, 0.0, 0.0, 0.0, 0.0, 0.0, 0.0, 0.0, 0.0, 0.0, 0.0, 0.0, 0.0, 0.0, 0.0, 0.0, 0.0, 0.0, 3, 35.0, 0.015, 0.015 
197595, 2.9374420642852783, -0.18401458859443665, 164.498291015625, 34.189998626708984, 0.6899999976158142, 0.0, 0.0, 0.0, 0.0, 0.0, 0.0, 0.0, 0.0, 0.0, 0.0, 0.0, 0.0, 0.0, 0.0, 0.0, 0.0, 0.0, 3, 35.0, 0.015, 0.015 
197596, 3.019253730773926, -0.1302291303873062, 164.5017852783203, 34.15999984741211, 0.7099999785423279, 0.0, 0.0, 0.0, 0.0, 0.0, 0.0, 0.0, 0.0, 0.0, 0.0, 0.0, 0.0, 0.0, 0.0, 0.0, 0.0, 0.0, 3, 35.0, 0.015, 0.015 
197598, 3.2458739280700684, -0.21331290900707245, 164.4893798828125, 34.119998931884766, 0.7599999904632568, 0.0, 0.0, 0.0, 0.0, 0.0, 0.0, 0.0, 0.0, 0.0, 0.0, 0.0, 0.0, 0.0, 0.0, 0.0, 0.0, 0.0, 3, 35.0, 0.015, 0.015 
197600, 3.4490835666656494, -0.14668293297290802, 164.3708038330078, 34.040000915527344, 0.8500000238418579, 0.0, 0.0, 0.0, 0.0, 0.0, 0.0, 0.0, 0.0, 0.0, 0.0, 0.0, 0.0, 0.0, 0.0, 0.0, 0.0, 0.0, 3, 35.0, 0.015, 0.015 
197603, 3.443441867828369, -0.11180086433887482, 164.36607360839844, 33.9900016784668, 0.8999999761581421, 0.0, 0.0, 0.0, 0.0, 0.0, 0.0, 0.0, 0.0, 0.0, 0.0, 0.0, 0.0, 0.0, 0.0, 0.0, 0.0, 0.0, 3, 35.0, 0.015, 0.015 
197605, 3.422466278076172, 0.11234182119369507, 164.40216064453125, 33.95000076293945, 0.9399999976158142, 0.0, 0.0, 0.0, 0.0, 0.0, 0.0, 0.0, 0.0, 0.0, 0.0, 0.0, 0.0, 0.0, 0.0, 0.0, 0.0, 0.0, 3, 35.0, 0.015, 0.015 
197608, 3.4292287826538086, 0.15320029854774475, 164.32394409179688, 33.84000015258789, 0.9200000166893005, 0.0, 0.0, 0.0, 0.0, 0.0, 0.0, 0.0, 0.0, 0.0, 0.0, 0.0, 0.0, 0.0, 0.0, 0.0, 0.0, 0.0, 3, 35.0, 0.015, 0.015 
197609, 3.4505698680877686, 0.20247572660446167, 164.3115997314453, 33.7400016784668, 0.8500000238418579, 0.0, 0.0, 0.0, 0.0, 0.0, 0.0, 0.0, 0.0, 0.0, 0.0, 0.0, 0.0, 0.0, 0.0, 0.0, 0.0, 0.0, 3, 35.0, 0.015, 0.015 
197611, 3.5178956985473633, 0.029889894649386406, 164.43869018554688, 33.650001525878906, 0.800000011920929, 0.0, 0.0, 0.0, 0.0, 0.0, 0.0, 0.0, 0.0, 0.0, 0.0, 0.0, 0.0, 0.0, 0.0, 0.0, 0.0, 0.0, 3, 35.0, 0.015, 0.015 
197614, 3.5084967613220215, -0.0047180247493088245, 164.3790740966797, 33.54999923706055, 0.7799999713897705, 0.0, 0.0, 0.0, 0.0, 0.0, 0.0, 0.0, 0.0, 0.0, 0.0, 0.0, 0.0, 0.0, 0.0, 0.0, 0.0, 0.0, 3, 35.0, 0.015, 0.015 
197616, 3.3741724491119385, 0.23175179958343506, 164.443603515625, 33.45000076293945, 0.7799999713897705, 0.0, 0.0, 0.0, 0.0, 0.0, 0.0, 0.0, 0.0, 0.0, 0.0, 0.0, 0.0, 0.0, 0.0, 0.0, 0.0, 0.0, 3, 35.0, 0.015, 0.015 
197618, 3.15898060798645, 0.30281832814216614, 164.61549377441406, 33.36000061035156, 0.75, 0.0, 0.0, 0.0, 0.0, 0.0, 0.0, 0.0, 0.0, 0.0, 0.0, 0.0, 0.0, 0.0, 0.0, 0.0, 0.0, 0.0, 3, 35.0, 0.015, 0.015 
197620, 2.9836721420288086, 0.3566024601459503, 164.6460418701172, 33.209999084472656, 0.6100000143051147, 0.0, 0.0, 0.0, 0.0, 0.0, 0.0, 0.0, 0.0, 0.0, 0.0, 0.0, 0.0, 0.0, 0.0, 0.0, 0.0, 0.0, 3, 35.0, 0.015, 0.015 
197623, 2.7547945976257324, 0.3634331226348877, 164.73475646972656, 33.08000183105469, 0.5, 0.0, 0.0, 0.0, 0.0, 0.0, 0.0, 0.0, 0.0, 0.0, 0.0, 0.0, 0.0, 0.0, 0.0, 0.0, 0.0, 0.0, 3, 35.0, 0.015, 0.015 
197625, 2.546792984008789, 0.30787715315818787, 164.8927001953125, 32.93000030517578, 0.3799999952316284, 0.0, 0.0, 0.0, 0.0, 0.0, 0.0, 0.0, 0.0, 0.0, 0.0, 0.0, 0.0, 0.0, 0.0, 0.0, 0.0, 0.0, 3, 35.0, 0.015, 0.015 
197627, 2.3189451694488525, 0.3763650953769684, 165.02099609375, 32.709999084472656, 0.23000000417232513, 0.0, 0.0, 0.0, 0.0, 0.0, 0.0, 0.0, 0.0, 0.0, 0.0, 0.0, 0.0, 0.0, 0.0, 0.0, 0.0, 0.0, 3, 35.0, 0.015, 0.015 
197629, 2.0448930263519287, 0.4970247745513916, 165.1433563232422, 32.56999969482422, 0.11999999731779099, 0.0, 0.0, 0.0, 0.0, 0.0, 0.0, 0.0, 0.0, 0.0, 0.0, 0.0, 0.0, 0.0, 0.0, 0.0, 0.0, 0.0, 3, 35.0, 0.015, 0.015 
197631, 1.766708254814148, 0.5155291557312012, 165.3382568359375, 32.41999816894531, -0.029999999329447746, 0.0, 0.0, 0.0, 0.0, 0.0, 0.0, 0.0, 0.0, 0.0, 0.0, 0.0, 0.0, 0.0, 0.0, 0.0, 0.0, 0.0, 3, 35.0, 0.015, 0.015 
197634, 1.458743691444397, 0.4866921305656433, 165.46975708007812, 32.27000045776367, -0.18000000715255737, 0.0, 0.0, 0.0, 0.0, 0.0, 0.0, 0.0, 0.0, 0.0, 0.0, 0.0, 0.0, 0.0, 0.0, 0.0, 0.0, 0.0, 3, 35.0, 0.015, 0.015 
197636, 1.24335777759552, 0.4572468101978302, 165.6263885498047, 32.04999923706055, -0.38999998569488525, 0.0, 0.0, 0.0, 0.0, 0.0, 0.0, 0.0, 0.0, 0.0, 0.0, 0.0, 0.0, 0.0, 0.0, 0.0, 0.0, 0.0, 3, 35.0, 0.015, 0.015 
197638, 1.0155937671661377, 0.4729210436344147, 165.7835235595703, 31.969999313354492, -0.46000000834465027, 0.0, 0.0, 0.0, 0.0, 0.0, 0.0, 0.0, 0.0, 0.0, 0.0, 0.0, 0.0, 0.0, 0.0, 0.0, 0.0, 0.0, 3, 35.0, 0.015, 0.015 
197641, 0.6446363925933838, 0.4826366901397705, 166.09335327148438, 31.729999542236328, -0.6800000071525574, 0.0, 0.0, 0.0, 0.0, 0.0, 0.0, 0.0, 0.0, 0.0, 0.0, 0.0, 0.0, 0.0, 0.0, 0.0, 0.0, 0.0, 3, 35.0, 0.015, 0.015 
197642, 0.5784744024276733, 0.4816163182258606, 166.15895080566406, 31.559999465942383, -0.8199999928474426, 0.0, 0.0, 0.0, 0.0, 0.0, 0.0, 0.0, 0.0, 0.0, 0.0, 0.0, 0.0, 0.0, 0.0, 0.0, 0.0, 0.0, 3, 35.0, 0.015, 0.015 
197645, 0.25362449884414673, 0.4861023724079132, 166.38818359375, 31.399999618530273, -0.9599999785423279, 0.0, 0.0, 0.0, 0.0, 0.0, 0.0, 0.0, 0.0, 0.0, 0.0, 0.0, 0.0, 0.0, 0.0, 0.0, 0.0, 0.0, 3, 35.0, 0.015, 0.015 
197647, 0.05960450693964958, 0.5006037354469299, 166.6250457763672, 31.239999771118164, -1.1200000047683716, 0.0, 0.0, 0.0, 0.0, 0.0, 0.0, 0.0, 0.0, 0.0, 0.0, 0.0, 0.0, 0.0, 0.0, 0.0, 0.0, 0.0, 3, 35.0, 0.015, 0.015 
197650, -0.19070445001125336, 0.5634894371032715, 166.85006713867188, 31.0, -1.340000033378601, 0.0, 0.0, 0.0, 0.0, 0.0, 0.0, 0.0, 0.0, 0.0, 0.0, 0.0, 0.0, 0.0, 0.0, 0.0, 0.0, 0.0, 3, 35.0, 0.015, 0.015 
197651, -0.31971922516822815, 0.5680972337722778, 166.9584503173828, 30.84000015258789, -1.5, 0.0, 0.0, 0.0, 0.0, 0.0, 0.0, 0.0, 0.0, 0.0, 0.0, 0.0, 0.0, 0.0, 0.0, 0.0, 0.0, 0.0, 3, 35.0, 0.015, 0.015 
197654, -0.5217468738555908, 0.5853400826454163, 167.29354858398438, 30.670000076293945, -1.6699999570846558, 0.0, 0.0, 0.0, 0.0, 0.0, 0.0, 0.0, 0.0, 0.0, 0.0, 0.0, 0.0, 0.0, 0.0, 0.0, 0.0, 0.0, 3, 35.0, 0.015, 0.015 
197656, -0.6371752619743347, 0.5609670877456665, 167.5901336669922, 30.510000228881836, -1.840000033378601, 0.0, 0.0, 0.0, 0.0, 0.0, 0.0, 0.0, 0.0, 0.0, 0.0, 0.0, 0.0, 0.0, 0.0, 0.0, 0.0, 0.0, 3, 35.0, 0.015, 0.015 
197659, -0.7906911969184875, 0.5397568345069885, 167.8341064453125, 30.270000457763672, -2.0999999046325684, 0.0, 0.0, 0.0, 0.0, 0.0, 0.0, 0.0, 0.0, 0.0, 0.0, 0.0, 0.0, 0.0, 0.0, 0.0, 0.0, 0.0, 3, 35.0, 0.015, 0.015 
197660, -0.8247594237327576, 0.5582001209259033, 167.87379455566406, 30.110000610351562, -2.25, 0.0, 0.0, 0.0, 0.0, 0.0, 0.0, 0.0, 0.0, 0.0, 0.0, 0.0, 0.0, 0.0, 0.0, 0.0, 0.0, 0.0, 3, 35.0, 0.015, 0.015 
197663, -0.9708810448646545, 0.5430328845977783, 168.16668701171875, 29.940000534057617, -2.4200000762939453, 0.0, 0.0, 0.0, 0.0, 0.0, 0.0, 0.0, 0.0, 0.0, 0.0, 0.0, 0.0, 0.0, 0.0, 0.0, 0.0, 0.0, 3, 35.0, 0.015, 0.015 
197665, -1.0424562692642212, 0.5349001288414001, 168.50181579589844, 29.780000686645508, -2.5799999237060547, 0.0, 0.0, 0.0, 0.0, 0.0, 0.0, 0.0, 0.0, 0.0, 0.0, 0.0, 0.0, 0.0, 0.0, 0.0, 0.0, 0.0, 3, 35.0, 0.015, 0.015 
197667, -1.0921281576156616, 0.5385119318962097, 168.78955078125, 29.540000915527344, -2.819999933242798, 0.0, 0.0, 0.0, 0.0, 0.0, 0.0, 0.0, 0.0, 0.0, 0.0, 0.0, 0.0, 0.0, 0.0, 0.0, 0.0, 0.0, 3, 35.0, 0.015, 0.015 
197669, -1.1191598176956177, 0.5011937022209167, 168.91131591796875, 29.3799991607666, -2.990000009536743, 0.0, 0.0, 0.0, 0.0, 0.0, 0.0, 0.0, 0.0, 0.0, 0.0, 0.0, 0.0, 0.0, 0.0, 0.0, 0.0, 0.0, 3, 35.0, 0.015, 0.015 
197672, -1.166576623916626, 0.45052972435951233, 169.07823181152344, 29.1299991607666, -3.2100000381469727, 0.0, 0.0, 0.0, 0.0, 0.0, 0.0, 0.0, 0.0, 0.0, 0.0, 0.0, 0.0, 0.0, 0.0, 0.0, 0.0, 0.0, 3, 35.0, 0.015, 0.015 
197674, -1.236310362815857, 0.4530887007713318, 169.5153350830078, 29.049999237060547, -3.2799999713897705, 0.0, 0.0, 0.0, 0.0, 0.0, 0.0, 0.0, 0.0, 0.0, 0.0, 0.0, 0.0, 0.0, 0.0, 0.0, 0.0, 0.0, 3, 35.0, 0.015, 0.015 
197676, -1.2977190017700195, 0.3846810460090637, 169.76454162597656, 28.889999389648438, -3.4100000858306885, 0.0, 0.0, 0.0, 0.0, 0.0, 0.0, 0.0, 0.0, 0.0, 0.0, 0.0, 0.0, 0.0, 0.0, 0.0, 0.0, 0.0, 3, 35.0, 0.015, 0.015 
197678, -1.3228801488876343, 0.3222161829471588, 169.9301300048828, 28.729999542236328, -3.5399999618530273, 0.0, 0.0, 0.0, 0.0, 0.0, 0.0, 0.0, 0.0, 0.0, 0.0, 0.0, 0.0, 0.0, 0.0, 0.0, 0.0, 0.0, 3, 35.0, 0.015, 0.015 
197680, -1.3400827646255493, 0.24624933302402496, 170.2388153076172, 28.489999771118164, -3.690000057220459, 0.0, 0.0, 0.0, 0.0, 0.0, 0.0, 0.0, 0.0, 0.0, 0.0, 0.0, 0.0, 0.0, 0.0, 0.0, 0.0, 0.0, 3, 35.0, 0.015, 0.015 
197683, -1.3556435108184814, 0.02850584127008915, 170.45767211914062, 28.31999969482422, -3.7699999809265137, 0.0, 0.0, 0.0, 0.0, 0.0, 0.0, 0.0, 0.0, 0.0, 0.0, 0.0, 0.0, 0.0, 0.0, 0.0, 0.0, 0.0, 3, 35.0, 0.015, 0.015 
197685, -1.3595778942108154, -0.06007660552859306, 170.6000518798828, 28.15999984741211, -3.7799999713897705, 0.0, 0.0, 0.0, 0.0, 0.0, 0.0, 0.0, 0.0, 0.0, 0.0, 0.0, 0.0, 0.0, 0.0, 0.0, 0.0, 0.0, 3, 35.0, 0.015, 0.015 
197687, -1.3737404346466064, -0.08456607908010483, 170.8839111328125, 28.0, -3.7799999713897705, 0.0, 0.0, 0.0, 0.0, 0.0, 0.0, 0.0, 0.0, 0.0, 0.0, 0.0, 0.0, 0.0, 0.0, 0.0, 0.0, 0.0, 3, 35.0, 0.015, 0.015 
197689, -1.4039249420166016, -0.2622342109680176, 171.07894897460938, 27.760000228881836, -3.7699999809265137, 0.0, 0.0, 0.0, 0.0, 0.0, 0.0, 0.0, 0.0, 0.0, 0.0, 0.0, 0.0, 0.0, 0.0, 0.0, 0.0, 0.0, 3, 35.0, 0.015, 0.015 
197691, -1.4259295463562012, -0.3714911937713623, 171.26133728027344, 27.600000381469727, -3.680000066757202, 0.0, 0.0, 0.0, 0.0, 0.0, 0.0, 0.0, 0.0, 0.0, 0.0, 0.0, 0.0, 0.0, 0.0, 0.0, 0.0, 0.0, 3, 35.0, 0.015, 0.015 
197693, -1.4619393348693848, -0.42751896381378174, 171.50607299804688, 27.43000030517578, -3.569999933242798, 0.0, 0.0, 0.0, 0.0, 0.0, 0.0, 0.0, 0.0, 0.0, 0.0, 0.0, 0.0, 0.0, 0.0, 0.0, 0.0, 0.0, 3, 35.0, 0.015, 0.015 
197696, -1.5557317733764648, -0.5248984694480896, 171.81503295898438, 27.270000457763672, -3.440000057220459, 0.0, 0.0, 0.0, 0.0, 0.0, 0.0, 0.0, 0.0, 0.0, 0.0, 0.0, 0.0, 0.0, 0.0, 0.0, 0.0, 0.0, 3, 35.0, 0.015, 0.015 
197698, -1.5818885564804077, -0.5692115426063538, 172.04360961914062, 27.110000610351562, -3.2799999713897705, 0.0, 0.0, 0.0, 0.0, 0.0, 0.0, 0.0, 0.0, 0.0, 0.0, 0.0, 0.0, 0.0, 0.0, 0.0, 0.0, 0.0, 3, 35.0, 0.015, 0.015 
197700, -1.6118663549423218, -0.5929167866706848, 172.1573028564453, 26.860000610351562, -3.0399999618530273, 0.0, 0.0, 0.0, 0.0, 0.0, 0.0, 0.0, 0.0, 0.0, 0.0, 0.0, 0.0, 0.0, 0.0, 0.0, 0.0, 0.0, 3, 35.0, 0.015, 0.015 
197702, -1.6774228811264038, -0.6845259070396423, 172.39730834960938, 26.700000762939453, -2.8499999046325684, 0.0, 0.0, 0.0, 0.0, 0.0, 0.0, 0.0, 0.0, 0.0, 0.0, 0.0, 0.0, 0.0, 0.0, 0.0, 0.0, 0.0, 3, 35.0, 0.015, 0.015 
197704, -1.7367699146270752, -0.6791747808456421, 172.63861083984375, 26.540000915527344, -2.6500000953674316, 0.0, 0.0, 0.0, 0.0, 0.0, 0.0, 0.0, 0.0, 0.0, 0.0, 0.0, 0.0, 0.0, 0.0, 0.0, 0.0, 0.0, 3, 35.0, 0.015, 0.015 
197707, -1.800498127937317, -0.6553483009338379, 172.83445739746094, 26.3799991607666, -2.450000047683716, 0.0, 0.0, 0.0, 0.0, 0.0, 0.0, 0.0, 0.0, 0.0, 0.0, 0.0, 0.0, 0.0, 0.0, 0.0, 0.0, 0.0, 3, 35.0, 0.015, 0.015 
197709, -1.8145806789398193, -0.6771315336227417, 173.07139587402344, 26.139999389648438, -2.1600000858306885, 0.0, 0.0, 0.0, 0.0, 0.0, 0.0, 0.0, 0.0, 0.0, 0.0, 0.0, 0.0, 0.0, 0.0, 0.0, 0.0, 0.0, 3, 35.0, 0.015, 0.015 
197711, -1.7957465648651123, -0.7373669743537903, 173.2727508544922, 25.969999313354492, -1.9500000476837158, 0.0, 0.0, 0.0, 0.0, 0.0, 0.0, 0.0, 0.0, 0.0, 0.0, 0.0, 0.0, 0.0, 0.0, 0.0, 0.0, 0.0, 3, 35.0, 0.015, 0.015 
197713, -1.7845491170883179, -0.7310920357704163, 173.38009643554688, 25.809999465942383, -1.7300000190734863, 0.0, 0.0, 0.0, 0.0, 0.0, 0.0, 0.0, 0.0, 0.0, 0.0, 0.0, 0.0, 0.0, 0.0, 0.0, 0.0, 0.0, 3, 35.0, 0.015, 0.015 
197715, -1.8035831451416016, -0.6901026964187622, 173.60165405273438, 25.649999618530273, -1.5099999904632568, 0.0, 0.0, 0.0, 0.0, 0.0, 0.0, 0.0, 0.0, 0.0, 0.0, 0.0, 0.0, 0.0, 0.0, 0.0, 0.0, 0.0, 3, 35.0, 0.015, 0.015 
197718, -1.8160706758499146, -0.6248616576194763, 173.9929962158203, 25.489999771118164, -1.309999942779541, 0.0, 0.0, 0.0, 0.0, 0.0, 0.0, 0.0, 0.0, 0.0, 0.0, 0.0, 0.0, 0.0, 0.0, 0.0, 0.0, 0.0, 3, 35.0, 0.015, 0.015 
197720, -1.7664142847061157, -0.6433074474334717, 174.13650512695312, 25.239999771118164, -1.0299999713897705, 0.0, 0.0, 0.0, 0.0, 0.0, 0.0, 0.0, 0.0, 0.0, 0.0, 0.0, 0.0, 0.0, 0.0, 0.0, 0.0, 0.0, 3, 35.0, 0.015, 0.015 
197722, -1.6831111907958984, -0.5598664283752441, 174.3289031982422, 25.079999923706055, -0.8399999737739563, 0.0, 0.0, 0.0, 0.0, 0.0, 0.0, 0.0, 0.0, 0.0, 0.0, 0.0, 0.0, 0.0, 0.0, 0.0, 0.0, 0.0, 3, 35.0, 0.015, 0.015 
197724, -1.631134033203125, -0.5977389216423035, 174.53634643554688, 24.920000076293945, -0.6700000166893005, 0.0, 0.0, 0.0, 0.0, 0.0, 0.0, 0.0, 0.0, 0.0, 0.0, 0.0, 0.0, 0.0, 0.0, 0.0, 0.0, 0.0, 3, 35.0, 0.015, 0.015 
197727, -1.5561915636062622, -0.508324921131134, 174.75607299804688, 24.68000030517578, -0.4099999964237213, 0.0, 0.0, 0.0, 0.0, 0.0, 0.0, 0.0, 0.0, 0.0, 0.0, 0.0, 0.0, 0.0, 0.0, 0.0, 0.0, 0.0, 3, 35.0, 0.015, 0.015 
197729, -1.4823963642120361, -0.3859438896179199, 174.98924255371094, 24.520000457763672, -0.27000001072883606, 0.0, 0.0, 0.0, 0.0, 0.0, 0.0, 0.0, 0.0, 0.0, 0.0, 0.0, 0.0, 0.0, 0.0, 0.0, 0.0, 0.0, 3, 35.0, 0.015, 0.015 
197732, -1.3110997676849365, -0.3648190200328827, 175.23313903808594, 24.270000457763672, -0.09000000357627869, 0.0, 0.0, 0.0, 0.0, 0.0, 0.0, 0.0, 0.0, 0.0, 0.0, 0.0, 0.0, 0.0, 0.0, 0.0, 0.0, 0.0, 3, 35.0, 0.015, 0.015 
197733, -1.2720105648040771, -0.366163432598114, 175.30282592773438, 24.190000534057617, -0.029999999329447746, 0.0, 0.0, 0.0, 0.0, 0.0, 0.0, 0.0, 0.0, 0.0, 0.0, 0.0, 0.0, 0.0, 0.0, 0.0, 0.0, 0.0, 3, 35.0, 0.015, 0.015 
197736, -1.0695022344589233, -0.244777113199234, 175.6350860595703, 24.030000686645508, 0.07000000029802322, 0.0, 0.0, 0.0, 0.0, 0.0, 0.0, 0.0, 0.0, 0.0, 0.0, 0.0, 0.0, 0.0, 0.0, 0.0, 0.0, 0.0, 3, 35.0, 0.015, 0.015 
197738, -0.9340490698814392, -0.10892537236213684, 175.78067016601562, 23.8700008392334, 0.15000000596046448, 0.0, 0.0, 0.0, 0.0, 0.0, 0.0, 0.0, 0.0, 0.0, 0.0, 0.0, 0.0, 0.0, 0.0, 0.0, 0.0, 0.0, 3, 35.0, 0.015, 0.015 
197740, -0.7862542867660522, -0.10929179936647415, 176.00965881347656, 23.6200008392334, 0.23000000417232513, 0.0, 0.0, 0.0, 0.0, 0.0, 0.0, 0.0, 0.0, 0.0, 0.0, 0.0, 0.0, 0.0, 0.0, 0.0, 0.0, 0.0, 3, 35.0, 0.015, 0.015 
197742, -0.5926002264022827, -0.059957049787044525, 176.19224548339844, 23.459999084472656, 0.25999999046325684, 0.0, 0.0, 0.0, 0.0, 0.0, 0.0, 0.0, 0.0, 0.0, 0.0, 0.0, 0.0, 0.0, 0.0, 0.0, 0.0, 0.0, 3, 35.0, 0.015, 0.015 
197745, -0.31513312458992004, 0.018109852448105812, 176.33685302734375, 23.219999313354492, 0.25999999046325684, 0.0, 0.0, 0.0, 0.0, 0.0, 0.0, 0.0, 0.0, 0.0, 0.0, 0.0, 0.0, 0.0, 0.0, 0.0, 0.0, 0.0, 3, 35.0, 0.015, 0.015 
197749, 0.09222733974456787, 0.09167790412902832, 176.76016235351562, 22.889999389648438, 0.25999999046325684, 0.0, 0.0, 0.0, 0.0, 0.0, 0.0, 0.0, 0.0, 0.0, 0.0, 0.0, 0.0, 0.0, 0.0, 0.0, 0.0, 0.0, 3, 35.0, 0.015, 0.015 
197750, 0.24671222269535065, 0.15805211663246155, 176.82345581054688, 22.889999389648438, 0.25999999046325684, 0.0, 0.0, 0.0, 0.0, 0.0, 0.0, 0.0, 0.0, 0.0, 0.0, 0.0, 0.0, 0.0, 0.0, 0.0, 0.0, 0.0, 3, 35.0, 0.015, 0.015 
197751, 0.32545697689056396, 0.16836312413215637, 176.84243774414062, 22.729999542236328, 0.25, 0.0, 0.0, 0.0, 0.0, 0.0, 0.0, 0.0, 0.0, 0.0, 0.0, 0.0, 0.0, 0.0, 0.0, 0.0, 0.0, 0.0, 3, 35.0, 0.015, 0.015 
197757, 1.0274288654327393, 0.26100650429725647, 177.2506866455078, 22.329999923706055, 0.10000000149011612, 0.0, 0.0, 0.0, 0.0, 0.0, 0.0, 0.0, 0.0, 0.0, 0.0, 0.0, 0.0, 0.0, 0.0, 0.0, 0.0, 0.0, 3, 35.0, 0.015, 0.015 
197758, 1.1653162240982056, 0.2234957367181778, 177.30955505371094, 22.170000076293945, 0.029999999329447746, 0.0, 0.0, 0.0, 0.0, 0.0, 0.0, 0.0, 0.0, 0.0, 0.0, 0.0, 0.0, 0.0, 0.0, 0.0, 0.0, 0.0, 3, 35.0, 0.015, 0.015 
197760, 1.3074876070022583, 0.14439524710178375, 177.45233154296875, 22.09000015258789, -0.0, 0.0, 0.0, 0.0, 0.0, 0.0, 0.0, 0.0, 0.0, 0.0, 0.0, 0.0, 0.0, 0.0, 0.0, 0.0, 0.0, 0.0, 3, 35.0, 0.015, 0.015 
197761, 1.3620762825012207, 0.1355830281972885, 177.50808715820312, 22.0, -0.029999999329447746, 0.0, 0.0, 0.0, 0.0, 0.0, 0.0, 0.0, 0.0, 0.0, 0.0, 0.0, 0.0, 0.0, 0.0, 0.0, 0.0, 0.0, 3, 35.0, 0.015, 0.015 
197762, 1.4553403854370117, 0.15033432841300964, 177.6121826171875, 21.84000015258789, -0.07000000029802322, 0.0, 0.0, 0.0, 0.0, 0.0, 0.0, 0.0, 0.0, 0.0, 0.0, 0.0, 0.0, 0.0, 0.0, 0.0, 0.0, 0.0, 3, 35.0, 0.015, 0.015 
197764, 1.5756338834762573, 0.1310211569070816, 177.6976776123047, 21.68000030517578, -0.11999999731779099, 0.0, 0.0, 0.0, 0.0, 0.0, 0.0, 0.0, 0.0, 0.0, 0.0, 0.0, 0.0, 0.0, 0.0, 0.0, 0.0, 0.0, 3, 35.0, 0.015, 0.015 
197767, 1.6964302062988281, 0.06492592394351959, 177.76573181152344, 21.520000457763672, -0.1599999964237213, 0.0, 0.0, 0.0, 0.0, 0.0, 0.0, 0.0, 0.0, 0.0, 0.0, 0.0, 0.0, 0.0, 0.0, 0.0, 0.0, 0.0, 3, 35.0, 0.015, 0.015 
197770, 1.7785496711730957, 0.09226339310407639, 178.03042602539062, 21.270000457763672, -0.1599999964237213, 0.0, 0.0, 0.0, 0.0, 0.0, 0.0, 0.0, 0.0, 0.0, 0.0, 0.0, 0.0, 0.0, 0.0, 0.0, 0.0, 0.0, 3, 35.0, 0.015, 0.015 
197771, 1.785347580909729, 0.07685178518295288, 178.04893493652344, 21.110000610351562, -0.1599999964237213, 0.0, 0.0, 0.0, 0.0, 0.0, 0.0, 0.0, 0.0, 0.0, 0.0, 0.0, 0.0, 0.0, 0.0, 0.0, 0.0, 0.0, 3, 35.0, 0.015, 0.015 
197773, 1.8465261459350586, 0.05193641781806946, 178.13137817382812, 20.950000762939453, -0.1599999964237213, 0.0, 0.0, 0.0, 0.0, 0.0, 0.0, 0.0, 0.0, 0.0, 0.0, 0.0, 0.0, 0.0, 0.0, 0.0, 0.0, 0.0, 3, 35.0, 0.015, 0.015 
197776, 2.13679838180542, -0.03443758934736252, 178.3999481201172, 20.790000915527344, -0.1599999964237213, 0.0, 0.0, 0.0, 0.0, 0.0, 0.0, 0.0, 0.0, 0.0, 0.0, 0.0, 0.0, 0.0, 0.0, 0.0, 0.0, 0.0, 3, 35.0, 0.015, 0.015 
197778, 2.3414506912231445, -0.16239313781261444, 178.46502685546875, 20.549999237060547, -0.1599999964237213, 0.0, 0.0, 0.0, 0.0, 0.0, 0.0, 0.0, 0.0, 0.0, 0.0, 0.0, 0.0, 0.0, 0.0, 0.0, 0.0, 0.0, 3, 35.0, 0.015, 0.015 
197781, 2.5126798152923584, -0.2175384759902954, 178.37820434570312, 20.299999237060547, -0.09000000357627869, 0.0, 0.0, 0.0, 0.0, 0.0, 0.0, 0.0, 0.0, 0.0, 0.0, 0.0, 0.0, 0.0, 0.0, 0.0, 0.0, 0.0, 3, 35.0, 0.015, 0.015 
197782, 2.5478310585021973, -0.2696011960506439, 178.59263610839844, 20.219999313354492, -0.05999999865889549, 0.0, 0.0, 0.0, 0.0, 0.0, 0.0, 0.0, 0.0, 0.0, 0.0, 0.0, 0.0, 0.0, 0.0, 0.0, 0.0, 0.0, 3, 35.0, 0.015, 0.015 
197784, 2.561418056488037, -0.2650803029537201, 178.7682342529297, 20.059999465942383, 0.019999999552965164, 0.0, 0.0, 0.0, 0.0, 0.0, 0.0, 0.0, 0.0, 0.0, 0.0, 0.0, 0.0, 0.0, 0.0, 0.0, 0.0, 0.0, 3, 35.0, 0.015, 0.015 
197787, 2.601916551589966, -0.2013893872499466, 178.80667114257812, 19.899999618530273, 0.10000000149011612, 0.0, 0.0, 0.0, 0.0, 0.0, 0.0, 0.0, 0.0, 0.0, 0.0, 0.0, 0.0, 0.0, 0.0, 0.0, 0.0, 0.0, 3, 35.0, 0.015, 0.015 
197789, 2.7138850688934326, -0.23438464105129242, 179.05458068847656, 19.65999984741211, 0.1899999976158142, 0.0, 0.0, 0.0, 0.0, 0.0, 0.0, 0.0, 0.0, 0.0, 0.0, 0.0, 0.0, 0.0, 0.0, 0.0, 0.0, 0.0, 3, 35.0, 0.015, 0.015 
197791, 2.865102529525757, -0.3056626617908478, 179.19117736816406, 19.489999771118164, 0.27000001072883606, 0.0, 0.0, 0.0, 0.0, 0.0, 0.0, 0.0, 0.0, 0.0, 0.0, 0.0, 0.0, 0.0, 0.0, 0.0, 0.0, 0.0, 3, 35.0, 0.015, 0.015 
197793, 2.9936811923980713, -0.31112635135650635, 179.15570068359375, 19.329999923706055, 0.3499999940395355, 0.0, 0.0, 0.0, 0.0, 0.0, 0.0, 0.0, 0.0, 0.0, 0.0, 0.0, 0.0, 0.0, 0.0, 0.0, 0.0, 0.0, 3, 35.0, 0.015, 0.015 
197795, 3.0857558250427246, -0.32742637395858765, 179.1426239013672, 19.170000076293945, 0.44999998807907104, 0.0, 0.0, 0.0, 0.0, 0.0, 0.0, 0.0, 0.0, 0.0, 0.0, 0.0, 0.0, 0.0, 0.0, 0.0, 0.0, 0.0, 3, 35.0, 0.015, 0.015 
197798, 3.177107572555542, -0.21541354060173035, 179.44375610351562, 19.010000228881836, 0.5400000214576721, 0.0, 0.0, 0.0, 0.0, 0.0, 0.0, 0.0, 0.0, 0.0, 0.0, 0.0, 0.0, 0.0, 0.0, 0.0, 0.0, 0.0, 3, 35.0, 0.015, 0.015 
197800, 3.2025797367095947, -0.1697607934474945, 179.49740600585938, 18.760000228881836, 0.6499999761581421, 0.0, 0.0, 0.0, 0.0, 0.0, 0.0, 0.0, 0.0, 0.0, 0.0, 0.0, 0.0, 0.0, 0.0, 0.0, 0.0, 0.0, 3, 35.0, 0.015, 0.015 
197802, 3.242015838623047, -0.15772901475429535, 179.6973419189453, 18.600000381469727, 0.7099999785423279, 0.0, 0.0, 0.0, 0.0, 0.0, 0.0, 0.0, 0.0, 0.0, 0.0, 0.0, 0.0, 0.0, 0.0, 0.0, 0.0, 0.0, 3, 35.0, 0.015, 0.015 
197804, 3.3502535820007324, -0.07515761256217957, 179.76358032226562, 18.440000534057617, 0.7599999904632568, 0.0, 0.0, 0.0, 0.0, 0.0, 0.0, 0.0, 0.0, 0.0, 0.0, 0.0, 0.0, 0.0, 0.0, 0.0, 0.0, 0.0, 3, 35.0, 0.015, 0.015 
197807, 3.5136470794677734, -0.08671282231807709, 179.98611450195312, 18.200000762939453, 0.8199999928474426, 0.0, 0.0, 0.0, 0.0, 0.0, 0.0, 0.0, 0.0, 0.0, 0.0, 0.0, 0.0, 0.0, 0.0, 0.0, 0.0, 0.0, 3, 35.0, 0.015, 0.015 
197809, 3.594127893447876, -0.09898851066827774, 179.99560546875, 18.040000915527344, 0.8299999833106995, 0.0, 0.0, 0.0, 0.0, 0.0, 0.0, 0.0, 0.0, 0.0, 0.0, 0.0, 0.0, 0.0, 0.0, 0.0, 0.0, 0.0, 3, 35.0, 0.015, 0.015 
197811, 3.675431251525879, -0.03877134993672371, -179.94979858398438, 17.8700008392334, 0.8299999833106995, 0.0, 0.0, 0.0, 0.0, 0.0, 0.0, 0.0, 0.0, 0.0, 0.0, 0.0, 0.0, 0.0, 0.0, 0.0, 0.0, 0.0, 3, 35.0, 0.015, 0.015 
197813, 3.7102577686309814, -0.039185844361782074, -179.72300720214844, 17.709999084472656, 0.8299999833106995, 0.0, 0.0, 0.0, 0.0, 0.0, 0.0, 0.0, 0.0, 0.0, 0.0, 0.0, 0.0, 0.0, 0.0, 0.0, 0.0, 0.0, 3, 35.0, 0.015, 0.015 
197816, 3.7669599056243896, 0.05837520211935043, -179.5956573486328, 17.469999313354492, 0.8299999833106995, 0.0, 0.0, 0.0, 0.0, 0.0, 0.0, 0.0, 0.0, 0.0, 0.0, 0.0, 0.0, 0.0, 0.0, 0.0, 0.0, 0.0, 3, 35.0, 0.015, 0.015 
197819, 3.8955445289611816, 0.11199484020471573, -179.349609375, 17.229999542236328, 0.8299999833106995, 0.0, 0.0, 0.0, 0.0, 0.0, 0.0, 0.0, 0.0, 0.0, 0.0, 0.0, 0.0, 0.0, 0.0, 0.0, 0.0, 0.0, 3, 35.0, 0.015, 0.015 
197820, 3.9768996238708496, 0.11820168793201447, -179.30831909179688, 17.139999389648438, 0.8199999928474426, 0.0, 0.0, 0.0, 0.0, 0.0, 0.0, 0.0, 0.0, 0.0, 0.0, 0.0, 0.0, 0.0, 0.0, 0.0, 0.0, 0.0, 3, 35.0, 0.015, 0.015 
197822, 4.096179008483887, 0.16688382625579834, -179.26434326171875, 16.979999542236328, 0.7900000214576721, 0.0, 0.0, 0.0, 0.0, 0.0, 0.0, 0.0, 0.0, 0.0, 0.0, 0.0, 0.0, 0.0, 0.0, 0.0, 0.0, 0.0, 3, 35.0, 0.015, 0.015 
197824, 4.181154251098633, 0.18802663683891296, -179.0723876953125, 16.81999969482422, 0.7400000095367432, 0.0, 0.0, 0.0, 0.0, 0.0, 0.0, 0.0, 0.0, 0.0, 0.0, 0.0, 0.0, 0.0, 0.0, 0.0, 0.0, 0.0, 3, 35.0, 0.015, 0.015 
197827, 4.277289867401123, 0.23174262046813965, -178.95074462890625, 16.65999984741211, 0.6800000071525574, 0.0, 0.0, 0.0, 0.0, 0.0, 0.0, 0.0, 0.0, 0.0, 0.0, 0.0, 0.0, 0.0, 0.0, 0.0, 0.0, 0.0, 3, 35.0, 0.015, 0.015 
197829, 4.3577704429626465, 0.24247848987579346, -178.80120849609375, 16.420000076293945, 0.5799999833106995, 0.0, 0.0, 0.0, 0.0, 0.0, 0.0, 0.0, 0.0, 0.0, 0.0, 0.0, 0.0, 0.0, 0.0, 0.0, 0.0, 0.0, 3, 35.0, 0.015, 0.015 
197831, 4.394081115722656, 0.27932924032211304, -178.69366455078125, 16.25, 0.5, 0.0, 0.0, 0.0, 0.0, 0.0, 0.0, 0.0, 0.0, 0.0, 0.0, 0.0, 0.0, 0.0, 0.0, 0.0, 0.0, 0.0, 3, 35.0, 0.015, 0.015 
197833, 4.441842555999756, 0.28635290265083313, -178.61277770996094, 16.09000015258789, 0.41999998688697815, 0.0, 0.0, 0.0, 0.0, 0.0, 0.0, 0.0, 0.0, 0.0, 0.0, 0.0, 0.0, 0.0, 0.0, 0.0, 0.0, 0.0, 3, 35.0, 0.015, 0.015 
197835, 4.436227321624756, 0.3042641282081604, -178.5553436279297, 15.930000305175781, 0.33000001311302185, 0.0, 0.0, 0.0, 0.0, 0.0, 0.0, 0.0, 0.0, 0.0, 0.0, 0.0, 0.0, 0.0, 0.0, 0.0, 0.0, 0.0, 3, 35.0, 0.015, 0.015 
197838, 4.310589790344238, 0.3135904371738434, -178.2843780517578, 15.770000457763672, 0.25, 0.0, 0.0, 0.0, 0.0, 0.0, 0.0, 0.0, 0.0, 0.0, 0.0, 0.0, 0.0, 0.0, 0.0, 0.0, 0.0, 0.0, 3, 35.0, 0.015, 0.015 
197841, 4.20867395401001, 0.3752240538597107, -178.17002868652344, 15.4399995803833, 0.07000000029802322, 0.0, 0.0, 0.0, 0.0, 0.0, 0.0, 0.0, 0.0, 0.0, 0.0, 0.0, 0.0, 0.0, 0.0, 0.0, 0.0, 0.0, 3, 35.0, 0.015, 0.015 
197842, 4.148591041564941, 0.33093032240867615, -178.11825561523438, 15.359999656677246, 0.009999999776482582, 0.0, 0.0, 0.0, 0.0, 0.0, 0.0, 0.0, 0.0, 0.0, 0.0, 0.0, 0.0, 0.0, 0.0, 0.0, 0.0, 0.0, 3, 35.0, 0.015, 0.015 
197844, 4.039742469787598, 0.36234959959983826, -177.94009399414062, 15.199999809265137, -0.09000000357627869, 0.0, 0.0, 0.0, 0.0, 0.0, 0.0, 0.0, 0.0, 0.0, 0.0, 0.0, 0.0, 0.0, 0.0, 0.0, 0.0, 0.0, 3, 35.0, 0.015, 0.015 
197847, 3.804877758026123, 0.29323819279670715, -177.8302459716797, 15.039999961853027, -0.1899999976158142, 0.0, 0.0, 0.0, 0.0, 0.0, 0.0, 0.0, 0.0, 0.0, 0.0, 0.0, 0.0, 0.0, 0.0, 0.0, 0.0, 0.0, 3, 35.0, 0.015, 0.015 
197849, 3.564399003982544, 0.33819007873535156, -177.65562438964844, 14.789999961853027, -0.3199999928474426, 0.0, 0.0, 0.0, 0.0, 0.0, 0.0, 0.0, 0.0, 0.0, 0.0, 0.0, 0.0, 0.0, 0.0, 0.0, 0.0, 0.0, 3, 35.0, 0.015, 0.015 
197851, 3.3221218585968018, 0.456006795167923, -177.39659118652344, 14.630000114440918, -0.4300000071525574, 0.0, 0.0, 0.0, 0.0, 0.0, 0.0, 0.0, 0.0, 0.0, 0.0, 0.0, 0.0, 0.0, 0.0, 0.0, 0.0, 0.0, 3, 35.0, 0.015, 0.015 
197853, 3.118438720703125, 0.34945735335350037, -177.32530212402344, 14.470000267028809, -0.5600000023841858, 0.0, 0.0, 0.0, 0.0, 0.0, 0.0, 0.0, 0.0, 0.0, 0.0, 0.0, 0.0, 0.0, 0.0, 0.0, 0.0, 0.0, 3, 35.0, 0.015, 0.015 
197855, 2.946993589401245, 0.33103147149086, -177.22499084472656, 14.3100004196167, -0.6700000166893005, 0.0, 0.0, 0.0, 0.0, 0.0, 0.0, 0.0, 0.0, 0.0, 0.0, 0.0, 0.0, 0.0, 0.0, 0.0, 0.0, 0.0, 3, 35.0, 0.015, 0.015 
197858, 2.571096181869507, 0.31272539496421814, -176.9279022216797, 14.0600004196167, -0.8299999833106995, 0.0, 0.0, 0.0, 0.0, 0.0, 0.0, 0.0, 0.0, 0.0, 0.0, 0.0, 0.0, 0.0, 0.0, 0.0, 0.0, 0.0, 3, 35.0, 0.015, 0.015 
197860, 2.2586312294006348, 0.3998481035232544, -176.8068389892578, 13.899999618530273, -0.9200000166893005, 0.0, 0.0, 0.0, 0.0, 0.0, 0.0, 0.0, 0.0, 0.0, 0.0, 0.0, 0.0, 0.0, 0.0, 0.0, 0.0, 0.0, 3, 35.0, 0.015, 0.015 
197863, 1.6790854930877686, 0.4958166778087616, -176.3766632080078, 13.65999984741211, -1.1200000047683716, 0.0, 0.0, 0.0, 0.0, 0.0, 0.0, 0.0, 0.0, 0.0, 0.0, 0.0, 0.0, 0.0, 0.0, 0.0, 0.0, 0.0, 3, 35.0, 0.015, 0.015 
197864, 1.5672539472579956, 0.4427233636379242, -176.34413146972656, 13.579999923706055, -1.190000057220459, 0.0, 0.0, 0.0, 0.0, 0.0, 0.0, 0.0, 0.0, 0.0, 0.0, 0.0, 0.0, 0.0, 0.0, 0.0, 0.0, 0.0, 3, 35.0, 0.015, 0.015 
197866, 1.2519112825393677, 0.40183115005493164, -176.22756958007812, 13.420000076293945, -1.3200000524520874, 0.0, 0.0, 0.0, 0.0, 0.0, 0.0, 0.0, 0.0, 0.0, 0.0, 0.0, 0.0, 0.0, 0.0, 0.0, 0.0, 0.0, 3, 35.0, 0.015, 0.015 
197869, 0.7188275456428528, 0.4883851110935211, -175.82164001464844, 13.170000076293945, -1.5199999809265137, 0.0, 0.0, 0.0, 0.0, 0.0, 0.0, 0.0, 0.0, 0.0, 0.0, 0.0, 0.0, 0.0, 0.0, 0.0, 0.0, 0.0, 3, 35.0, 0.015, 0.015 
197871, 0.3912831246852875, 0.4100573658943176, -175.717529296875, 13.010000228881836, -1.659999966621399, 0.0, 0.0, 0.0, 0.0, 0.0, 0.0, 0.0, 0.0, 0.0, 0.0, 0.0, 0.0, 0.0, 0.0, 0.0, 0.0, 0.0, 3, 35.0, 0.015, 0.015 
197874, -0.009872905910015106, 0.4116130471229553, -175.3975067138672, 12.770000457763672, -1.850000023841858, 0.0, 0.0, 0.0, 0.0, 0.0, 0.0, 0.0, 0.0, 0.0, 0.0, 0.0, 0.0, 0.0, 0.0, 0.0, 0.0, 0.0, 3, 35.0, 0.015, 0.015 
197875, -0.19702136516571045, 0.4054957926273346, -175.27120971679688, 12.6899995803833, -1.909999966621399, 0.0, 0.0, 0.0, 0.0, 0.0, 0.0, 0.0, 0.0, 0.0, 0.0, 0.0, 0.0, 0.0, 0.0, 0.0, 0.0, 0.0, 3, 35.0, 0.015, 0.015 
197878, -0.5753338932991028, 0.33626556396484375, -175.1284942626953, 12.4399995803833, -2.0899999141693115, 0.0, 0.0, 0.0, 0.0, 0.0, 0.0, 0.0, 0.0, 0.0, 0.0, 0.0, 0.0, 0.0, 0.0, 0.0, 0.0, 0.0, 3, 35.0, 0.015, 0.015 
197880, -0.8963752388954163, 0.36317920684814453, -174.85574340820312, 12.279999732971191, -2.200000047683716, 0.0, 0.0, 0.0, 0.0, 0.0, 0.0, 0.0, 0.0, 0.0, 0.0, 0.0, 0.0, 0.0, 0.0, 0.0, 0.0, 0.0, 3, 35.0, 0.015, 0.015 
197882, -1.1982837915420532, 0.3770569860935211, -174.5869903564453, 12.119999885559082, -2.309999942779541, 0.0, 0.0, 0.0, 0.0, 0.0, 0.0, 0.0, 0.0, 0.0, 0.0, 0.0, 0.0, 0.0, 0.0, 0.0, 0.0, 0.0, 3, 35.0, 0.015, 0.015 
197884, -1.4548407793045044, 0.2924163043498993, -174.34239196777344, 11.960000038146973, -2.4200000762939453, 0.0, 0.0, 0.0, 0.0, 0.0, 0.0, 0.0, 0.0, 0.0, 0.0, 0.0, 0.0, 0.0, 0.0, 0.0, 0.0, 0.0, 3, 35.0, 0.015, 0.015 
197886, -1.660106897354126, 0.21388745307922363, -174.25, 11.800000190734863, -2.5, 0.0, 0.0, 0.0, 0.0, 0.0, 0.0, 0.0, 0.0, 0.0, 0.0, 0.0, 0.0, 0.0, 0.0, 0.0, 0.0, 0.0, 3, 35.0, 0.015, 0.015 
197889, -1.8996120691299438, 0.18026208877563477, -173.9484405517578, 11.550000190734863, -2.5999999046325684, 0.0, 0.0, 0.0, 0.0, 0.0, 0.0, 0.0, 0.0, 0.0, 0.0, 0.0, 0.0, 0.0, 0.0, 0.0, 0.0, 0.0, 3, 35.0, 0.015, 0.015 
197891, -2.065567970275879, 0.05228852853178978, -173.88829040527344, 11.390000343322754, -2.6500000953674316, 0.0, 0.0, 0.0, 0.0, 0.0, 0.0, 0.0, 0.0, 0.0, 0.0, 0.0, 0.0, 0.0, 0.0, 0.0, 0.0, 0.0, 3, 35.0, 0.015, 0.015 
197894, -2.3336362838745117, -0.041161682456731796, -173.8069305419922, 11.149999618530273, -2.6700000762939453, 0.0, 0.0, 0.0, 0.0, 0.0, 0.0, 0.0, 0.0, 0.0, 0.0, 0.0, 0.0, 0.0, 0.0, 0.0, 0.0, 0.0, 3, 35.0, 0.015, 0.015 
197896, -2.5235841274261475, -0.10179877281188965, -173.4964141845703, 10.989999771118164, -2.6700000762939453, 0.0, 0.0, 0.0, 0.0, 0.0, 0.0, 0.0, 0.0, 0.0, 0.0, 0.0, 0.0, 0.0, 0.0, 0.0, 0.0, 0.0, 3, 35.0, 0.015, 0.015 
197897, -2.6159708499908447, -0.16822955012321472, -173.24351501464844, 10.90999984741211, -2.6700000762939453, 0.0, 0.0, 0.0, 0.0, 0.0, 0.0, 0.0, 0.0, 0.0, 0.0, 0.0, 0.0, 0.0, 0.0, 0.0, 0.0, 0.0, 3, 35.0, 0.015, 0.015 
197900, -2.627455949783325, -0.24247537553310394, -173.0992431640625, 10.65999984741211, -2.619999885559082, 0.0, 0.0, 0.0, 0.0, 0.0, 0.0, 0.0, 0.0, 0.0, 0.0, 0.0, 0.0, 0.0, 0.0, 0.0, 0.0, 0.0, 3, 35.0, 0.015, 0.015 
197902, -2.4535279273986816, -0.36120957136154175, -173.0145263671875, 10.5, -2.559999942779541, 0.0, 0.0, 0.0, 0.0, 0.0, 0.0, 0.0, 0.0, 0.0, 0.0, 0.0, 0.0, 0.0, 0.0, 0.0, 0.0, 0.0, 3, 35.0, 0.015, 0.015 
197904, -2.1817240715026855, -0.40051665902137756, -172.9098663330078, 10.34000015258789, -2.4600000381469727, 0.0, 0.0, 0.0, 0.0, 0.0, 0.0, 0.0, 0.0, 0.0, 0.0, 0.0, 0.0, 0.0, 0.0, 0.0, 0.0, 0.0, 3, 35.0, 0.015, 0.015 
197906, -1.8984538316726685, -0.4067884683609009, -172.8144989013672, 10.180000305175781, -2.3399999141693115, 0.0, 0.0, 0.0, 0.0, 0.0, 0.0, 0.0, 0.0, 0.0, 0.0, 0.0, 0.0, 0.0, 0.0, 0.0, 0.0, 0.0, 3, 35.0, 0.015, 0.015 
197909, -1.560792088508606, -0.530850887298584, -172.78591918945312, 9.930000305175781, -2.1500000953674316, 0.0, 0.0, 0.0, 0.0, 0.0, 0.0, 0.0, 0.0, 0.0, 0.0, 0.0, 0.0, 0.0, 0.0, 0.0, 0.0, 0.0, 3, 35.0, 0.015, 0.015 
197911, -1.3718613386154175, -0.5220857858657837, -172.5288543701172, 9.770000457763672, -1.9900000095367432, 0.0, 0.0, 0.0, 0.0, 0.0, 0.0, 0.0, 0.0, 0.0, 0.0, 0.0, 0.0, 0.0, 0.0, 0.0, 0.0, 0.0, 3, 35.0, 0.015, 0.015 
197913, -1.0637762546539307, -0.5254423022270203, -172.10731506347656, 9.609999656677246, -1.840000033378601, 0.0, 0.0, 0.0, 0.0, 0.0, 0.0, 0.0, 0.0, 0.0, 0.0, 0.0, 0.0, 0.0, 0.0, 0.0, 0.0, 0.0, 3, 35.0, 0.015, 0.015 
197915, -0.5977267026901245, -0.6222968101501465, -172.1553192138672, 9.449999809265137, -1.6799999475479126, 0.0, 0.0, 0.0, 0.0, 0.0, 0.0, 0.0, 0.0, 0.0, 0.0, 0.0, 0.0, 0.0, 0.0, 0.0, 0.0, 0.0, 3, 35.0, 0.015, 0.015 
197918, 0.1777360886335373, -0.5989013314247131, -172.14248657226562, 9.199999809265137, -1.409999966621399, 0.0, 0.0, 0.0, 0.0, 0.0, 0.0, 0.0, 0.0, 0.0, 0.0, 0.0, 0.0, 0.0, 0.0, 0.0, 0.0, 0.0, 3, 35.0, 0.015, 0.015 
197920, 0.7677088379859924, -0.644389808177948, -172.0030517578125, 9.039999961853027, -1.2300000190734863, 0.0, 0.0, 0.0, 0.0, 0.0, 0.0, 0.0, 0.0, 0.0, 0.0, 0.0, 0.0, 0.0, 0.0, 0.0, 0.0, 0.0, 3, 35.0, 0.015, 0.015 
197922, 1.3204988241195679, -0.6239667534828186, -171.97923278808594, 8.880000114440918, -1.0399999618530273, 0.0, 0.0, 0.0, 0.0, 0.0, 0.0, 0.0, 0.0, 0.0, 0.0, 0.0, 0.0, 0.0, 0.0, 0.0, 0.0, 0.0, 3, 35.0, 0.015, 0.015 
197924, 1.8555439710617065, -0.5906183123588562, -171.99435424804688, 8.720000267028809, -0.8500000238418579, 0.0, 0.0, 0.0, 0.0, 0.0, 0.0, 0.0, 0.0, 0.0, 0.0, 0.0, 0.0, 0.0, 0.0, 0.0, 0.0, 0.0, 3, 35.0, 0.015, 0.015 
197926, 2.429116725921631, -0.5784284472465515, -171.7753143310547, 8.5600004196167, -0.6700000166893005, 0.0, 0.0, 0.0, 0.0, 0.0, 0.0, 0.0, 0.0, 0.0, 0.0, 0.0, 0.0, 0.0, 0.0, 0.0, 0.0, 0.0, 3, 35.0, 0.015, 0.015 
197929, 3.4992129802703857, -0.5372359752655029, -171.5616912841797, 8.3100004196167, -0.4099999964237213, 0.0, 0.0, 0.0, 0.0, 0.0, 0.0, 0.0, 0.0, 0.0, 0.0, 0.0, 0.0, 0.0, 0.0, 0.0, 0.0, 0.0, 3, 35.0, 0.015, 0.015 
197931, 4.218131065368652, -0.47061413526535034, -171.59152221679688, 8.149999618530273, -0.25, 0.0, 0.0, 0.0, 0.0, 0.0, 0.0, 0.0, 0.0, 0.0, 0.0, 0.0, 0.0, 0.0, 0.0, 0.0, 0.0, 0.0, 3, 35.0, 0.015, 0.015 
197933, 4.989235877990723, -0.4768874943256378, -171.6219024658203, 7.989999771118164, -0.10000000149011612, 0.0, 0.0, 0.0, 0.0, 0.0, 0.0, 0.0, 0.0, 0.0, 0.0, 0.0, 0.0, 0.0, 0.0, 0.0, 0.0, 0.0, 3, 35.0, 0.015, 0.015 
197935, 5.749948501586914, -0.4666937291622162, -171.71548461914062, 7.829999923706055, 0.03999999910593033, 0.0, 0.0, 0.0, 0.0, 0.0, 0.0, 0.0, 0.0, 0.0, 0.0, 0.0, 0.0, 0.0, 0.0, 0.0, 0.0, 0.0, 3, 35.0, 0.015, 0.015 
197937, 6.470815181732178, -0.3779106140136719, -171.5411834716797, 7.670000076293945, 0.18000000715255737, 0.0, 0.0, 0.0, 0.0, 0.0, 0.0, 0.0, 0.0, 0.0, 0.0, 0.0, 0.0, 0.0, 0.0, 0.0, 0.0, 0.0, 3, 35.0, 0.015, 0.015 
197940, 7.3303914070129395, -0.377131849527359, -171.56256103515625, 7.420000076293945, 0.36000001430511475, 0.0, 0.0, 0.0, 0.0, 0.0, 0.0, 0.0, 0.0, 0.0, 0.0, 0.0, 0.0, 0.0, 0.0, 0.0, 0.0, 0.0, 3, 35.0, 0.015, 0.015 
197942, 7.916113376617432, -0.23561984300613403, -171.5568084716797, 7.260000228881836, 0.4699999988079071, 0.0, 0.0, 0.0, 0.0, 0.0, 0.0, 0.0, 0.0, 0.0, 0.0, 0.0, 0.0, 0.0, 0.0, 0.0, 0.0, 0.0, 3, 35.0, 0.015, 0.015 
197944, 8.410552978515625, -0.045002419501543045, -171.3935546875, 7.099999904632568, 0.5699999928474426, 0.0, 0.0, 0.0, 0.0, 0.0, 0.0, 0.0, 0.0, 0.0, 0.0, 0.0, 0.0, 0.0, 0.0, 0.0, 0.0, 0.0, 3, 35.0, 0.015, 0.015 
197946, 8.797209739685059, -0.13115881383419037, -171.3587646484375, 6.940000057220459, 0.5899999737739563, 0.0, 0.0, 0.0, 0.0, 0.0, 0.0, 0.0, 0.0, 0.0, 0.0, 0.0, 0.0, 0.0, 0.0, 0.0, 0.0, 0.0, 3, 35.0, 0.015, 0.015 
197949, 9.16146469116211, 0.2528340220451355, -171.1650848388672, 6.690000057220459, 0.6399999856948853, 0.0, 0.0, 0.0, 0.0, 0.0, 0.0, 0.0, 0.0, 0.0, 0.0, 0.0, 0.0, 0.0, 0.0, 0.0, 0.0, 0.0, 3, 35.0, 0.015, 0.015 
197951, 9.277761459350586, 0.23848776519298553, -170.9659881591797, 6.53000020980835, 0.6200000047683716, 0.0, 0.0, 0.0, 0.0, 0.0, 0.0, 0.0, 0.0, 0.0, 0.0, 0.0, 0.0, 0.0, 0.0, 0.0, 0.0, 0.0, 3, 35.0, 0.015, 0.015 
197953, 9.339552879333496, 0.21508540213108063, -171.02462768554688, 6.369999885559082, 0.550000011920929, 0.0, 0.0, 0.0, 0.0, 0.0, 0.0, 0.0, 0.0, 0.0, 0.0, 0.0, 0.0, 0.0, 0.0, 0.0, 0.0, 0.0, 3, 35.0, 0.015, 0.015 
197955, 9.312078475952148, 0.21664905548095703, -170.87747192382812, 6.210000038146973, 0.4699999988079071, 0.0, 0.0, 0.0, 0.0, 0.0, 0.0, 0.0, 0.0, 0.0, 0.0, 0.0, 0.0, 0.0, 0.0, 0.0, 0.0, 0.0, 3, 35.0, 0.015, 0.015 
197957, 9.11987590789795, 0.19334647059440613, -170.66993713378906, 6.050000190734863, 0.41999998688697815, 0.0, 0.0, 0.0, 0.0, 0.0, 0.0, 0.0, 0.0, 0.0, 0.0, 0.0, 0.0, 0.0, 0.0, 0.0, 0.0, 0.0, 3, 35.0, 0.015, 0.015 
197960, 8.529807090759277, 0.22334828972816467, -170.5035858154297, 5.800000190734863, 0.3199999928474426, 0.0, 0.0, 0.0, 0.0, 0.0, 0.0, 0.0, 0.0, 0.0, 0.0, 0.0, 0.0, 0.0, 0.0, 0.0, 0.0, 0.0, 3, 35.0, 0.015, 0.015 
197963, 7.756621837615967, 0.4215731620788574, -169.9561767578125, 5.559999942779541, 0.2199999988079071, 0.0, 0.0, 0.0, 0.0, 0.0, 0.0, 0.0, 0.0, 0.0, 0.0, 0.0, 0.0, 0.0, 0.0, 0.0, 0.0, 0.0, 3, 35.0, 0.015, 0.015 
197964, 7.604241371154785, 0.4335251450538635, -169.92919921875, 5.480000019073486, 0.17000000178813934, 0.0, 0.0, 0.0, 0.0, 0.0, 0.0, 0.0, 0.0, 0.0, 0.0, 0.0, 0.0, 0.0, 0.0, 0.0, 0.0, 0.0, 3, 35.0, 0.015, 0.015 
197966, 7.238269805908203, 0.39765456318855286, -169.90155029296875, 5.320000171661377, 0.03999999910593033, 0.0, 0.0, 0.0, 0.0, 0.0, 0.0, 0.0, 0.0, 0.0, 0.0, 0.0, 0.0, 0.0, 0.0, 0.0, 0.0, 0.0, 3, 35.0, 0.015, 0.015 
197968, 6.795349597930908, 0.40306147933006287, -169.64125061035156, 5.070000171661377, -0.14000000059604645, 0.0, 0.0, 0.0, 0.0, 0.0, 0.0, 0.0, 0.0, 0.0, 0.0, 0.0, 0.0, 0.0, 0.0, 0.0, 0.0, 0.0, 3, 35.0, 0.015, 0.015 
197971, 5.638252258300781, 0.35834944248199463, -169.31723022460938, 4.909999847412109, -0.25999999046325684, 0.0, 0.0, 0.0, 0.0, 0.0, 0.0, 0.0, 0.0, 0.0, 0.0, 0.0, 0.0, 0.0, 0.0, 0.0, 0.0, 0.0, 3, 35.0, 0.015, 0.015 
197973, 4.692773342132568, 0.433353453874588, -169.0082550048828, 4.75, -0.3700000047683716, 0.0, 0.0, 0.0, 0.0, 0.0, 0.0, 0.0, 0.0, 0.0, 0.0, 0.0, 0.0, 0.0, 0.0, 0.0, 0.0, 0.0, 3, 35.0, 0.015, 0.015 
197975, 3.7756080627441406, 0.470112681388855, -168.56002807617188, 4.590000152587891, -0.49000000953674316, 0.0, 0.0, 0.0, 0.0, 0.0, 0.0, 0.0, 0.0, 0.0, 0.0, 0.0, 0.0, 0.0, 0.0, 0.0, 0.0, 0.0, 3, 35.0, 0.015, 0.015 
197977, 3.008545160293579, 0.47815659642219543, -168.26414489746094, 4.420000076293945, -0.6299999952316284, 0.0, 0.0, 0.0, 0.0, 0.0, 0.0, 0.0, 0.0, 0.0, 0.0, 0.0, 0.0, 0.0, 0.0, 0.0, 0.0, 0.0, 3, 35.0, 0.015, 0.015 
197980, 2.1054747104644775, 0.46117815375328064, -168.1106719970703, 4.179999828338623, -0.8399999737739563, 0.0, 0.0, 0.0, 0.0, 0.0, 0.0, 0.0, 0.0, 0.0, 0.0, 0.0, 0.0, 0.0, 0.0, 0.0, 0.0, 0.0, 3, 35.0, 0.015, 0.015 
197982, 1.3888605833053589, 0.3705638349056244, -168.0028076171875, 4.019999980926514, -0.9800000190734863, 0.0, 0.0, 0.0, 0.0, 0.0, 0.0, 0.0, 0.0, 0.0, 0.0, 0.0, 0.0, 0.0, 0.0, 0.0, 0.0, 0.0, 3, 35.0, 0.015, 0.015 
197984, 0.5496650338172913, 0.40582552552223206, -167.645263671875, 3.7799999713897705, -1.159999966621399, 0.0, 0.0, 0.0, 0.0, 0.0, 0.0, 0.0, 0.0, 0.0, 0.0, 0.0, 0.0, 0.0, 0.0, 0.0, 0.0, 0.0, 3, 35.0, 0.015, 0.015 
197986, -0.3991227447986603, 0.3756583333015442, -167.4010009765625, 3.700000047683716, -1.2200000286102295, 0.0, 0.0, 0.0, 0.0, 0.0, 0.0, 0.0, 0.0, 0.0, 0.0, 0.0, 0.0, 0.0, 0.0, 0.0, 0.0, 0.0, 3, 35.0, 0.015, 0.015 
197989, -1.8110535144805908, 0.27705153822898865, -166.76296997070312, 3.450000047683716, -1.3799999952316284, 0.0, 0.0, 0.0, 0.0, 0.0, 0.0, 0.0, 0.0, 0.0, 0.0, 0.0, 0.0, 0.0, 0.0, 0.0, 0.0, 0.0, 3, 35.0, 0.015, 0.015 
197991, -2.4992640018463135, 0.2435612976551056, -166.43357849121094, 3.2899999618530273, -1.4700000286102295, 0.0, 0.0, 0.0, 0.0, 0.0, 0.0, 0.0, 0.0, 0.0, 0.0, 0.0, 0.0, 0.0, 0.0, 0.0, 0.0, 0.0, 3, 35.0, 0.015, 0.015 
197993, -3.141916513442993, 0.24785131216049194, -166.30218505859375, 3.130000114440918, -1.5499999523162842, 0.0, 0.0, 0.0, 0.0, 0.0, 0.0, 0.0, 0.0, 0.0, 0.0, 0.0, 0.0, 0.0, 0.0, 0.0, 0.0, 0.0, 3, 35.0, 0.015, 0.015 
197995, -3.739999294281006, 0.1394137591123581, -165.9272918701172, 2.9700000286102295, -1.6200000047683716, 0.0, 0.0, 0.0, 0.0, 0.0, 0.0, 0.0, 0.0, 0.0, 0.0, 0.0, 0.0, 0.0, 0.0, 0.0, 0.0, 0.0, 3, 35.0, 0.015, 0.015 
197997, -4.278517246246338, 0.11005706340074539, -165.7064208984375, 2.799999952316284, -1.6799999475479126, 0.0, 0.0, 0.0, 0.0, 0.0, 0.0, 0.0, 0.0, 0.0, 0.0, 0.0, 0.0, 0.0, 0.0, 0.0, 0.0, 0.0, 3, 35.0, 0.015, 0.015 
198000, -4.9333319664001465, 0.21067456901073456, -165.31781005859375, 2.559999942779541, -1.7300000190734863, 0.0, 0.0, 0.0, 0.0, 0.0, 0.0, 0.0, 0.0, 0.0, 0.0, 0.0, 0.0, 0.0, 0.0, 0.0, 0.0, 0.0, 3, 35.0, 0.015, 0.015 
198002, -5.366399765014648, 0.008875953033566475, -164.93353271484375, 2.4000000953674316, -1.7799999713897705, 0.0, 0.0, 0.0, 0.0, 0.0, 0.0, 0.0, 0.0, 0.0, 0.0, 0.0, 0.0, 0.0, 0.0, 0.0, 0.0, 0.0, 3, 35.0, 0.015, 0.015 
198004, -5.74971342086792, -0.03411959856748581, -164.78952026367188, 2.240000009536743, -1.8200000524520874, 0.0, 0.0, 0.0, 0.0, 0.0, 0.0, 0.0, 0.0, 0.0, 0.0, 0.0, 0.0, 0.0, 0.0, 0.0, 0.0, 0.0, 3, 35.0, 0.015, 0.015 
198006, -6.083287715911865, 0.03288155794143677, -164.42996215820312, 2.0799999237060547, -1.8200000524520874, 0.0, 0.0, 0.0, 0.0, 0.0, 0.0, 0.0, 0.0, 0.0, 0.0, 0.0, 0.0, 0.0, 0.0, 0.0, 0.0, 0.0, 3, 35.0, 0.015, 0.015 
198008, -6.333104133605957, 0.0022439975291490555, -164.04995727539062, 1.8300000429153442, -1.8200000524520874, 0.0, 0.0, 0.0, 0.0, 0.0, 0.0, 0.0, 0.0, 0.0, 0.0, 0.0, 0.0, 0.0, 0.0, 0.0, 0.0, 0.0, 3, 35.0, 0.015, 0.015 
198011, -6.604434967041016, 0.013654261827468872, -163.70645141601562, 1.6699999570846558, -1.8200000524520874, 0.0, 0.0, 0.0, 0.0, 0.0, 0.0, 0.0, 0.0, 0.0, 0.0, 0.0, 0.0, 0.0, 0.0, 0.0, 0.0, 0.0, 3, 35.0, 0.015, 0.015 
198013, -6.724201679229736, 0.0018871001666411757, -163.31390380859375, 1.5099999904632568, -1.8200000524520874, 0.0, 0.0, 0.0, 0.0, 0.0, 0.0, 0.0, 0.0, 0.0, 0.0, 0.0, 0.0, 0.0, 0.0, 0.0, 0.0, 0.0, 3, 35.0, 0.015, 0.015 
198015, -6.837610721588135, -0.05238199979066849, -163.06707763671875, 1.350000023841858, -1.8200000524520874, 0.0, 0.0, 0.0, 0.0, 0.0, 0.0, 0.0, 0.0, 0.0, 0.0, 0.0, 0.0, 0.0, 0.0, 0.0, 0.0, 0.0, 3, 35.0, 0.015, 0.015 
198017, -6.9207000732421875, 0.012909868732094765, -162.81124877929688, 1.1799999475479126, -1.8200000524520874, 0.0, 0.0, 0.0, 0.0, 0.0, 0.0, 0.0, 0.0, 0.0, 0.0, 0.0, 0.0, 0.0, 0.0, 0.0, 0.0, 0.0, 3, 35.0, 0.015, 0.015 
198020, -6.884407997131348, -0.06814975291490555, -162.31271362304688, 0.9399999976158142, -1.8200000524520874, 0.0, 0.0, 0.0, 0.0, 0.0, 0.0, 0.0, 0.0, 0.0, 0.0, 0.0, 0.0, 0.0, 0.0, 0.0, 0.0, 0.0, 3, 35.0, 0.015, 0.015 
198022, -6.735289573669434, -0.011287621222436428, -162.1549530029297, 0.7799999713897705, -1.8200000524520874, 0.0, 0.0, 0.0, 0.0, 0.0, 0.0, 0.0, 0.0, 0.0, 0.0, 0.0, 0.0, 0.0, 0.0, 0.0, 0.0, 0.0, 3, 35.0, 0.015, 0.015 
198024, -6.554908275604248, -0.03588973730802536, -161.85638427734375, 0.6200000047683716, -1.8200000524520874, 0.0, 0.0, 0.0, 0.0, 0.0, 0.0, 0.0, 0.0, 0.0, 0.0, 0.0, 0.0, 0.0, 0.0, 0.0, 0.0, 0.0, 3, 35.0, 0.015, 0.015 
198026, -6.356985092163086, -0.0732555165886879, -161.52720642089844, 0.46000000834465027, -1.8200000524520874, 0.0, 0.0, 0.0, 0.0, 0.0, 0.0, 0.0, 0.0, 0.0, 0.0, 0.0, 0.0, 0.0, 0.0, 0.0, 0.0, 0.0, 3, 35.0, 0.015, 0.015 
198029, -5.930665016174316, -0.10490228235721588, -161.14097595214844, 0.20999999344348907, -1.8200000524520874, 0.0, 0.0, 0.0, 0.0, 0.0, 0.0, 0.0, 0.0, 0.0, 0.0, 0.0, 0.0, 0.0, 0.0, 0.0, 0.0, 0.0, 3, 35.0, 0.015, 0.015 
198031, -5.573190689086914, -0.13930237293243408, -160.80636596679688, 0.05000000074505806, -1.809999942779541, 0.0, 0.0, 0.0, 0.0, 0.0, 0.0, 0.0, 0.0, 0.0, 0.0, 0.0, 0.0, 0.0, 0.0, 0.0, 0.0, 0.0, 3, 35.0, 0.015, 0.015 
198033, -5.145840167999268, -0.1545405089855194, -160.6088104248047, -0.1899999976158142, -1.7599999904632568, 0.0, 0.0, 0.0, 0.0, 0.0, 0.0, 0.0, 0.0, 0.0, 0.0, 0.0, 0.0, 0.0, 0.0, 0.0, 0.0, 0.0, 3, 35.0, 0.015, 0.015 
198035, -4.692990303039551, -0.15945297479629517, -160.39010620117188, -0.27000001072883606, -1.7300000190734863, 0.0, 0.0, 0.0, 0.0, 0.0, 0.0, 0.0, 0.0, 0.0, 0.0, 0.0, 0.0, 0.0, 0.0, 0.0, 0.0, 0.0, 3, 35.0, 0.015, 0.015 
198038, -4.068026065826416, -0.15128803253173828, -159.99200439453125, -0.5099999904632568, -1.659999966621399, 0.0, 0.0, 0.0, 0.0, 0.0, 0.0, 0.0, 0.0, 0.0, 0.0, 0.0, 0.0, 0.0, 0.0, 0.0, 0.0, 0.0, 3, 35.0, 0.015, 0.015 
198040, -3.5261647701263428, -0.19862417876720428, -159.80030822753906, -0.6700000166893005, -1.6100000143051147, 0.0, 0.0, 0.0, 0.0, 0.0, 0.0, 0.0, 0.0, 0.0, 0.0, 0.0, 0.0, 0.0, 0.0, 0.0, 0.0, 0.0, 3, 35.0, 0.015, 0.015 
198042, -2.915611982345581, -0.15796473622322083, -159.6130828857422, -0.8299999833106995, -1.559999942779541, 0.0, 0.0, 0.0, 0.0, 0.0, 0.0, 0.0, 0.0, 0.0, 0.0, 0.0, 0.0, 0.0, 0.0, 0.0, 0.0, 0.0, 3, 35.0, 0.015, 0.015 
198044, -2.1096293926239014, -0.11372077465057373, -159.46844482421875, -1.0, -1.5099999904632568, 0.0, 0.0, 0.0, 0.0, 0.0, 0.0, 0.0, 0.0, 0.0, 0.0, 0.0, 0.0, 0.0, 0.0, 0.0, 0.0, 0.0, 3, 35.0, 0.015, 0.015 
198046, -1.7196098566055298, -0.17358647286891937, -159.3503875732422, -1.159999966621399, -1.4600000381469727, 0.0, 0.0, 0.0, 0.0, 0.0, 0.0, 0.0, 0.0, 0.0, 0.0, 0.0, 0.0, 0.0, 0.0, 0.0, 0.0, 0.0, 3, 35.0, 0.015, 0.015 
198048, -1.1927428245544434, -0.23042532801628113, -159.06687927246094, -1.399999976158142, -1.3899999856948853, 0.0, 0.0, 0.0, 0.0, 0.0, 0.0, 0.0, 0.0, 0.0, 0.0, 0.0, 0.0, 0.0, 0.0, 0.0, 0.0, 0.0, 3, 35.0, 0.015, 0.015 
198051, -0.3853897750377655, -0.1845877319574356, -158.77606201171875, -1.559999942779541, -1.3200000524520874, 0.0, 0.0, 0.0, 0.0, 0.0, 0.0, 0.0, 0.0, 0.0, 0.0, 0.0, 0.0, 0.0, 0.0, 0.0, 0.0, 0.0, 3, 35.0, 0.015, 0.015 
